<?xml version="1.0" encoding="utf-8"?>
<gpx xmlns="http://www.topografix.com/GPX/1/1"
xmlns:xsi="http://www.w3.org/2001/XMLSchema-instance"
xsi:schemaLocation="http://www.topografix.com/GPX/1/1 http://www.topografix.com/GPX/1/1/gpx.xsd"
version="1.1" creator="togpx">
  <metadata>
    <copyright>
      <license>"osm3s": { "timestamp_osm_base":
      "2025-10-01T09:48:26Z", "timestamp_areas_base":
      "2025-10-01T03:35:03Z", "copyright": "The data included in
      this document is from www.openstreetmap.org. The data is made
      available under ODbL." } // SRTM: { Elevation data missing in
      OSM was added by the NASA Shuttle Radar Topography Mission as
      public release version, if available there. } // { Check for
      latest version of this file on:
      https://github.com/GpxFeed/campgrounds }</license>
    </copyright>
  </metadata>
  <wpt lat="41.4706478" lon="19.6987479">
    <ele>20.0</ele>
    <name>Nord Park</name>
    <desc>name=Nord Park; phone=+ 355 692 035 123;
    tourism=camp_site; id=node/1819463486</desc>
  </wpt>
  <wpt lat="40.1583552" lon="19.6059699">
    <ele>20.0</ele>
    <name>ECO Camping</name>
    <desc>name=ECO Camping; tourism=camp_site;
    id=node/2430537906</desc>
  </wpt>
  <wpt lat="40.0965964" lon="19.7543721">
    <ele>3.0</ele>
    <name>Himarä camping</name>
    <desc>name=Himarä camping; tourism=camp_site;
    website=http://www.himaracamping.com/;
    id=node/2432703083</desc>
    <link href="http://www.himaracamping.com/"></link>
  </wpt>
  <wpt lat="41.2328645" lon="19.517263">
    <ele>4.0</ele>
    <name>Mali i Robit</name>
    <desc>internet_access=wlan; name=Mali i Robit;
    tourism=camp_site; website=https://www.hotelmalirobit.com;
    id=node/3658780906</desc>
    <link href="https://www.hotelmalirobit.com"></link>
  </wpt>
  <wpt lat="42.362206" lon="19.8749692">
    <ele>929.0</ele>
    <name>Lumi e Plans</name>
    <desc>internet_access=no; internet_access:fee=no; name=Lumi e
    Plans; sanitary_dump_station=no; smoking=outside; tents=yes;
    tourism=camp_site; wheelchair=no; id=node/4038105594</desc>
  </wpt>
  <wpt lat="40.2148022" lon="20.6462656">
    <ele>987.0</ele>
    <name>Farma Sotira</name>
    <desc>addr:city=Kolonje; addr:street=Rruga Nacionale, Leskovik
    - Ersek, Km 15; caravans=yes; fee=yes; internet_access=wlan;
    name=Farma Sotira; phone=+355 692 342 529; tents=yes;
    tourism=camp_site; website=https://www.farmasotira.com/;
    id=node/4269904990</desc>
    <link href="https://www.farmasotira.com/"></link>
  </wpt>
  <wpt lat="40.1078271" lon="19.7276204">
    <ele>4.0</ele>
    <name>Blue Camping</name>
    <desc>description=Small camping site. Many big olive trees are
    providing shade. The camping site is run by a austrian german
    couple.; internet_access=wlan; name=Blue Camping;
    opening_hours=24/7; phone=+355 693 872 041; tourism=camp_site;
    id=node/4316975190</desc>
  </wpt>
  <wpt lat="42.1891106" lon="20.4546895">
    <ele>1038.0</ele>
    <name>Kampingu ne Bjeshkën e Krumës</name>
    <desc>name=Kampingu ne Bjeshkën e Krumës; tourism=camp_site;
    id=node/4330532854; ; id=way/1092684418</desc>
  </wpt>
  <wpt lat="40.1271634" lon="19.6714042">
    <ele>16.0</ele>
    <name>node/4340767328</name>
    <desc>tourism=camp_site; id=node/4340767328</desc>
  </wpt>
  <wpt lat="40.109646" lon="19.7246985">
    <ele>4.0</ele>
    <name>Camping livadh</name>
    <desc>name=Camping livadh; tourism=camp_site;
    id=node/4343081292</desc>
  </wpt>
  <wpt lat="40.1266117" lon="19.6703509">
    <ele>1.0</ele>
    <name>Gjiri i Gjipes</name>
    <desc>addr:postcode=9425; caravans=yes; name=Gjiri i Gjipes;
    name:en=Bivouac on the beach; name:sq=Ngjipe Plazh; tents=yes;
    tourism=camp_site; wheelchair=no; id=node/4357664094</desc>
  </wpt>
  <wpt lat="40.1552939" lon="19.6150712">
    <ele>42.0</ele>
    <name>Kamping Totoreto</name>
    <desc>capacity=30; name=Kamping Totoreto; note=seasonal;
    phone=+355 682 704 977; tourism=camp_site;
    id=node/4370350825</desc>
  </wpt>
  <wpt lat="41.8344312" lon="20.3304487">
    <ele>725.0</ele>
    <name>Biofarm Reci</name>
    <desc>name=Biofarm Reci; tourism=camp_site;
    website=http://www.biofarm.al/; id=node/4384408339</desc>
    <link href="http://www.biofarm.al/"></link>
  </wpt>
  <wpt lat="40.101185" lon="20.1506434">
    <ele>197.0</ele>
    <name>Kamping Gijrokaster</name>
    <desc>addr:street=Rruga Valere; caravans=yes;
    drinking_water=yes; email=campinggjirokaster@yahoo.com;
    internet_access=wlan; internet_access:fee=no; name=Kamping
    Gijrokaster; phone=+355 69 839 1492; power_supply=yes;
    shower=yes; tents=yes; toilets=yes; tourism=camp_site;
    website=http://campinggjirokaster.al; id=node/4389923389</desc>
    <link href="http://campinggjirokaster.al"></link>
  </wpt>
  <wpt lat="41.0681689" lon="20.6296912">
    <ele>746.0</ele>
    <name>Lin</name>
    <desc>addr:street=SH 3; caravans=yes; fee=yes; name=Lin;
    phone=+355 69 546 1388; tourism=camp_site;
    id=node/4394588728</desc>
  </wpt>
  <wpt lat="40.2260343" lon="20.6611806">
    <ele>1036.0</ele>
    <name>Vila Gjermeni Jorgo</name>
    <desc>caravans=yes; fee=yes; name=Vila Gjermeni Jorgo;
    tents=yes; tourism=camp_site; id=node/4399544696</desc>
  </wpt>
  <wpt lat="42.0347791" lon="20.4618071">
    <ele>1330.0</ele>
    <name>node/4427852691</name>
    <desc>tourism=camp_site; id=node/4427852691</desc>
  </wpt>
  <wpt lat="41.57242" lon="20.05241">
    <ele>213.0</ele>
    <name>Albania Oasi Alla Chiesa - Burrel Suc</name>
    <desc>name=Albania Oasi Alla Chiesa - Burrel Suc; phone=+355 67
    275 5822; tourism=camp_site; id=node/4508478453</desc>
  </wpt>
  <wpt lat="40.153434" lon="19.6161386">
    <ele>36.0</ele>
    <name>Paradise</name>
    <desc>name=Paradise; tourism=camp_site;
    id=node/4508607085</desc>
  </wpt>
  <wpt lat="40.9010094" lon="20.7098709">
    <ele>689.0</ele>
    <name>Arbi</name>
    <desc>name=Arbi; name:mk=Арби; opening_hours=Apr-Oct:
    00:00-24:00; phone=+355 692 061 121; tourism=camp_site;
    id=node/4508643886</desc>
  </wpt>
  <wpt lat="40.96677" lon="20.64266">
    <ele>695.0</ele>
    <name>Peshku Ohrid Lake</name>
    <desc>name=Peshku Ohrid Lake; phone=+355 683 647 956;
    tourism=camp_site; id=node/4508682263</desc>
  </wpt>
  <wpt lat="42.5290335" lon="19.7264107">
    <ele>1296.0</ele>
    <name>Camping Lepushe</name>
    <desc>email=booking@bujtinalepushe.com; internet_access=yes;
    internet_access:fee=no; name=Camping Lepushe; name:sq=Camping
    Lepushe; operator=Zef Nilaj; phone=+355 69 993 5806;
    smoking=outside; tourism=camp_site;
    website=http://www.bujtinalepushe.com/; wheelchair=limited;
    id=node/4690527917</desc>
    <link href="http://www.bujtinalepushe.com/"></link>
  </wpt>
  <wpt lat="40.5282263" lon="20.7094168">
    <ele>918.0</ele>
    <name>Spiecapag Korça Camp</name>
    <desc>addr:street=Floq; caravans=yes; name=Spiecapag Korça
    Camp; tourism=camp_site; id=node/4713067589</desc>
  </wpt>
  <wpt lat="40.3280826" lon="19.4580577">
    <ele>1.0</ele>
    <name>SHTEPIA E PESHKUT</name>
    <desc>caravans=yes; drinking_water=yes; name=SHTEPIA E PESHKUT;
    name:sq=SHTEPIA E PESHKUT; phone=+355 69 321 1355;
    power_supply=yes; tents=yes; tourism=camp_site;
    id=node/4864099323</desc>
  </wpt>
  <wpt lat="41.8348174" lon="20.33048">
    <ele>725.0</ele>
    <name>node/4982432624</name>
    <desc>name:en=Biofarma camping; tourism=camp_site;
    id=node/4982432624</desc>
  </wpt>
  <wpt lat="40.1098853" lon="19.7228673">
    <ele>1.0</ele>
    <name>Camping Moskato - Camping &amp; parking all year
    open</name>
    <desc>addr:street=Road Himare-Livadh km 2.1;
    email=vasil_joshi@hotmail.co.uk; internet_access=wlan;
    name=Camping Moskato - Camping &amp; parking all year open;
    name:en=Camping Moskato - Camping &amp; parking all year open;
    name:it=Camping Moskato - Camping &amp; parking all year open;
    phone=+355674905519; tourism=camp_site;
    id=node/4984923324</desc>
  </wpt>
  <wpt lat="40.3779519" lon="19.4793734">
    <ele>1.0</ele>
    <name>Camping Vlora</name>
    <desc>name=Camping Vlora; tourism=camp_site;
    website=https://camping-vlora.business.site/;
    id=node/4999891021</desc>
    <link href="https://camping-vlora.business.site/"></link>
  </wpt>
  <wpt lat="42.3876438" lon="19.7841132">
    <ele>751.0</ele>
    <name>Pashko</name>
    <desc>capacity=10; caravans=yes; fee=yes; name=Pashko;
    phone=+355693256415; tents=yes; tourism=camp_site;
    id=node/5008932999</desc>
  </wpt>
  <wpt lat="40.1449627" lon="19.6311322">
    <ele>8.0</ele>
    <name>Bungalow TONEDA</name>
    <desc>name=Bungalow TONEDA; name:en=Bungalow TONEDA;
    tourism=camp_site; id=node/5029945221</desc>
  </wpt>
  <wpt lat="41.295326" lon="19.8293585">
    <ele>174.0</ele>
    <name>node/5480658924</name>
    <desc>tourism=camp_site; id=node/5480658924</desc>
  </wpt>
  <wpt lat="42.1983821" lon="19.8081713">
    <ele>175.0</ele>
    <name>node/5579281662</name>
    <desc>internet_access=yes; internet_access:fee=no;
    sanitary_dump_station=public; tents=yes; tourism=camp_site;
    wheelchair=no; id=node/5579281662</desc>
  </wpt>
  <wpt lat="41.487501" lon="19.7678629">
    <ele>191.0</ele>
    <name>Bar Restorant Oaz</name>
    <desc>amenity=restaurant; check_date=2022-10-13;
    cuisine=regional; description:en=Restaurant with camping
    possibilities on the parking and in the backyard.;
    internet_access=wlan; internet_access:fee=customers; name=Bar
    Restorant Oaz; outdoor_seating=yes; tourism=camp_site;
    id=node/5582293821</desc>
  </wpt>
  <wpt lat="39.9875563" lon="19.9027879">
    <ele>15.0</ele>
    <name>Gate to Horizon-Bio Camping Lukove</name>
    <desc>caravans=yes; drinking_water=no; name=Gate to Horizon-Bio
    Camping Lukove; power_supply=yes; sanitary_dump_station=no;
    shower=yes; tents=yes; toilets=yes; tourism=camp_site;
    id=node/5743055970</desc>
  </wpt>
  <wpt lat="40.7047739" lon="19.9405664">
    <ele>52.0</ele>
    <name>Villa Juri</name>
    <desc>caravans=yes; description=WLAN PW juri1234; name=Villa
    Juri; phone=+355 69 759 2339; tents=no; tourism=camp_site;
    id=node/5753986401</desc>
  </wpt>
  <wpt lat="41.5684519" lon="20.4448895">
    <ele>441.0</ele>
    <name>Natyra</name>
    <desc>caravans=yes; drinking_water=yes; name=Natyra;
    power_supply=yes; shower=yes; tents=yes; toilets=yes;
    tourism=camp_site; id=node/5768642854</desc>
  </wpt>
  <wpt lat="42.0683304" lon="19.6861047">
    <ele>73.0</ele>
    <name>Albanien, Koman, Agora Farmhouse</name>
    <desc>name=Albanien, Koman, Agora Farmhouse; tourism=camp_site;
    website=https://www.facebook.com/CampingAgora/;
    id=node/5819684241</desc>
    <link href="https://www.facebook.com/CampingAgora/"></link>
  </wpt>
  <wpt lat="39.987489" lon="19.9027294">
    <ele>2.0</ele>
    <name>Gate to Horizon</name>
    <desc>name=Gate to Horizon; phone=+355695156619;
    tourism=camp_site; id=node/5840105286</desc>
  </wpt>
  <wpt lat="42.5917368" lon="19.6859198">
    <ele>1050.0</ele>
    <name>node/5884006585</name>
    <desc>tourism=camp_site; id=node/5884006585</desc>
  </wpt>
  <wpt lat="42.381049" lon="19.7875564">
    <ele>717.0</ele>
    <name>Free camping</name>
    <desc>name=Free camping; tourism=camp_site;
    id=node/5890164716</desc>
  </wpt>
  <wpt lat="40.9330691" lon="20.6409963">
    <ele>691.0</ele>
    <name>node/5906763720</name>
    <desc>tourism=camp_site; id=node/5906763720</desc>
  </wpt>
  <wpt lat="42.4105231" lon="19.8227804">
    <ele>1469.0</ele>
    <name>node/5922128117</name>
    <desc>tourism=camp_site; id=node/5922128117</desc>
  </wpt>
  <wpt lat="39.8500974" lon="20.0209742">
    <ele>5.0</ele>
    <name>Ecuador</name>
    <desc>name=Ecuador; tourism=camp_site;
    id=node/5996039655</desc>
  </wpt>
  <wpt lat="41.740409" lon="20.5031576">
    <ele>1754.0</ele>
    <name>Korabi Mountain Camping</name>
    <desc>name=Korabi Mountain Camping; phone=+355 68 391 2126;
    tourism=camp_site;
    website=https://www.facebook.com/pg/Korabi-Mountain-Camping-219286818857550;
    id=node/6034169632</desc>
    <link href="https://www.facebook.com/pg/Korabi-Mountain-Camping-219286818857550">
    </link>
  </wpt>
  <wpt lat="41.5216983" lon="19.785259">
    <ele>414.0</ele>
    <name>Krujë Camping</name>
    <desc>addr:city=Krujë; addr:postcode=1501; addr:street=Rruga
    Abaze; caravans=yes; internet_access=wlan; name=Krujë Camping;
    tents=yes; tourism=camp_site;
    website=https://www.facebook.com/krujecamping/;
    id=node/6455486452</desc>
    <link href="https://www.facebook.com/krujecamping/"></link>
  </wpt>
  <wpt lat="40.9861564" lon="19.4999141">
    <ele>-5.0</ele>
    <name>Laguna camping</name>
    <desc>name=Laguna camping; tourism=camp_site;
    id=node/6483801119</desc>
  </wpt>
  <wpt lat="40.0545782" lon="19.8257712">
    <ele>6.0</ele>
    <name>StarCamp</name>
    <desc>name=StarCamp; tourism=camp_site;
    id=node/6627317703</desc>
  </wpt>
  <wpt lat="42.4305019" lon="19.8720893">
    <ele>996.0</ele>
    <name>Camping Krojet e Rrogamit</name>
    <desc>name=Camping Krojet e Rrogamit; tourism=camp_site;
    id=node/6638349146</desc>
  </wpt>
  <wpt lat="42.4287582" lon="19.8722208">
    <ele>1000.0</ele>
    <name>node/6638363601</name>
    <desc>tourism=camp_site; id=node/6638363601</desc>
  </wpt>
  <wpt lat="42.4481123" lon="19.8863668">
    <ele>942.0</ele>
    <name>Kamping Imer Selimaj</name>
    <desc>name=Kamping Imer Selimaj; name:en=Camping Imer Selimaj;
    name:fr=Camping Imer Selimaj; tourism=camp_site;
    id=node/6699328288</desc>
  </wpt>
  <wpt lat="42.4525093" lon="19.8922297">
    <ele>930.0</ele>
    <name>node/6703688509</name>
    <desc>tourism=camp_site; id=node/6703688509</desc>
  </wpt>
  <wpt lat="40.1347302" lon="19.6599795">
    <ele>117.0</ele>
    <name>Black Goat Campground</name>
    <desc>addr:city=Himarë; addr:street=Rruga Shen Parasqevi (Aj
    Parasqevi); name=Black Goat Campground; tourism=camp_site;
    id=node/6715124065</desc>
  </wpt>
  <wpt lat="42.4597134" lon="19.922191">
    <ele>751.0</ele>
    <name>node/6732027303</name>
    <desc>tourism=camp_site; id=node/6732027303</desc>
  </wpt>
  <wpt lat="39.9958979" lon="19.8964915">
    <ele>16.0</ele>
    <name>node/6752048685</name>
    <desc>tourism=camp_site; id=node/6752048685</desc>
  </wpt>
  <wpt lat="42.0205899" lon="19.6609338">
    <ele>73.0</ele>
    <name>Camping Principata</name>
    <desc>name=Camping Principata; name:en=Abandoned Camping Spot;
    tourism=camp_site; id=node/6755892585</desc>
  </wpt>
  <wpt lat="41.1006213" lon="20.0283657">
    <ele>96.0</ele>
    <name>Landi</name>
    <desc>addr:postcode=3009; email=gydda@gmx.de;
    internet_access=wlan; internet_access:fee=no; name=Landi;
    phone=+355 69 660 1755; tourism=camp_site;
    id=node/6776355383</desc>
  </wpt>
  <wpt lat="42.4481464" lon="19.8862981">
    <ele>942.0</ele>
    <name>Camping</name>
    <desc>name=Camping; tourism=camp_site;
    id=node/6779512152</desc>
  </wpt>
  <wpt lat="42.4445915" lon="19.8822178">
    <ele>949.0</ele>
    <name>Valbona Eco Camping</name>
    <desc>name=Valbona Eco Camping; tourism=camp_site;
    id=node/6779575670</desc>
  </wpt>
  <wpt lat="42.426835" lon="19.7612299">
    <ele>943.0</ele>
    <name>Camping</name>
    <desc>name=Camping; tourism=camp_site;
    id=node/6779576401</desc>
  </wpt>
  <wpt lat="42.4456555" lon="19.8854575">
    <ele>949.0</ele>
    <name>Camping</name>
    <desc>name=Camping; tourism=camp_site;
    id=node/6779576588</desc>
  </wpt>
  <wpt lat="42.3959632" lon="19.7739834">
    <ele>754.0</ele>
    <name>Camping</name>
    <desc>name=Camping; tourism=camp_site;
    id=node/6779578144</desc>
  </wpt>
  <wpt lat="42.4485179" lon="19.886653">
    <ele>938.0</ele>
    <name>Camping</name>
    <desc>name=Camping; tourism=camp_site;
    id=node/6779578928</desc>
  </wpt>
  <wpt lat="42.4019603" lon="19.7703794">
    <ele>820.0</ele>
    <name>node/6779580709</name>
    <desc>tourism=camp_site; id=node/6779580709</desc>
  </wpt>
  <wpt lat="40.7119095" lon="19.9464092">
    <ele>154.0</ele>
    <name>Camping La Taverna Lazaro</name>
    <desc>name=Camping La Taverna Lazaro; tourism=camp_site;
    id=node/6789811474</desc>
  </wpt>
  <wpt lat="40.0531022" lon="19.8190838">
    <ele>1.0</ele>
    <name>Kemping M2</name>
    <desc>description=Free camping; name=Kemping M2;
    tourism=camp_site; id=node/6913803259</desc>
  </wpt>
  <wpt lat="40.0247766" lon="19.8753094">
    <ele>5.0</ele>
    <name>Welcome to the jungle</name>
    <desc>name=Welcome to the jungle; tourism=camp_site;
    id=node/7021977568</desc>
  </wpt>
  <wpt lat="41.6979653" lon="19.5842919">
    <ele>1.0</ele>
    <name>Camping</name>
    <desc>name=Camping; tourism=camp_site;
    id=node/7620311828</desc>
  </wpt>
  <wpt lat="41.8676915" lon="19.4045978">
    <ele>3.0</ele>
    <name>velipoj</name>
    <desc>name=velipoj; tourism=camp_site;
    id=node/7694538385</desc>
  </wpt>
  <wpt lat="42.500495" lon="19.9228884">
    <ele>1581.0</ele>
    <name>node/7742554687</name>
    <desc>name:en=Wild camping. Water from the locals huts 100m up;
    tourism=camp_site; id=node/7742554687</desc>
  </wpt>
  <wpt lat="42.4679768" lon="19.8153985">
    <ele>1768.0</ele>
    <name>node/7756993685</name>
    <desc>backcountry=yes; camp_site=basic; caravans=no;
    name:en=wild camping spot; tents=yes; tourism=camp_site;
    id=node/7756993685</desc>
  </wpt>
  <wpt lat="40.5593572" lon="19.9778289">
    <ele>309.0</ele>
    <name>CP1.2</name>
    <desc>name=CP1.2; tourism=camp_site; id=node/7902264685</desc>
  </wpt>
  <wpt lat="40.4903312" lon="20.017335">
    <ele>587.0</ele>
    <name>cp3</name>
    <desc>name=cp3; tourism=camp_site; id=node/7902742185</desc>
  </wpt>
  <wpt lat="41.2517896" lon="19.8739336">
    <ele>380.0</ele>
    <name>Persqopi Camping</name>
    <desc>name=Persqopi Camping; tourism=camp_site;
    id=node/8769396587</desc>
  </wpt>
  <wpt lat="42.0262471" lon="19.4603057">
    <ele>32.0</ele>
    <name>https://www.ecosocialfarm.com/</name>
    <desc>caravans=yes; check_date=2024-05-01; dog=yes;
    drinking_water=yes; email=facikastriot@yahoo.com; fee=yes;
    group_only=no; internet_access=wlan; internet_access:fee=no;
    name:en=Eco-social Farm; opening_hours=24/7; payment:cash=yes;
    phone=+355 68 202 6559; picnic_table=yes; power_supply=yes;
    shower=yes; tents=yes; toilets=yes; tourism=camp_site;
    website=https://www.ecosocialfarm.com/; wheelchair=no;
    id=node/8831872418</desc>
    <link href="https://www.ecosocialfarm.com/"></link>
  </wpt>
  <wpt lat="40.9745232" lon="19.4802472">
    <ele>4.0</ele>
    <name>Piccolo Paradise</name>
    <desc>caravans=yes; name=Piccolo Paradise; tents=yes;
    tourism=camp_site; id=node/8837790181</desc>
  </wpt>
  <wpt lat="41.7675107" lon="20.3876141">
    <ele>707.0</ele>
    <name>Dibra Camping</name>
    <desc>name=Dibra Camping; tourism=camp_site;
    id=node/8925884017</desc>
  </wpt>
  <wpt lat="42.5830123" lon="19.7470887">
    <ele>1002.0</ele>
    <name>node/8972482918</name>
    <desc>tourism=camp_site; id=node/8972482918</desc>
  </wpt>
  <wpt lat="39.8471285" lon="20.026106">
    <ele>9.0</ele>
    <name>Saranda Camping Riverside</name>
    <desc>caravans=yes; contact:email=sarandariverside@gmail.com;
    contact:phone=+355 69 833 8634;
    contact:website=https://www.facebook.com/SARANDA.CAMPING.Riverside/;
    name=Saranda Camping Riverside; tents=yes; tourism=camp_site;
    id=node/9010338877</desc>
    <link href="https://www.facebook.com/SARANDA.CAMPING.Riverside/">
    </link>
  </wpt>
  <wpt lat="42.0712872" lon="19.6905394">
    <ele>114.0</ele>
    <name>Ledi's Place</name>
    <desc>name=Ledi's Place; tourism=camp_site;
    id=node/9041579871</desc>
  </wpt>
  <wpt lat="41.8146859" lon="19.5694422">
    <ele>13.0</ele>
    <name>camping</name>
    <desc>internet_access=wlan; name=camping; name:pl=brak słodkiej
    wody; tourism=camp_site; id=node/9041688117</desc>
  </wpt>
  <wpt lat="42.0996287" lon="19.8159164">
    <ele>81.0</ele>
    <name>Bujtina "Kulla e Vjetër"</name>
    <desc>name=Bujtina "Kulla e Vjetër"; tourism=camp_site;
    id=node/9282711837</desc>
  </wpt>
  <wpt lat="40.2389176" lon="19.9116386">
    <ele>836.0</ele>
    <name>Camp Nivica</name>
    <desc>backcountry=yes; name=Camp Nivica; tourism=camp_site;
    id=node/9312829694</desc>
  </wpt>
  <wpt lat="41.6938358" lon="19.7965018">
    <ele>32.0</ele>
    <name>node/9677503630</name>
    <desc>tourism=camp_site; id=node/9677503630</desc>
  </wpt>
  <wpt lat="41.6926646" lon="19.8024695">
    <ele>53.0</ele>
    <name>node/9677521100</name>
    <desc>tourism=camp_site; id=node/9677521100</desc>
  </wpt>
  <wpt lat="40.1949355" lon="19.95635">
    <ele>1098.0</ele>
    <name>node/9700182465</name>
    <desc>tourism=camp_site; id=node/9700182465</desc>
  </wpt>
  <wpt lat="42.4557434" lon="19.7990372">
    <ele>2022.0</ele>
    <name>node/9701082716</name>
    <desc>tourism=camp_site; id=node/9701082716</desc>
  </wpt>
  <wpt lat="40.0898079" lon="20.1380349">
    <ele>192.0</ele>
    <name>Green Park Camping Gjirokastra</name>
    <desc>access=yes; addr:city=Gjirokastër; addr:postcode=6017;
    addr:street=SH4; capacity:caravans=25; fee=yes; name=Green Park
    Camping Gjirokastra; payment:cash=yes; phone=+355699546335;
    tourism=camp_site;
    website=https://green-park-gjirokaster.business.site/?utm_source=gmb&amp;utm_medium=referral;
    id=node/9766481825</desc>
    <link href="https://green-park-gjirokaster.business.site/?utm_source=gmb%26utm_medium=referral">
    </link>
  </wpt>
  <wpt lat="41.2046387" lon="19.4906802">
    <ele>0.0</ele>
    <name>Camping Sunset</name>
    <desc>name=Camping Sunset; tourism=camp_site;
    id=node/9807168681</desc>
  </wpt>
  <wpt lat="40.7872658" lon="19.811584">
    <ele>68.0</ele>
    <name>node/9828340718</name>
    <desc>name:en=Wild Camping; name:fr=Camping Sauvage;
    tourism=camp_site; id=node/9828340718</desc>
  </wpt>
  <wpt lat="41.649161" lon="20.5058629">
    <ele>1713.0</ele>
    <name>Bjeshket e FIDALLARVE</name>
    <desc>name=Bjeshket e FIDALLARVE; tourism=camp_site;
    id=node/9858666617</desc>
  </wpt>
  <wpt lat="41.6497847" lon="20.5086298">
    <ele>1750.0</ele>
    <name>Bjeshket e FIDALLARVE</name>
    <desc>name=Bjeshket e FIDALLARVE; tourism=camp_site;
    id=node/9858699817</desc>
  </wpt>
  <wpt lat="41.3613576" lon="19.6524612">
    <ele>215.0</ele>
    <name>node/9894932617</name>
    <desc>name:en=great campspot; tourism=camp_site;
    id=node/9894932617</desc>
  </wpt>
  <wpt lat="40.0942655" lon="20.1486375">
    <ele>187.0</ele>
    <name>Family</name>
    <desc>caravans=yes; drinking_water=yes; internet_access=wlan;
    name=Family; power_supply=yes; shower=yes; tents=yes;
    toilets=yes; tourism=camp_site; id=node/9951260508</desc>
  </wpt>
  <wpt lat="42.4026319" lon="19.7562128">
    <ele>1056.0</ele>
    <name>Camping Freskia</name>
    <desc>internet_access=wlan; name=Camping Freskia; phone=+355
    688698363; tourism=camp_site; id=node/9966525712</desc>
  </wpt>
  <wpt lat="42.0377694" lon="19.5011491">
    <ele>2.0</ele>
    <name>River Camping</name>
    <desc>addr:city=Shkodër; addr:country=AL; addr:postcode=4001;
    addr:street=Rruga e Tiranes; internet_access=wlan; name=River
    Camping; phone=+355 69 830 5630; tourism=camp_site;
    id=node/9969271908</desc>
  </wpt>
  <wpt lat="40.6882285" lon="19.9693209">
    <ele>67.0</ele>
    <name>Natyra e Qetë</name>
    <desc>name=Natyra e Qetë; tourism=camp_site;
    id=node/9972910982</desc>
  </wpt>
  <wpt lat="41.3716357" lon="19.8592517">
    <ele>181.0</ele>
    <name>Camping Dajti</name>
    <desc>caravans=yes; drinking_water=yes; name=Camping Dajti;
    power_supply=yes; sanitary_dump_station=no; shower=yes;
    tents=yes; toilets=yes; tourism=camp_site;
    id=node/9974890878</desc>
  </wpt>
  <wpt lat="40.8979694" lon="20.6977584">
    <ele>692.0</ele>
    <name>Bio Kamping Pogradec</name>
    <desc>
    contact:facebook=https://www.facebook.com/Bio-Kamping-1750274228543418/;
    contact:phone=+355 69 409 4705; name=Bio Kamping Pogradec;
    tourism=camp_site; id=node/9979556475</desc>
  </wpt>
  <wpt lat="40.099033" lon="19.7397259">
    <ele>8.0</ele>
    <name>Pine Side Camping</name>
    <desc>caravans=no; drinking_water=no; name=Pine Side Camping;
    power_supply=yes; shower=yes; tents=yes; toilets=yes;
    tourism=camp_site; id=node/10011638557</desc>
  </wpt>
  <wpt lat="39.782316" lon="20.0068941">
    <ele>4.0</ele>
    <name>Neasden Camping With Tents</name>
    <desc>addr:city=Ksamil; name=Neasden Camping With Tents;
    tourism=camp_site; id=node/10017948356</desc>
  </wpt>
  <wpt lat="42.0374029" lon="19.4811701">
    <ele>8.0</ele>
    <name>Ishulli i Arjanit</name>
    <desc>name=Ishulli i Arjanit; tourism=camp_site;
    id=node/10043463471</desc>
  </wpt>
  <wpt lat="40.0516057" lon="19.8135287">
    <ele>1.0</ele>
    <name>Wildcamping Nähe Qeparo</name>
    <desc>name=Wildcamping Nähe Qeparo; tourism=camp_site;
    id=node/10118839716</desc>
  </wpt>
  <wpt lat="40.900551" lon="20.700227">
    <ele>693.0</ele>
    <name>Idi</name>
    <desc>name=Idi; tourism=camp_site; id=node/10171937559</desc>
  </wpt>
  <wpt lat="40.2668311" lon="20.2928195">
    <ele>213.0</ele>
    <name>node/10255224601</name>
    <desc>tourism=camp_site; id=node/10255224601</desc>
  </wpt>
  <wpt lat="40.7206014" lon="19.9493872">
    <ele>62.0</ele>
    <name>Camping Castle Berat</name>
    <desc>access=yes; addr:city=Berat; addr:postcode=5001;
    addr:street=Rruga Muzak Topia; capacity:caravans=25;
    capacity:tents=20; caravans=yes; charge=15 euro for 1 night
    inculuded everything; description=the campsite is located just
    2 minutes away from the castle!; quiet area sorrounded by
    trees!; all the services:; eletricity; drinkink water;
    2separate toilet; 4 separate showers; grey water and black
    water; washing machine wash &amp; dry; dish washer; free wifi;
    fee=yes; name=Camping Castle Berat; operator=+355685204000
    Whatsapp Number:; payment:cash=yes; static_caravans=yes;
    tents=yes; tourism=camp_site; id=node/10709839208</desc>
  </wpt>
  <wpt lat="42.4578032" lon="19.7731832">
    <ele>1680.0</ele>
    <name>node/10769578008</name>
    <desc>backcountry=yes; camp_site=basic; caravans=no; tents=yes;
    tourism=camp_site; id=node/10769578008</desc>
  </wpt>
  <wpt lat="40.2404213" lon="20.4291861">
    <ele>327.0</ele>
    <name>Vjosa Explorer</name>
    <desc>caravans=yes; currency:EUR=yes; drinking_water=yes;
    fee=yes; internet_access=wlan; name=Vjosa Explorer;
    payment:cash:EUR=yes; power_supply=yes;
    sanitary_dump_station=yes; shower=yes; survey:date=2023-05-21;
    tents=yes; toilets=yes; tourism=camp_site;
    id=node/10916225505</desc>
  </wpt>
  <wpt lat="40.2165659" lon="19.5656756">
    <ele>972.0</ele>
    <name>node/10926838505</name>
    <desc>tourism=camp_site; id=node/10926838505</desc>
  </wpt>
  <wpt lat="40.1141089" lon="19.7217391">
    <ele>37.0</ele>
    <name>Camping Himara</name>
    <desc>internet_access=wlan; name=Camping Himara;
    tourism=camp_site; id=node/10957021705</desc>
  </wpt>
  <wpt lat="41.6919812" lon="19.8343846">
    <ele>88.0</ele>
    <name>node/10984620405</name>
    <desc>tourism=camp_site; id=node/10984620405</desc>
  </wpt>
  <wpt lat="42.3861332" lon="19.7821887">
    <ele>733.0</ele>
    <name>Shpella Garden</name>
    <desc>name=Shpella Garden; tourism=camp_site;
    id=node/11006025276</desc>
  </wpt>
  <wpt lat="41.8136528" lon="20.4866511">
    <ele>1233.0</ele>
    <name>node/11010106728</name>
    <desc>tourism=camp_site; id=node/11010106728</desc>
  </wpt>
  <wpt lat="41.8185072" lon="20.5265213">
    <ele>1881.0</ele>
    <name>node/11033281325</name>
    <desc>tourism=camp_site; id=node/11033281325</desc>
  </wpt>
  <wpt lat="41.6284877" lon="20.4617546">
    <ele>707.0</ele>
    <name>Camping Erebar stone</name>
    <desc>addr:postcode=8301; addr:street=Rruga Peshkopi-Maqellare;
    name=Camping Erebar stone; name:en=Camping Erebar Stone;
    tourism=camp_site;
    website=https://m.facebook.com/people/Camping-Erebar-Stone/100083146698663/;
    id=node/11052364505</desc>
    <link href="https://m.facebook.com/people/Camping-Erebar-Stone/100083146698663/">
    </link>
  </wpt>
  <wpt lat="40.1738649" lon="19.6106458">
    <ele>271.0</ele>
    <name>node/11054405006</name>
    <desc>name:en=Flat place for tent; tourism=camp_site;
    id=node/11054405006</desc>
  </wpt>
  <wpt lat="41.8606828" lon="19.4653247">
    <ele>1.0</ele>
    <name>Eco Camping Emotione</name>
    <desc>email=emotionecamp.albania@gmail.com;
    internet_access=wlan; name=Eco Camping Emotione; name:sq=Eco
    Camping Emozione; phone=+355 69 534 9755; tourism=camp_site;
    website=https://m.facebook.com/Emozione.Campzone.Albania;
    id=node/11086715405</desc>
    <link href="https://m.facebook.com/Emozione.Campzone.Albania">
    </link>
  </wpt>
  <wpt lat="41.28564" lon="19.510178">
    <ele>0.0</ele>
    <name>Camping Scoturk</name>
    <desc>addr:housenumber=16; addr:street=Rruga Val Deti;
    internet_access=wlan; name=Camping Scoturk; name:sq=Kamping
    Scoturk; phone=+355 69 537 5958; tourism=camp_site;
    id=node/11091258005</desc>
  </wpt>
  <wpt lat="42.3674618" lon="19.7886314">
    <ele>585.0</ele>
    <name>node/11112069405</name>
    <desc>tourism=camp_site; id=node/11112069405</desc>
  </wpt>
  <wpt lat="40.099248" lon="19.739994">
    <ele>15.0</ele>
    <name>The Sea Cave Camping</name>
    <desc>caravans=no; drinking_water=no; name=The Sea Cave
    Camping; power_supply=yes; shower=yes; tents=yes; toilets=yes;
    tourism=camp_site; id=node/11137216405</desc>
  </wpt>
  <wpt lat="41.7614847" lon="19.8895785">
    <ele>94.0</ele>
    <name>Camping Lakoza</name>
    <desc>name=Camping Lakoza; tourism=camp_site;
    id=node/11168957589</desc>
  </wpt>
  <wpt lat="40.7176632" lon="19.4629391">
    <ele>3.0</ele>
    <name>Camping Appolonia</name>
    <desc>caravans=yes; name=Camping Appolonia; shower=yes;
    tents=yes; toilets=yes; tourism=camp_site;
    id=node/11194079364</desc>
  </wpt>
  <wpt lat="41.2855807" lon="19.5102251">
    <ele>0.0</ele>
    <name>Scoturk</name>
    <desc>name=Scoturk; tourism=camp_site;
    id=node/11201809082</desc>
  </wpt>
  <wpt lat="41.2527295" lon="19.5205649">
    <ele>0.0</ele>
    <name>Camping at beach</name>
    <desc>caravans=yes; description=parking on beach (sand)
    underneath pine trees, in the evening elderly man comes around
    and collects 5€ per van/tent, showers, toilets at Tropicana
    Beach Bar; fee=yes; name=Camping at beach; tents=yes;
    tourism=camp_site; id=node/11206322989</desc>
  </wpt>
  <wpt lat="41.7677196" lon="19.5990392">
    <ele>0.0</ele>
    <name>Laguna Park</name>
    <desc>name=Laguna Park; tourism=camp_site;
    id=node/11223011215</desc>
  </wpt>
  <wpt lat="40.7022137" lon="19.9437197">
    <ele>56.0</ele>
    <name>Camping Veno</name>
    <desc>name=Camping Veno; tourism=camp_site;
    id=node/11229612843</desc>
  </wpt>
  <wpt lat="41.5703711" lon="19.4583294">
    <ele>5.0</ele>
    <name>node/11234010543</name>
    <desc>access=customers; caravans=yes; check_date=2023-10-02;
    static_caravans=no; tents=no; tourism=camp_site;
    id=node/11234010543</desc>
  </wpt>
  <wpt lat="42.1381191" lon="19.4669715">
    <ele>7.0</ele>
    <name>Lake Shkodra Resort (outer camp)</name>
    <desc>caravans=yes; description:en=makeshift camp ground of
    Lake Shkodra Resort (used if the resort is fully booked);
    name=Lake Shkodra Resort (outer camp); tents=yes;
    tourism=camp_site; id=node/11327627298</desc>
  </wpt>
  <wpt lat="42.2497531" lon="20.2994473">
    <ele>530.0</ele>
    <name>Camping Helsan</name>
    <desc>name=Camping Helsan; tourism=camp_site;
    id=node/11332787200</desc>
  </wpt>
  <wpt lat="42.4672644" lon="19.8897064">
    <ele>1511.0</ele>
    <name>node/11332910310</name>
    <desc>description:en=just a meadow, some tents possible;
    tourism=camp_site; id=node/11332910310</desc>
  </wpt>
  <wpt lat="42.4100607" lon="19.8372531">
    <ele>1164.0</ele>
    <name>Leka</name>
    <desc>name=Leka; tourism=camp_site; id=node/11332962762</desc>
  </wpt>
  <wpt lat="42.4101795" lon="19.839128">
    <ele>1139.0</ele>
    <name>node/11332962764</name>
    <desc>tourism=camp_site; id=node/11332962764</desc>
  </wpt>
  <wpt lat="42.3672898" lon="19.7435305">
    <ele>687.0</ele>
    <name>node/11362707369</name>
    <desc>name:en=Camping; tourism=camp_site;
    id=node/11362707369</desc>
  </wpt>
  <wpt lat="40.0486367" lon="19.8445185">
    <ele>-2.0</ele>
    <name>Borsh BeachCamp</name>
    <desc>access=customers; capacity:caravans=10; caravans=yes;
    charge=10 eur (september 2023); description=Plážový autokemping
    (cca 10 vozidel vedle sebe, sprcha toalety); Beach car camping
    (approx. 10 vehicles next to each other, shower, toilet);
    fee=yes; name=Borsh BeachCamp; payment:cash=yes;
    static_caravans=yes; supervised=yes; surface=gravel_pebbles;
    tourism=camp_site; id=node/11379381052</desc>
  </wpt>
  <wpt lat="42.4199544" lon="19.8654531">
    <ele>1027.0</ele>
    <name>node/11601268774</name>
    <desc>name:en=large place for tents; tourism=camp_site;
    id=node/11601268774</desc>
  </wpt>
  <wpt lat="41.7662817" lon="19.6433862">
    <ele>0.0</ele>
    <name>Camping Ishull Lezhe</name>
    <desc>access=customers; addr:city=Shëngjin; addr:street=Rruga
    Lezhe-Shenkoll; caravans=yes; dog=yes; drinking_water=yes;
    fee=yes; internet_access=yes; name=Camping Ishull Lezhe;
    picnic_table=yes; power_supply=yes; sanitary_dump_station=yes;
    shower=yes; static_caravans=yes; tents=yes; toilets=yes;
    tourism=camp_site; id=node/11672674490</desc>
  </wpt>
  <wpt lat="42.3887681" lon="19.782654">
    <ele>751.0</ele>
    <name>node/11987102213</name>
    <desc>capacity=20; caravans=yes; tents=yes; tourism=camp_site;
    id=node/11987102213</desc>
  </wpt>
  <wpt lat="41.247485" lon="19.9565543">
    <ele>373.0</ele>
    <name>https://thehouseinthevillage.org</name>
    <desc>caravans=no;
    contact:instagram=https://www.instagram.com/the_house_in_the_village_/;
    fee=yes; phone=+355 68 468 2353; static_caravans=no; tents=yes;
    tourism=camp_site; website=https://thehouseinthevillage.org;
    id=node/12046635013</desc>
    <link href="https://thehouseinthevillage.org"></link>
  </wpt>
  <wpt lat="41.5321225" lon="19.7170968">
    <ele>13.0</ele>
    <name>Free camping</name>
    <desc>name=Free camping; tourism=camp_site;
    id=node/12073988969</desc>
  </wpt>
  <wpt lat="41.6362393" lon="19.5897724">
    <ele>1.0</ele>
    <name>Pata Camping</name>
    <desc>internet_access=wlan; name=Pata Camping;
    tourism=camp_site; id=node/12075549969</desc>
  </wpt>
  <wpt lat="40.2402028" lon="20.4288834">
    <ele>331.0</ele>
    <name>Neta&amp;Shpetimi Camping &amp; Restaurant</name>
    <desc>caravans=yes; fee=yes; internet_access=wlan;
    name=Neta&amp;Shpetimi Camping &amp; Restaurant;
    phone=+355696098900; restaurant=yes; tents=yes; toilets=yes;
    tourism=camp_site; id=node/12085169438</desc>
  </wpt>
  <wpt lat="42.079949" lon="19.5126041">
    <ele>12.0</ele>
    <name>Camping Bandula</name>
    <desc>addr:housenumber=4; addr:postcode=4001; addr:street=Rruga
    Gerçari; contact:facebook=CampingBandula;
    contact:instagram=campingbandula01;
    email=campingbandula@gmail.com; name=Camping Bandula;
    tourism=camp_site; id=node/12085495669</desc>
  </wpt>
  <wpt lat="42.0849442" lon="20.1580161">
    <ele>590.0</ele>
    <name>node/12135495466</name>
    <desc>description=wild camping, fireplace, small stream;
    tourism=camp_site; id=node/12135495466</desc>
  </wpt>
  <wpt lat="42.1965544" lon="20.1420984">
    <ele>794.0</ele>
    <name>node/12135495646</name>
    <desc>description=wild camping; tourism=camp_site;
    id=node/12135495646</desc>
  </wpt>
  <wpt lat="42.414881" lon="19.7599095">
    <ele>840.0</ele>
    <name>free camping</name>
    <desc>name=free camping; tourism=camp_site;
    id=node/12138315330</desc>
  </wpt>
  <wpt lat="41.8639697" lon="19.4103406">
    <ele>2.0</ele>
    <name>Camping familja Velipoje</name>
    <desc>access=private; addr:city=Velipojë; addr:postcode=4001;
    addr:street=Rruga Nr. 2; email=campingfamilja@gmail.com;
    fee=yes; name=Camping familja Velipoje; phone=+355693044701;
    tourism=camp_site;
    website=https://www.campingfamilja.com/?utm_source=google&amp;utm_medium=wix_google_business_profile&amp;utm_campaign=10877564315262450400;
    id=node/12142941942</desc>
    <link href="https://www.campingfamilja.com/?utm_source=google%26utm_medium=wix_google_business_profile%26utm_campaign=10877564315262450400">
    </link>
  </wpt>
  <wpt lat="42.35411" lon="19.7667373">
    <ele>491.0</ele>
    <name>Camping Gjyshit</name>
    <desc>caravans=yes; name=Camping Gjyshit; tents=yes;
    tourism=camp_site; id=node/12194213624</desc>
  </wpt>
  <wpt lat="42.2354533" lon="19.4804399">
    <ele>201.0</ele>
    <name>node/12229870801</name>
    <desc>tourism=camp_site; id=node/12229870801</desc>
  </wpt>
  <wpt lat="42.3988989" lon="19.6480143">
    <ele>935.0</ele>
    <name>Camping Tradicional</name>
    <desc>caravans=yes; drinking_water=yes; name=Camping
    Tradicional; tents=yes; tourism=camp_site;
    id=node/12238638501</desc>
  </wpt>
  <wpt lat="41.8295147" lon="19.6265232">
    <ele>11.0</ele>
    <name>On my way</name>
    <desc>name=On my way; tourism=camp_site;
    id=node/12281781044</desc>
  </wpt>
  <wpt lat="40.3064761" lon="20.2098971">
    <ele>183.0</ele>
    <name>Vjosa</name>
    <desc>name=Vjosa; tourism=camp_site; id=node/12304649622</desc>
  </wpt>
  <wpt lat="40.1563313" lon="19.6176501">
    <ele>71.0</ele>
    <name>Adventure camping Dhermi</name>
    <desc>name=Adventure camping Dhermi; tourism=camp_site;
    id=node/12462968384</desc>
  </wpt>
  <wpt lat="40.1537286" lon="19.6155621">
    <ele>27.0</ele>
    <name>Polo camping</name>
    <desc>name=Polo camping; tourism=camp_site;
    id=node/12462987500</desc>
  </wpt>
  <wpt lat="40.2288126" lon="20.2117108">
    <ele>463.0</ele>
    <name>Good place to camp</name>
    <desc>name=Good place to camp; tourism=camp_site;
    id=node/12480775128</desc>
  </wpt>
  <wpt lat="41.1042834" lon="19.4579807">
    <ele>-1.0</ele>
    <name>Dennalbo</name>
    <desc>internet_access=wlan; name=Dennalbo; tourism=camp_site;
    id=node/12533745502</desc>
  </wpt>
  <wpt lat="41.5059023" lon="19.7830726">
    <ele>399.0</ele>
    <name>node/12584923701</name>
    <desc>name:en=Kruja Vista Camping; tourism=camp_site;
    id=node/12584923701</desc>
  </wpt>
  <wpt lat="41.428089" lon="19.9339945">
    <ele>389.0</ele>
    <name>Tirana</name>
    <desc>addr:street=Rruga Arberit; name=Tirana; phone=+355 67 696
    0696; tourism=camp_site; id=node/12596990701</desc>
  </wpt>
  <wpt lat="42.0686698" lon="20.4317421">
    <ele>351.0</ele>
    <name>Kukes Camping</name>
    <desc>addr:street=Rruga Prizreni; name=Kukes Camping;
    phone=+355 68 475 3012; tourism=camp_site;
    id=node/12596990801</desc>
  </wpt>
  <wpt lat="41.5160578" lon="19.7929027">
    <ele>590.0</ele>
    <name>Camping Ledinga</name>
    <desc>addr:city=Kruja; addr:country=AL; addr:postcode=1501;
    capacity=5; caravans=yes; mobile=+355 68 364 9922; name=Camping
    Ledinga; reservation=required; tourism=camp_site;
    id=node/12621257801</desc>
  </wpt>
  <wpt lat="41.6887357" lon="19.6408661">
    <ele>2.0</ele>
    <name>Agri Camping italiano Eucalyptus</name>
    <desc>contact:facebook=61550674912402; name=Agri Camping
    italiano Eucalyptus; tourism=camp_site;
    id=node/12670003703</desc>
  </wpt>
  <wpt lat="41.3046609" lon="19.5201254">
    <ele>39.0</ele>
    <name>Wonderful Camping</name>
    <desc>caravans=yes; email=info@Wonderfulcamping.al; fee=yes;
    internet_access=wlan; name=Wonderful Camping;
    opening_hours=Mo-Su 07:00-01:00; phone=+355 69 479 0800;
    tents=yes; tourism=camp_site;
    website=https://wonderfulcamping.al/;
    id=node/12685192401</desc>
    <link href="https://wonderfulcamping.al/"></link>
  </wpt>
  <wpt lat="40.2155349" lon="19.9592533">
    <ele>975.0</ele>
    <name>node/12713806101</name>
    <desc>name:en=Camping Lekdushi; tourism=camp_site;
    id=node/12713806101</desc>
  </wpt>
  <wpt lat="40.3501751" lon="19.986973">
    <ele>115.0</ele>
    <name>node/12716157390</name>
    <desc>caravans=yes; fee=no; internet_access=yes;
    phone=+355693646854; picnic_table=yes; shower=yes; tents=yes;
    tourism=camp_site; washing_machine=yes;
    id=node/12716157390</desc>
  </wpt>
  <wpt lat="41.3421737" lon="19.8137142">
    <ele>104.0</ele>
    <name>Parking Camper Family</name>
    <desc>addr:street=Bulevardi i Ri; name=Parking Camper Family;
    tourism=camp_site; id=node/12837262301</desc>
  </wpt>
  <wpt lat="40.26012" lon="20.299935">
    <ele>203.0</ele>
    <name>Camping Rafting Restaurant “Mulliri i Bënjës“</name>
    <desc>addr:postcode=6401; addr:street=Rruga e Benjes, Përmet
    6401, Albanien; contact:instagram=mulliri_i_benjes;
    name=Camping Rafting Restaurant “Mulliri i Bënjës“; phone=+355
    69 631 2827; tourism=camp_site; id=node/12903150501</desc>
  </wpt>
  <wpt lat="42.0425936" lon="19.5007119">
    <ele>2.0</ele>
    <name>node/12921718901</name>
    <desc>name:en=Campsite (wild); name:nl=Campsite (wild);
    tourism=camp_site; id=node/12921718901</desc>
  </wpt>
  <wpt lat="41.6860198" lon="20.4384954">
    <ele>689.0</ele>
    <name>Camping Kapxhiu</name>
    <desc>name=Camping Kapxhiu; tourism=camp_site;
    id=node/12943305531</desc>
  </wpt>
  <wpt lat="42.4332348" lon="19.8789418">
    <ele>977.0</ele>
    <name>node/12945151401</name>
    <desc>name:en=Campsite (wild camping spot); name:nl=Campsite
    (wildkamperen); tourism=camp_site; id=node/12945151401</desc>
  </wpt>
  <wpt lat="42.370518" lon="19.7886853">
    <ele>610.0</ele>
    <name>node/12945921901</name>
    <desc>name:en=Campsite (wild camping spot); name:nl=Campsite
    (wildkampeerplek); tourism=camp_site;
    id=node/12945921901</desc>
  </wpt>
  <wpt lat="40.5913554" lon="20.7718673">
    <ele>897.0</ele>
    <name>To Relax and Enjoy</name>
    <desc>caravans=yes; name=To Relax and Enjoy; phone=+355 69 229
    7380; tourism=camp_site; id=node/12952373180</desc>
  </wpt>
  <wpt lat="40.5715392" lon="20.7521015">
    <ele>895.0</ele>
    <name>Vila Verde</name>
    <desc>caravans=yes; name=Vila Verde; phone=+355 69 742 8522;
    tourism=camp_site; id=node/12952389901</desc>
  </wpt>
  <wpt lat="40.2372236" lon="20.6455592">
    <ele>871.0</ele>
    <name>node/12954610902</name>
    <desc>name:en=Wild camping spot; name:nl=Wildkampeerplek;
    tourism=camp_site; id=node/12954610902</desc>
  </wpt>
  <wpt lat="40.0052088" lon="19.8928306">
    <ele>11.0</ele>
    <name>Camping Parknight Bunec</name>
    <desc>name=Camping Parknight Bunec; tourism=camp_site;
    website=https://www.instagram.com/parknightt?igsh=MWdrcnd3OGMzem8xbQ==;
    id=node/12995209085</desc>
    <link href="https://www.instagram.com/parknightt?igsh=MWdrcnd3OGMzem8xbQ==">
    </link>
  </wpt>
  <wpt lat="40.054877" lon="19.8220275">
    <ele>5.0</ele>
    <name>Camping Qeparo</name>
    <desc>addr:city=Qeparo; addr:street=Qeparo beach street;
    camp_site=serviced; caravans=yes; dog=yes;
    internet_access=wlan; name=Camping Qeparo; phone=+355698134666;
    power_supply=yes; sanitary_dump_station=yes; shower=yes;
    tents=yes; toilets=yes; tourism=camp_site;
    website=https://instagram.com/camping_qeparo;
    id=node/13056483863</desc>
    <link href="https://instagram.com/camping_qeparo"></link>
  </wpt>
  <wpt lat="40.2328491" lon="20.4228998">
    <ele>307.0</ele>
    <name>Camping Mulliri Benjes</name>
    <desc>contact:instagram=mulliri_i_benjes;
    email=mulliribenjes@gmail.com; internet_access=wlan;
    name=Camping Mulliri Benjes; phone=+355696312827;
    tourism=camp_site; id=node/13110014901</desc>
  </wpt>
  <wpt lat="42.5466487" lon="20.0656627">
    <ele>1786.0</ele>
    <name>Bashkimi</name>
    <desc>camp_site=standard; caravans=no; charge=5 EUR;
    check_date=2025-09-06; fee=yes; name=Bashkimi;
    payment:cash=yes; static_caravans=no; tents=yes;
    tourism=camp_site; id=node/13162284841</desc>
  </wpt>
  <wpt lat="42.0469729" lon="19.6525331">
    <ele>81.0</ele>
    <name>node/13162988627</name>
    <desc>tourism=camp_site; id=node/13162988627</desc>
  </wpt>
  <wpt lat="41.7736714" lon="19.6028064">
    <ele>1.0</ele>
    <name>DEMI Camping</name>
    <desc>name=DEMI Camping; tourism=camp_site;
    id=node/13164430501</desc>
  </wpt>
  <wpt lat="42.3625603" lon="19.9266602">
    <ele>823.0</ele>
    <name>Camping Qerec</name>
    <desc>access=yes; backcountry=yes; camp_site=basic;
    capacity:tents=10; caravans=no; fee=no; group_only=no;
    name=Camping Qerec; static_caravans=no; tents=no;
    tourism=camp_site; id=node/13171693380</desc>
  </wpt>
  <wpt lat="42.0720068" lon="19.7421909">
    <ele>169.0</ele>
    <name>Wooden Villas Karme</name>
    <desc>description=Kleine, sehr günstige Hütten zum Mieten aber
    auch kostenlose Stellplätze für Wohnwägen oder Zelte.
    Gemeinschaftsraum und -küche vorhanden mit Kühlschrank zur
    Selbstbedienung von kalten Getränken. Sehr nette
    Eigentümerfamilie!; name=Wooden Villas Karme; phone=+355 68 542
    4890; tourism=camp_site; id=node/13181459955</desc>
  </wpt>
  <wpt lat="41.515569" lon="19.80408686053009">
    <ele>1131.0</ele>
    <name>relation/19079628</name>
    <desc>camp_site=basic; informal=yes; note=The legality of
    camping at this location should be verified.;
    tourism=camp_site; type=multipolygon;
    id=relation/19079628</desc>
  </wpt>
  <wpt lat="40.1209656" lon="19.70210727715606">
    <ele>16.0</ele>
    <name>way/219000330</name>
    <desc>abandoned=yes; source=iHARTE.com; tourism=camp_site;
    id=way/219000330</desc>
    <link href="iHARTE.com"></link>
  </wpt>
  <wpt lat="40.1190002" lon="19.70301530172499">
    <ele>4.0</ele>
    <name>Jalë</name>
    <desc>name=Jalë; phone=+355 68 528 8899; source=iHARTE;
    tourism=camp_site;
    website=https://socialcampingalbania.al/en/home/;
    id=way/219009004</desc>
    <link href="https://socialcampingalbania.al/en/home/"></link>
  </wpt>
  <wpt lat="40.1075904" lon="19.727330766224323">
    <ele>3.0</ele>
    <name>Camping Kranea</name>
    <desc>caravans=yes; drinking_water=no; name=Camping Kranea;
    phone=+355 673 122 122; power_supply=yes; shower=yes;
    tents=yes; toilets=yes; tourism=camp_site;
    website=https://camping-kranea.com/; id=way/229101177</desc>
    <link href="https://camping-kranea.com/"></link>
  </wpt>
  <wpt lat="39.780819050000005" lon="20.007363674417007">
    <ele>0.0</ele>
    <name>Finns Camping Caravan</name>
    <desc>caravans=yes; name=Finns Camping Caravan;
    power_supply=no; shower=no; stars=1; surface=gravel; tents=yes;
    tourism=camp_site; id=way/234340527</desc>
  </wpt>
  <wpt lat="40.006838349999995" lon="19.890998449999998">
    <ele>35.0</ele>
    <name>Bunec Beach Resort</name>
    <desc>name=Bunec Beach Resort; stars=1; tourism=camp_site;
    id=way/235384766</desc>
  </wpt>
  <wpt lat="39.77807815" lon="20.005930514430936">
    <ele>15.0</ele>
    <name>Ksamil Caravan Camping</name>
    <desc>addr:city=Ksamil; addr:country=AL; caravans=yes;
    drinking_water=yes; name=Ksamil Caravan Camping;
    operator=Alexander Cerro; payment:cash=yes; phone=+355 694 263
    697; power_supply=yes; sanitary_dump_station=no; shower=yes;
    tents=yes; toilets=yes; tourism=camp_site;
    website=https://sites.google.com/ksamilcaravancamping/home;
    id=way/235474840</desc>
    <link href="https://sites.google.com/ksamilcaravancamping/home">
    </link>
  </wpt>
  <wpt lat="42.236925850000006" lon="19.79844307420608">
    <ele>673.0</ele>
    <name>Ndrejaj</name>
    <desc>addr:city=Ndrejaj; addr:country=AL; cabins=yes; dog=yes;
    internet_access=no; internet_access:fee=no; landuse=meadow;
    payment:coins=yes; payment:credit_cards=no;
    payment:cryptocurrencies=no; payment:debit_cards=no;
    payment:electronic_purses=no; payment:notes=yes;
    smoking=outside; source=bing,survey,gps;
    source_ref:url=https://www.flickr.com/photos/134902422@N04/map?&amp;fLat=41.9559&amp;fLon=19.4337&amp;zl=11&amp;order_by=recent;
    tents=yes; tourism=camp_site; wheelchair=no;
    id=way/294485567</desc>
    <link href="https://www.flickr.com/photos/134902422@N04/map?%26fLat=41.9559%26fLon=19.4337%26zl=11%26order_by=recent">
    </link>
  </wpt>
  <wpt lat="40.1064959" lon="19.729078022120923">
    <ele>2.0</ele>
    <name>Nashos Camping &amp; Restaurant</name>
    <desc>addr:city=Himare; addr:postcode=9425; addr:street=Livadhi
    Beach; internet_access=yes; name=Nashos Camping &amp;
    Restaurant; phone=+35568 834 9439; tourism=camp_site;
    website=www.nashoscamping.com; id=way/299869189</desc>
    <link href="www.nashoscamping.com"></link>
  </wpt>
  <wpt lat="41.1815531" lon="19.47742081941796">
    <ele>1.0</ele>
    <name>Pa Emër</name>
    <desc>addr:city=Kavaja; addr:country=AL; addr:street=Rrakull
    Karpen; alt_name=Kamping Paemer; caravans=yes;
    drinking_water=no; email=reservation@kampingpaemer.com;
    fee=yes; internet_access=wlan; name=Pa Emër; phone=+355 69 415
    1502; power_supply=yes; sanitary_dump_station=yes; shower=yes;
    tents=yes; toilets=yes; tourism=camp_site;
    website=https://www.kampingpaemer.com/; id=way/312935780</desc>
    <link href="https://www.kampingpaemer.com/"></link>
  </wpt>
  <wpt lat="42.1387603" lon="19.466837798927248">
    <ele>9.0</ele>
    <name>Lake Shkodra Resort</name>
    <desc>addr:city=Shkoder; addr:country=AL; addr:street=Rruga E
    Liqenit; barrier=fence; cabins=yes; camp_site=serviced;
    caravans=yes; cooking=yes; cuisine=regional; dog=yes;
    drinking_water=yes; dryer=yes;
    email=faye@lakeshkodraresort.com; fence_type=wire;
    internet_access=wlan; internet_access:fee=no; kitchen=yes;
    mobile=+447850060551; motorcycle_friendly=customary; name=Lake
    Shkodra Resort; openfire=no; operator=Nikolin;
    outdoor_seating=yes; payment:coins=yes;
    payment:cryptocurrencies=no; payment:debit_cards=yes;
    payment:electronic_purses=no; payment:mastercard=yes;
    payment:notes=yes; payment:visa=yes; phone=+355692750337;
    power_supply=yes; sanitary_dump_station=yes; shower=yes;
    smoking=yes; takeaway=yes; tents=yes; toilets=yes;
    toilets:wheelchair=yes; tourism=camp_site; washing_machine=yes;
    website=https://www.lakeshkodraresort.com/; wheelchair=limited;
    id=way/337540706</desc>
    <link href="https://www.lakeshkodraresort.com/"></link>
  </wpt>
  <wpt lat="40.137812499999995" lon="19.695887597560976">
    <ele>309.0</ele>
    <name>Shkolla Camp</name>
    <desc>internet_access=no; name=Shkolla Camp; tourism=camp_site;
    id=way/339114366</desc>
  </wpt>
  <wpt lat="42.399804700000004" lon="19.647697655472992">
    <ele>949.0</ele>
    <name>Boga Alpine Resort</name>
    <desc>addr:city=Bogë; addr:country=AL; caravans=yes;
    drinking_water=yes; internet_access=no; internet_access:fee=no;
    name=Boga Alpine Resort; payment:cash=yes;
    payment:credit_cards=no; payment:cryptocurrencies=no;
    payment:debit_cards=no; payment:electronic_purses=no;
    payment:ep_geldkarte=no; power_supply=yes;
    sanitary_dump_station=yes; shower=yes; smoking=yes; source=Bing
    Aerial Imagery,survey; tents=yes; toilets=yes;
    tourism=camp_site; wheelchair=yes; id=way/367429746</desc>
  </wpt>
  <wpt lat="39.77737475" lon="20.00693236386969">
    <ele>16.0</ele>
    <name>Camping Gaci</name>
    <desc>caravans=yes; name=Camping Gaci; tents=no;
    tourism=camp_site; id=way/369457489</desc>
  </wpt>
  <wpt lat="42.0430489" lon="19.48842577184229">
    <ele>4.0</ele>
    <name>Kamping Legjenda</name>
    <desc>addr:city=Shkodër; addr:country=AL; addr:postcode=4001;
    addr:street=Rruga Shaqir Oso Zeqja; amenity=bicycle_rental;
    barrier=fence; bicycle_rental=shop; cabins=yes;
    capacity:pitches=60; caravans=yes; cooking=yes; dog=yes;
    drinking_water=yes; dryer=yes; email=info@campinglegjenda.com;
    fence_type=wire; height=2; internet_access=yes;
    internet_access:fee=no; kitchen=yes;
    mobile=+355694077740,+355696506746; name=Kamping Legjenda;
    name:cs=Kemping Legjenda; name:de=Camping Legjenda;
    name:en=Camping Legjenda; name:hr=Kamping Legjenda;
    name:is=Ćtilega Legjenda; name:nl=Kampeerplaats Legjenda;
    name:sq=Kamping Legjenda; payment:coins=yes;
    payment:credit_card=yes; payment:credit_cards=no;
    payment:cryptocurrencies=no; payment:debit_cards=no;
    payment:electronic_purses=no; payment:girocard=yes;
    payment:mastercard=yes; payment:notes=yes; payment:visa=yes;
    power_supply=yes; sanitary_dump_station=yes; shop=rental;
    shower=yes; smoking=outside; source=bing,survey,gps;
    source_ref:url=https://www.flickr.com/photos/134902422@N04/map?&amp;fLat;
    tents=yes; toilets=yes; tourism=camp_site; washing_machine=yes;
    waste:excrement=yes; website=https://www.campinglegjenda.com;
    wheelchair=limited; id=way/374419702</desc>
    <link href="https://www.campinglegjenda.com"></link>
  </wpt>
  <wpt lat="42.34653555" lon="19.913851044243536">
    <ele>741.0</ele>
    <name>way/398492189</name>
    <desc>designation=Albanian Challenge Base Camp;
    internet_access=no; internet_access:fee=no; landuse=grass;
    source=albanianchallenge.org; tents=yes; tourism=camp_site;
    wheelchair=no; id=way/398492189</desc>
    <link href="albanianchallenge.org"></link>
  </wpt>
  <wpt lat="41.93869925" lon="19.544017568712093">
    <ele>11.0</ele>
    <name>Camping Gardenland</name>
    <desc>addr:city=Barbullush; addr:country=AL;
    email=info@gardenlandresort.al; internet_access=yes;
    internet_access:fee=no; name=Camping Gardenland;
    payment:coins=yes; payment:credit_cards=no;
    payment:cryptocurrencies=no; payment:debit_cards=no;
    payment:electronic_purses=no; payment:notes=yes;
    phone=+355692060524; power_supply=yes;
    sanitary_dump_station=customers; smoking=outside;
    source_ref:url=https://www.flickr.com/photos/134902422@N04/map?&amp;fLat=41.9559&amp;fLon=19.4337&amp;zl=11&amp;order_by=recent;
    tents=yes; tourism=camp_site;
    website=http://www.gardenlandresort.al/; wheelchair=limited;
    id=way/408093791</desc>
    <link href="http://www.gardenlandresort.al/"></link>
  </wpt>
  <wpt lat="42.05076965" lon="19.484292172510038">
    <ele>46.0</ele>
    <name>Camping Taraboshi</name>
    <desc>addr:country=AL; building=yes;
    contact:facebook=https://www.facebook.com/Bar-Restorant-Camping-Taraboshi-583061752069332/;
    internet_access=yes; internet_access:fee=no; name=Camping
    Taraboshi; payment:coins=yes; payment:credit_cards=no;
    payment:cryptocurrencies=no; payment:debit_cards=no;
    payment:electronic_purses=no; payment:notes=yes;
    sanitary_dump_station=customers; smoking=outside;
    source=bing,mapbox-satellite,digitalglobe,survey,knowledge,local-info;
    source_ref:url=https://www.flickr.com/photos/openstreetmap-albania;
    tourism=camp_site; wheelchair=limited; id=way/414599828</desc>
    <link href="https://www.flickr.com/photos/openstreetmap-albania">
    </link>
  </wpt>
  <wpt lat="42.23829095" lon="19.743883845886515">
    <ele>1105.0</ele>
    <name>Kamping</name>
    <desc>dog=yes; internet_access=yes; internet_access:fee=no;
    name=Kamping; payment:coins=yes; payment:credit_cards=no;
    payment:cryptocurrencies=no; payment:debit_cards=no;
    payment:electronic_purses=no; payment:notes=yes;
    smoking=outside; source=bing,survey,gps;
    source_ref:url=https://www.flickr.com/photos/134902422@N04/map?&amp;fLat=41.9559&amp;fLon=19.4337&amp;zl=11&amp;order_by=recent;
    tourism=camp_site; wheelchair=limited; id=way/417662197</desc>
    <link href="https://www.flickr.com/photos/134902422@N04/map?%26fLat=41.9559%26fLon=19.4337%26zl=11%26order_by=recent">
    </link>
  </wpt>
  <wpt lat="42.07259555" lon="19.396147528781917">
    <ele>1.0</ele>
    <name>Camping</name>
    <desc>internet_access=no; name=Camping; operator=Bilali;
    payment:coins=yes; payment:credit_cards=no;
    payment:cryptocurrencies=no; payment:debit_cards=no;
    payment:electronic_purses=no; payment:notes=yes;
    phone=+355695111657; sanitary_dump_station=no; smoking=outside;
    source=bing,survey,gps;
    source_ref:url=https://www.flickr.com/photos/134902422@N04/map?&amp;fLat=41.9559&amp;fLon=19.4337&amp;zl=11&amp;order_by=recent;
    tourism=camp_site; wheelchair=limited; id=way/427341961</desc>
    <link href="https://www.flickr.com/photos/134902422@N04/map?%26fLat=41.9559%26fLon=19.4337%26zl=11%26order_by=recent">
    </link>
  </wpt>
  <wpt lat="42.04683435" lon="19.48577122040406">
    <ele>73.0</ele>
    <name>Camping Buna Park</name>
    <desc>internet_access=yes; internet_access:fee=no; name=Camping
    Buna Park; operator=Genti; payment:coins=yes;
    payment:credit_cards=no; payment:cryptocurrencies=no;
    payment:debit_cards=no; payment:electronic_purses=no;
    payment:notes=yes; phone=+355694261875,+355695272768;
    sanitary_dump_station=yes; smoking=outside;
    source=bing,survey,gps;
    source_ref:url=https://www.flickr.com/photos/134902422@N04/map?&amp;fLat=41.9559&amp;fLon=19.4337&amp;zl=11&amp;order_by=recent;
    tourism=camp_site; wheelchair=yes; id=way/429470228</desc>
    <link href="https://www.flickr.com/photos/134902422@N04/map?%26fLat=41.9559%26fLon=19.4337%26zl=11%26order_by=recent">
    </link>
  </wpt>
  <wpt lat="41.8625938" lon="19.405532497046167">
    <ele>3.0</ele>
    <name>KAMPI VEROR</name>
    <desc>amenity=community_centre; barrier=fence; fence_type=wire;
    internet_access=yes; internet_access:fee=no; name=KAMPI VEROR;
    operator=Projekti Shpresa; sanitary_dump_station=yes;
    smoking=outside; tourism=camp_site; wheelchair=limited;
    id=way/431520856</desc>
  </wpt>
  <wpt lat="39.93372905" lon="19.97742090964765">
    <ele>147.0</ele>
    <name>way/440407508</name>
    <desc>payment:cash=yes; payment:coins=yes;
    payment:credit_cards=no; payment:cryptocurrencies=no;
    payment:debit_cards=no; payment:electronic_purses=no;
    payment:notes=yes; smoking=outside; source=bing;
    source_ref:url=https://www.flickr.com/photos/134902422@N04/map?&amp;fLat=41.9559&amp;fLon=19.4337&amp;zl=11&amp;order_by=recent;
    tourism=camp_site; wheelchair=limited; id=way/440407508</desc>
    <link href="https://www.flickr.com/photos/134902422@N04/map?%26fLat=41.9559%26fLon=19.4337%26zl=11%26order_by=recent">
    </link>
  </wpt>
  <wpt lat="40.77834615" lon="19.857772622586005">
    <ele>29.0</ele>
    <name>Berat Caravan Camping</name>
    <desc>camp_site=serviced; name=Berat Caravan Camping;
    phone=+355 694 263 697; tourism=camp_site;
    website=https://sites.google.com/site/beratcaravancamping;
    id=way/460317512</desc>
    <link href="https://sites.google.com/site/beratcaravancamping">
    </link>
  </wpt>
  <wpt lat="41.772000950000006" lon="19.870195147935483">
    <ele>80.0</ele>
    <name>Nikos Camping</name>
    <desc>name=Nikos Camping; phone=+355 68 901 8031;
    tourism=camp_site; id=way/466917659</desc>
  </wpt>
  <wpt lat="41.77867955" lon="19.604994388288507">
    <ele>2.0</ele>
    <name>Kompleksi Turistik "Leonardo"</name>
    <desc>barrier=fence; fence_type=wire; internet_access=wlan;
    internet_access:fee=no; name=Kompleksi Turistik "Leonardo";
    smoking=outside; tourism=camp_site; wheelchair=limited;
    id=way/481971684</desc>
  </wpt>
  <wpt lat="41.7808747" lon="19.60335150849416">
    <ele>5.0</ele>
    <name>Kompleksi Veror "Sunrise</name>
    <desc>amenity=restaurant;
    cuisine=barbecue,fish,pizza,regional,seafood; delivery=no;
    diet:vegetarian=yes; fee=yes; internet_access=wlan;
    internet_access:fee=no; name=Kompleksi Veror "Sunrise;
    outdoor_seating=yes; smoking=outside; takeaway=yes;
    tourism=camp_site; wheelchair=limited; id=way/481980422</desc>
  </wpt>
  <wpt lat="41.779927400000005" lon="19.604237283981938">
    <ele>4.0</ele>
    <name>Camp Torino</name>
    <desc>barrier=fence; fence_type=wire; internet_access=wlan;
    internet_access:fee=no; name=Camp Torino;
    sanitary_dump_station=customers; smoking=outside;
    tourism=camp_site; wheelchair=limited; id=way/481980424</desc>
  </wpt>
  <wpt lat="42.3940782" lon="19.776880551508626">
    <ele>742.0</ele>
    <name>Kamping "Zorgji"</name>
    <desc>addr:city=Theth; addr:country=AL; addr:postcode=4009;
    barrier=fence; caravans=yes; cooking=yes; dog=yes;
    drinking_water=yes; dryer=yes; fence_type=wire; group_only=no;
    hiking=yes; information=yes; internet_access=wlan;
    internet_access:fee=no; name=Kamping "Zorgji";
    natural=grassland; nudism=no; openfire=yes;
    opening_hours=May-Nov; operator=Lin Zorgji; parking=yes;
    payment:coins=yes; payment:credit_cards=no;
    payment:cryptocurrencies=no; payment:debit_cards=no;
    payment:electronic_purses=no; payment:notes=yes;
    phone=+355682319610; power_supply=yes; reservation=recommended;
    sanitary_dump_station=customers; shower=yes;
    source=bing,mapbox-satellite,survey,gps,knowledge,local-info;
    source_ref:url=https://www.flickr.com/photos/openstreetmap-albania;
    tents=yes; toilets=yes; tourism=camp_site; washing_machine=yes;
    wheelchair=limited; id=way/512229749</desc>
    <link href="https://www.flickr.com/photos/openstreetmap-albania">
    </link>
  </wpt>
  <wpt lat="41.85958375" lon="19.4678682399963">
    <ele>-4.0</ele>
    <name>Clandestino Camping</name>
    <desc>backcountry=yes; barrier=fence;
    contact:facebook=clandestinocamping;
    contact:instagram=clandestino_camping;
    email=camping.clandestino@gmail.com; fence_type=wire;
    internet_access=wlan; internet_access:fee=no; name=Clandestino
    Camping; phone=+355693812054; sanitary_dump_station=yes;
    smoking=outside; tents=yes; tourism=camp_site;
    website=https://campingclandestino.wixsite.com/campingclandestino;
    wheelchair=limited; id=way/575229691</desc>
    <link href="https://campingclandestino.wixsite.com/campingclandestino">
    </link>
  </wpt>
  <wpt lat="42.521466450000005" lon="19.593906944375004">
    <ele>838.0</ele>
    <name>Selce</name>
    <desc>addr:city=Selce; addr:country=AL; cabins=no; caravans=no;
    cooking=no; dog=no; drinking_water=yes; dryer=no;
    internet_access=no; internet_access:fee=no; openfire=no;
    payment:credit_card=no; payment:girocard=no; power_supply=no;
    tents=yes; tourism=camp_site; trucks=no; washing_machine=no;
    waste:excrement=no; id=way/609905385</desc>
  </wpt>
  <wpt lat="41.05120705" lon="20.641608858082954">
    <ele>694.0</ele>
    <name>Camping Beach Erlin</name>
    <desc>
    contact:facebook=https://www.facebook.com/pages/category/Beach/Camping-ERLIN-BEACH-338485189609918/;
    landuse=grass; name=Camping Beach Erlin; phone=+355 68 406
    6666; tourism=camp_site; id=way/696944270</desc>
  </wpt>
  <wpt lat="40.1785869" lon="20.64736501474227">
    <ele>1013.0</ele>
    <name>Shelegur Farm</name>
    <desc>addr:city=Lescovic; email=Mezinivana@gmail.com;
    name=Shelegur Farm; tourism=camp_site;
    website=https://shelegur-farm.business.site;
    id=way/698787936</desc>
    <link href="https://shelegur-farm.business.site"></link>
  </wpt>
  <wpt lat="42.099241899999996" lon="19.817157913210643">
    <ele>82.0</ele>
    <name>Natura</name>
    <desc>name=Natura; tourism=camp_site; id=way/732570524</desc>
  </wpt>
  <wpt lat="40.15735575" lon="19.611441681141855">
    <ele>19.0</ele>
    <name>Sea Turtle Camping</name>
    <desc>
    contact:facebook=https://www.facebook.com/theseaturtlecamp/;
    name=Sea Turtle Camping; phone=+355 69 256 1844;
    tourism=camp_site; id=way/781004053</desc>
  </wpt>
  <wpt lat="41.62022785" lon="20.425819546380133">
    <ele>439.0</ele>
    <name>Kampingu i Fluturave</name>
    <desc>group_only=yes; name=Kampingu i Fluturave;
    opening_hours=24/7; operator=Labinot Murrja; tourism=camp_site;
    id=way/956638831</desc>
  </wpt>
  <wpt lat="42.45272305" lon="19.894164635932455">
    <ele>928.0</ele>
    <name>way/981939235</name>
    <desc>access=customers; tourism=camp_site;
    id=way/981939235</desc>
  </wpt>
  <wpt lat="42.06964705" lon="19.494479262418725">
    <ele>6.0</ele>
    <name>Windmill Shkodra Gesthouse Camping</name>
    <desc>caravans=yes; drinking_water=yes; fee=yes; name=Windmill
    Shkodra Gesthouse Camping; tents=yes; tourism=camp_site;
    id=way/986311426</desc>
  </wpt>
  <wpt lat="40.4427174" lon="20.66909312135987">
    <ele>900.0</ele>
    <name>Sofra Kolonjare</name>
    <desc>caravans=yes; fee=yes; kitchen=no; name=Sofra Kolonjare;
    phone=+355682054007; power_supply=yes; shower=hot; toilets=yes;
    tourism=camp_site; id=way/988575539</desc>
  </wpt>
  <wpt lat="40.342359450000004" lon="19.47954524619375">
    <ele>-1.0</ele>
    <name>Baro Beach Campsite</name>
    <desc>contact:instagram=https://www.instagram.com/barobeach/;
    name=Baro Beach Campsite; phone=+355692854935;
    tourism=camp_site; id=way/1007733615</desc>
  </wpt>
  <wpt lat="40.209737700000005" lon="19.578028240964237">
    <ele>828.0</ele>
    <name>Camping Hamiti Llogara</name>
    <desc>description=Very basic camping with tiny toilet booth;
    name=Camping Hamiti Llogara; tourism=camp_site;
    id=way/1007781777</desc>
  </wpt>
  <wpt lat="41.86150885" lon="19.446802802673258">
    <ele>1.0</ele>
    <name>Kalaj</name>
    <desc>access=customers; check_date=2023-07-05;
    drinking_water=yes; fee=yes; internet_access=wlan; name=Kalaj;
    shower=yes; toilets=yes; tourism=camp_site;
    id=way/1088268452</desc>
  </wpt>
  <wpt lat="41.517674650000004" lon="19.78333996087993">
    <ele>421.0</ele>
    <name>Mali Camping Kruja</name>
    <desc>internet_access=wlan; internet_access:fee=no; name=Mali
    Camping Kruja; phone=+355 69 274 6600; start_date=2021;
    tourism=camp_site; website=https://www.malicamp.com;
    id=way/1089411499</desc>
    <link href="https://www.malicamp.com"></link>
  </wpt>
  <wpt lat="40.21942235" lon="20.381706021347178">
    <ele>258.0</ele>
    <name>Albturist Përmet</name>
    <desc>addr:housenumber=75; addr:postcode=6400;
    addr:street=Rruga Përmet - Korçë (km3);
    contact:facebook=https://www.facebook.com/Albturist-P%C3%ABrmet-493036257501818/;
    drinking_water=yes; email=albturist.permet@gmail.com; fee=yes;
    name=Albturist Përmet; opening_hours=24/7; payment:cash=yes;
    phone=+355694250444; shower=yes; toilets=yes;
    tourism=camp_site; id=way/1122596319</desc>
  </wpt>
  <wpt lat="41.13019615" lon="20.134800925120125">
    <ele>137.0</ele>
    <name>Camping Fridolin</name>
    <desc>addr:postcode=3001; addr:street=Rruga Sevdeqar Mehmet
    Biçakçiu; caravans=yes; internet_access=yes;
    internet_access:fee=no; name=Camping Fridolin;
    opening_hours=24/7; sanitary_dump_station=yes;
    tourism=camp_site; id=way/1133164367</desc>
  </wpt>
  <wpt lat="41.569765450000006" lon="19.48751578416806">
    <ele>37.0</ele>
    <name>Camping Saint Michell</name>
    <desc>caravans=yes; name=Camping Saint Michell; tents=no;
    tourism=camp_site; id=way/1173885427</desc>
  </wpt>
  <wpt lat="42.4099411" lon="19.76588503264059">
    <ele>843.0</ele>
    <name>Free camping</name>
    <desc>backcountry=yes; name=Free camping; operator=Bujtina
    Zemra e Traditës; source=local knowledge,gps;
    tourism=camp_site; id=way/1200233741</desc>
  </wpt>
  <wpt lat="42.40173615" lon="19.790147663148467">
    <ele>1341.0</ele>
    <name>way/1200234554</name>
    <desc>backcountry=yes; source=local knowledge;
    tourism=camp_site; id=way/1200234554</desc>
  </wpt>
  <wpt lat="40.08925285" lon="20.138694770065996">
    <ele>189.0</ele>
    <name>Ora RV Camping</name>
    <desc>access=yes; addr:city=Gjirokastër; addr:postcode=6017;
    addr:street=SH4; caravans=yes; name=Ora RV Camping; phone=+355
    68 621 8561; tourism=camp_site; id=way/1202726215</desc>
  </wpt>
  <wpt lat="40.094525250000004" lon="19.758560525445244">
    <ele>19.0</ele>
    <name>Olive Camping</name>
    <desc>internet_access=wlan; name=Olive Camping;
    tourism=camp_site; wheelchair=limited; id=way/1220182212</desc>
  </wpt>
  <wpt lat="40.70618955" lon="19.935548292162792">
    <ele>47.0</ele>
    <name>River Side Camping</name>
    <desc>access=yes; addr:city=Berat; addr:street=Rruga Staver
    Naco; caravans=yes; fee=yes; internet_access=wlan;
    internet_access:fee=no; kitchen=yes; name=River Side Camping;
    power_supply=yes; shower=yes; tents=yes; toilets=yes;
    toilets:wheelchair=no; tourism=camp_site; washing_machine=yes;
    website=https://riversidecamping19.business.site;
    id=way/1229550117</desc>
    <link href="https://riversidecamping19.business.site"></link>
  </wpt>
  <wpt lat="40.50124725" lon="19.4311758551922">
    <ele>2.0</ele>
    <name>Eco Camping Valona</name>
    <desc>caravans=yes; drinking_water=no; fee=yes;
    internet_access=yes; name=Eco Camping Valona;
    phone=+355683441299; power_supply=yes;
    sanitary_dump_station=no; shower=yes; survey:date=2023-05-25;
    tents=yes; toilets=yes; tourism=camp_site;
    website=https://www.ecocampingvalona.com;
    id=way/1284212540</desc>
    <link href="https://www.ecocampingvalona.com"></link>
  </wpt>
  <wpt lat="42.26429225" lon="20.00944466206448">
    <ele>204.0</ele>
    <name>way/1298810111</name>
    <desc>fee=yes; tourism=camp_site; id=way/1298810111</desc>
  </wpt>
  <wpt lat="39.98494995" lon="20.263776654499374">
    <ele>236.0</ele>
    <name>Life</name>
    <desc>name=Life; tourism=camp_site; id=way/1303646206</desc>
  </wpt>
  <wpt lat="40.10778085" lon="19.728251242953064">
    <ele>4.0</ele>
    <name>Freddie's Bungalows</name>
    <desc>caravans=no; fee=yes; name=Freddie's Bungalows;
    static_caravans=yes; tents=no; tourism=camp_site;
    id=way/1308807488</desc>
  </wpt>
  <wpt lat="42.01809385" lon="19.4661298032645">
    <ele>6.0</ele>
    <name>Camping Australia</name>
    <desc>addr:block=Unnamed road E851 Oblike 4017, Albania;
    bar=yes; caravans=yes; drinking_water=yes;
    email=campingaustralia2021@gmail.com; fee=19€ Van + 2 person;
    internet_access=wlan; internet_access:fee=no; name=Camping
    Australia; name:en=Camping Australia; nudism=no; phone=+355 67
    344 8877; power_supply=yes; reservation=no; swimming_pool=no;
    tents=yes; tourism=camp_site;
    website=https://www.campingaustraliainshkoder.com;
    wheelchair=limited; id=way/1323583032</desc>
    <link href="https://www.campingaustraliainshkoder.com"></link>
  </wpt>
  <wpt lat="41.6857845" lon="20.438524113499387">
    <ele>659.0</ele>
    <name>way/1388501414</name>
    <desc>caravans=yes; tents=yes; tourism=camp_site;
    id=way/1388501414</desc>
  </wpt>
  <wpt lat="40.109552449999995" lon="19.72526759845261">
    <ele>4.0</ele>
    <name>Camping Ion</name>
    <desc>capacity:caravans=12; capacity:persons=15; caravans=yes;
    charge=25€; fee=yes; name=Camping Ion; static_caravans=no;
    tents=yes; tourism=camp_site; id=way/1389158331</desc>
  </wpt>
</gpx>
