<?xml version="1.0" encoding="utf-8"?>
<gpx xmlns="http://www.topografix.com/GPX/1/1"
xmlns:xsi="http://www.w3.org/2001/XMLSchema-instance"
xsi:schemaLocation="http://www.topografix.com/GPX/1/1 http://www.topografix.com/GPX/1/1/gpx.xsd"
version="1.1" creator="togpx">
  <metadata>
    <copyright>
      <license>"osm3s": { "timestamp_osm_base":
      "2025-10-01T09:49:30Z", "timestamp_areas_base":
      "2025-10-01T03:35:03Z", "copyright": "The data included in
      this document is from www.openstreetmap.org. The data is made
      available under ODbL." } // SRTM: { Elevation data missing in
      OSM was added by the NASA Shuttle Radar Topography Mission as
      public release version, if available there. } // { Check for
      latest version of this file on:
      https://github.com/GpxFeed/campgrounds }</license>
    </copyright>
  </metadata>
  <wpt lat="43.5522572" lon="18.0278447">
    <ele>402.0</ele>
    <name>Auto-camp Boračko Jezero</name>
    <desc>name=Auto-camp Boračko Jezero; tourism=camp_site;
    id=node/571265802</desc>
  </wpt>
  <wpt lat="43.5485485" lon="18.0351982">
    <ele>401.0</ele>
    <name>Izviđački camp Boračko Jezero</name>
    <desc>description=Izviđački camp; name=Izviđački camp Boračko
    Jezero; tourism=camp_site; id=node/571268512</desc>
  </wpt>
  <wpt lat="43.6725747" lon="17.9139128">
    <ele>271.0</ele>
    <name>Camp Oaza</name>
    <desc>charge=13 €; name=Camp Oaza; shower=hot;
    tourism=camp_site; id=node/792363375</desc>
  </wpt>
  <wpt lat="44.2813888" lon="17.2630081">
    <ele>373.0</ele>
    <name>Auto Camp Vinac</name>
    <desc>charge=10 €; name=Auto Camp Vinac; shower=hot;
    tourism=camp_site; id=node/792600508</desc>
  </wpt>
  <wpt lat="43.2554991" lon="17.8936857">
    <ele>44.0</ele>
    <name>River camp Bara</name>
    <desc>addr:city=Blagaj; caravans=yes;
    contact:facebook=https://www.facebook.com/CampingBlagaj;
    drinking_water=yes; internet_access=wlan; name=River camp Bara;
    phone=+387 61 627 803; power_supply=yes; shower=yes; tents=yes;
    toilets=yes; tourism=camp_site;
    website=https://www.camp-bara.com/; id=node/1062928256</desc>
    <link href="https://www.camp-bara.com/"></link>
  </wpt>
  <wpt lat="44.8015491" lon="15.9052395">
    <ele>225.0</ele>
    <name>AdaCampsite</name>
    <desc>caravans=yes; fee=yes; internet_access=wlan;
    internet_access:fee=no; name=AdaCampsite; tents=yes;
    tourism=camp_site; id=node/1417938468</desc>
  </wpt>
  <wpt lat="44.1792861" lon="17.7554058">
    <ele>445.0</ele>
    <name>node/1417939433</name>
    <desc>tourism=camp_site; id=node/1417939433</desc>
  </wpt>
  <wpt lat="43.2574689" lon="17.8882852">
    <ele>43.0</ele>
    <name>River-Camp Aganovac</name>
    <desc>addr:city=Blagaj; addr:postcode=88201; dog=yes; fee=yes;
    name=River-Camp Aganovac; phone=+387 61 169 495;
    power_supply=yes; tourism=camp_site;
    website=https://www.camping-blagaj.com/;
    id=node/1432152211</desc>
    <link href="https://www.camping-blagaj.com/"></link>
  </wpt>
  <wpt lat="44.5687355" lon="16.0837752">
    <ele>305.0</ele>
    <name>Camp Buk</name>
    <desc>access=customers; capacity=100; check_date=2022-09-29;
    cmt=Provinciale weg en straat;
    contact:email=info@raftinguna.com; contact:phone=+387 62229259;
    email=info@raftinguna.com; fee=yes; internet_access=wlan;
    internet_access:fee=customers; name=Camp Buk; operator=Discover
    Bihać; payment:cards=no; payment:cash=yes;
    payment:credit_cards=no; payment:debit_cards=no;
    sym=Campground; tourism=camp_site;
    website=http://www.raftinguna.com/accommodation-camping-whitewater-rafting;
    id=node/1912763196</desc>
    <link href="http://www.raftinguna.com/accommodation-camping-whitewater-rafting">
    </link>
  </wpt>
  <wpt lat="43.2630442" lon="17.8779745">
    <ele>38.0</ele>
    <name>Mali Wimbledon</name>
    <desc>addr:city=Blagaj; name=Mali Wimbledon; tourism=camp_site;
    id=node/1912834792</desc>
  </wpt>
  <wpt lat="43.3541565" lon="18.6891712">
    <ele>562.0</ele>
    <name>Omladinski kamp Tjentište</name>
    <desc>caravans=yes; drinking_water=yes; fee=10km/tent;
    name=Omladinski kamp Tjentište; note=Reception at Hotel;
    payment:cash=yes; payment:contactless=yes; power_supply=yes;
    shower=yes;
    source=http://sutjeska.design21th.com/stranica.php?id=67&amp;naziv=smjestaj-u-np-sutjeska&amp;jez=bs;
    sym=Campground; tents=yes; toilets=yes; tourism=camp_site;
    id=node/1912876751</desc>
    <link href="http://sutjeska.design21th.com/stranica.php?id=67%26naziv=smjestaj-u-np-sutjeska%26jez=bs">
    </link>
  </wpt>
  <wpt lat="44.6116551" lon="18.3316612">
    <ele>270.0</ele>
    <name>Orlovo Camping</name>
    <desc>name=Orlovo Camping; sym=Campground; tourism=camp_site;
    id=node/1913990964</desc>
  </wpt>
  <wpt lat="44.7429704" lon="17.4530355">
    <ele>264.0</ele>
    <name>Mlinska Rijeka</name>
    <desc>name=Mlinska Rijeka; name:sr=Млинска Ријека;
    tourism=camp_site; id=node/1914113088</desc>
  </wpt>
  <wpt lat="44.9989037" lon="16.3062027">
    <ele>129.0</ele>
    <name>Ada</name>
    <desc>name=Ada; source=signposted; tourism=camp_site;
    id=node/1914337294</desc>
  </wpt>
  <wpt lat="43.3697372" lon="18.7971133">
    <ele>456.0</ele>
    <name>Rafting klub Tara Adventure</name>
    <desc>name=Rafting klub Tara Adventure; phone=+387 65353301;
    sport=rafting; tourism=camp_site;
    website=https://www.tararafting.net/; id=node/1933803153</desc>
    <link href="https://www.tararafting.net/"></link>
  </wpt>
  <wpt lat="43.3641223" lon="18.6973431">
    <ele>546.0</ele>
    <name>Camp Sutjeska-Tjentište</name>
    <desc>addr:place=Tjentište; name=Camp Sutjeska-Tjentište;
    tourism=camp_site;
    website=http://npsutjeska.info/sr/omladinski-kamp-tjentiste;
    id=node/2345390139</desc>
    <link href="http://npsutjeska.info/sr/omladinski-kamp-tjentiste">
    </link>
  </wpt>
  <wpt lat="43.3730018" lon="18.7160531">
    <ele>527.0</ele>
    <name>Household Radović</name>
    <desc>addr:city=Popov Most; addr:place=Popov Most;
    name=Household Radović; tourism=camp_site;
    id=node/2345390142</desc>
  </wpt>
  <wpt lat="43.1949649" lon="17.680277">
    <ele>166.0</ele>
    <name>Medugorje Parking Camp</name>
    <desc>addr:city=Medugorje; addr:street=Corkov dolac;
    name=Medugorje Parking Camp; tourism=camp_site;
    id=node/2347344627</desc>
  </wpt>
  <wpt lat="44.5327147" lon="18.5511792">
    <ele>255.0</ele>
    <name>Camping Ontario</name>
    <desc>access=private; name=Camping Ontario; tourism=camp_site;
    id=node/2379853046</desc>
  </wpt>
  <wpt lat="42.7091919" lon="18.4858782">
    <ele>295.0</ele>
    <name>Izviđački Eko centar Ušće</name>
    <desc>contact:facebook=ekocentarusce;
    contact:instagram=izvidjacki_eko_kamp_usce; name=Izviđački Eko
    centar Ušće; tourism=camp_site; id=node/2392648029</desc>
  </wpt>
  <wpt lat="44.7559502" lon="15.8364135">
    <ele>506.0</ele>
    <name>node/3594216403</name>
    <desc>tourism=camp_site; id=node/3594216403</desc>
  </wpt>
  <wpt lat="44.8836053" lon="15.903191">
    <ele>202.0</ele>
    <name>Kostela</name>
    <desc>internet_access=yes; name=Kostela; tourism=camp_site;
    id=node/3655686794</desc>
  </wpt>
  <wpt lat="43.6761796" lon="18.9894707">
    <ele>340.0</ele>
    <name>Moto Klub "Goražde"</name>
    <desc>name=Moto Klub "Goražde"; tourism=camp_site;
    id=node/4124727993</desc>
  </wpt>
  <wpt lat="43.749648" lon="19.4007934">
    <ele>396.0</ele>
    <name>Camping Dobrunvik</name>
    <desc>internet_access=wlan; name=Camping Dobrunvik;
    toilets:wheelchair=no; tourism=camp_site; wheelchair=no;
    id=node/4225979649</desc>
  </wpt>
  <wpt lat="43.259764" lon="17.8802245">
    <ele>39.0</ele>
    <name>River Camp Grotta</name>
    <desc>fee=yes; internet_access=wlan; internet_access:fee=no;
    name=River Camp Grotta; phone=+387 61 017 578;
    sanitary_dump_station=no; tourism=camp_site;
    website=www.autocampgrotta-blagaj.com;
    id=node/4284542755</desc>
    <link href="www.autocampgrotta-blagaj.com"></link>
  </wpt>
  <wpt lat="44.7303799" lon="17.0453736">
    <ele>429.0</ele>
    <name>Boris - vikendica</name>
    <desc>name=Boris - vikendica; tourism=camp_site;
    id=node/4318009205</desc>
  </wpt>
  <wpt lat="43.2795461" lon="17.8340282">
    <ele>35.0</ele>
    <name>node/4360503889</name>
    <desc>tourism=camp_site; id=node/4360503889</desc>
  </wpt>
  <wpt lat="44.3351916" lon="16.8951546">
    <ele>769.0</ele>
    <name>https://extremebl.com/index.php/en/k2-2/peckaen</name>
    <desc>tourism=camp_site;
    website=https://extremebl.com/index.php/en/k2-2/peckaen;
    id=node/4430900993</desc>
    <link href="https://extremebl.com/index.php/en/k2-2/peckaen">
    </link>
  </wpt>
  <wpt lat="44.2886515" lon="18.9276333">
    <ele>795.0</ele>
    <name>Milovanovići</name>
    <desc>name=Milovanovići; name:sr=Миловановићи;
    tourism=camp_site; id=node/4721300390</desc>
  </wpt>
  <wpt lat="43.1560115" lon="17.6117155">
    <ele>66.0</ele>
    <name>Kravica</name>
    <desc>alt_name=Kravice; fee=yes; internet_access=no;
    name=Kravica; tourism=camp_site; wheelchair=no;
    id=node/4810511597</desc>
  </wpt>
  <wpt lat="44.5649751" lon="16.0926709">
    <ele>302.0</ele>
    <name>Auto Kamp Lav</name>
    <desc>name=Auto Kamp Lav; tourism=camp_site;
    website=https://www.facebook.com/autocamplav/;
    id=node/4867000721</desc>
    <link href="https://www.facebook.com/autocamplav/"></link>
  </wpt>
  <wpt lat="44.457386" lon="19.0991547">
    <ele>239.0</ele>
    <name>Jankovina</name>
    <desc>name=Jankovina; name:sr=Јанковина; tourism=camp_site;
    id=node/4930495823</desc>
  </wpt>
  <wpt lat="43.6935122" lon="17.8200538">
    <ele>267.0</ele>
    <name>node/4975887621</name>
    <desc>tourism=camp_site; id=node/4975887621</desc>
  </wpt>
  <wpt lat="44.711325" lon="17.166582">
    <ele>178.0</ele>
    <name>Kamp Olimp</name>
    <desc>addr:city=Banja Luka; addr:housenumber=192;
    addr:street=Vojvode Uroša Drenovića; fee=yes; name=Kamp Olimp;
    phone=+387 65 820-270; tourism=camp_site;
    website=http://kampolimp.com; id=node/5016426121</desc>
    <link href="http://kampolimp.com"></link>
  </wpt>
  <wpt lat="43.7524545" lon="19.4464233">
    <ele>430.0</ele>
    <name>Camping River</name>
    <desc>addr:city=Vardište; addr:postcode=73249; capacity=200;
    description=The place is ideal for rest and relaxation. The
    environment of the camp consists of mild hilly forest relief,
    on the shore of Beli Rzav, which is located near the confluence
    with Crni Rzav, with great fishing spots.; ele=430;
    email=river.autocamp@gmail.com; internet_access=wlan;
    internet_access:fee=no; name=Camping River; tourism=camp_site;
    id=node/5035079478</desc>
  </wpt>
  <wpt lat="43.4477987" lon="18.7558548">
    <ele>441.0</ele>
    <name>Stari Dud</name>
    <desc>caravans=yes; internet_access=wlan;
    internet_access:fee=no; name=Stari Dud; tents=yes;
    tourism=camp_site; wheelchair=limited;
    id=node/5091145808</desc>
  </wpt>
  <wpt lat="44.7482451" lon="15.938077">
    <ele>230.0</ele>
    <name>node/5246042941</name>
    <desc>tourism=camp_site; id=node/5246042941</desc>
  </wpt>
  <wpt lat="44.971398" lon="16.1825663">
    <ele>137.0</ele>
    <name>node/5416053523</name>
    <desc>caravans=no; tents=yes; tourism=camp_site;
    id=node/5416053523</desc>
  </wpt>
  <wpt lat="44.4017145" lon="19.0254812">
    <ele>350.0</ele>
    <name>node/5483491922</name>
    <desc>name:hr=Home; tourism=camp_site;
    id=node/5483491922</desc>
  </wpt>
  <wpt lat="44.524112" lon="16.797173">
    <ele>249.0</ele>
    <name>Free camp</name>
    <desc>description=This is local bathing spot, with sports area.
    Locals recommended this place for camping. Fresh water, toilets
    available, place is illuminated at night.; name=Free camp;
    tourism=camp_site; id=node/5564800958</desc>
  </wpt>
  <wpt lat="43.8941751" lon="18.2104726">
    <ele>697.0</ele>
    <name>Bajta Mahir</name>
    <desc>addr:city=Sarajevo; addr:postcode=71000; name=Bajta
    Mahir; phone=+38761208106; tourism=camp_site;
    id=node/5568553690</desc>
  </wpt>
  <wpt lat="43.8326801" lon="18.2878935">
    <ele>491.0</ele>
    <name>Camping Rimski Most</name>
    <desc>name=Camping Rimski Most; tourism=camp_site;
    id=node/5649059402</desc>
  </wpt>
  <wpt lat="45.0641469" lon="18.4718369">
    <ele>81.0</ele>
    <name>Šamac "Kej"</name>
    <desc>addr:city=Šamac; addr:postcode=76230;
    addr:street=Obilićev vijenac; caravans=yes; fee=no;
    internet_access=wlan; internet_access:fee=no;
    internet_access:ssid=Dslon; name=Šamac "Kej"; tents=yes;
    tourism=camp_site; id=node/5672286037</desc>
  </wpt>
  <wpt lat="44.3925498" lon="16.9826048">
    <ele>844.0</ele>
    <name>node/5702385432</name>
    <desc>cabins=no; caravans=no; name:en=Zelenkovac;
    static_caravans=no; tents=yes; tourism=camp_site;
    id=node/5702385432</desc>
  </wpt>
  <wpt lat="43.6519286" lon="19.2372815">
    <ele>423.0</ele>
    <name>Bjeljevine</name>
    <desc>name=Bjeljevine; name:bs=Bjeljevine; name:en=Bjeljevine;
    name:hr=Bjeljevine; name:sr-Latn=Bjeljevine; tourism=camp_site;
    id=node/5727805323</desc>
  </wpt>
  <wpt lat="43.8894566" lon="18.2927141">
    <ele>645.0</ele>
    <name>https://campinginsarajevo.wordpress.com</name>
    <desc>name:en=Camp by Tent Sarajevo - Bicycle Camping;
    tourism=camp_site;
    website=https://campinginsarajevo.wordpress.com;
    id=node/5773162491</desc>
    <link href="https://campinginsarajevo.wordpress.com"></link>
  </wpt>
  <wpt lat="44.2353148" lon="17.3042984">
    <ele>424.0</ele>
    <name>Auto Camp Torlakovac</name>
    <desc>name=Auto Camp Torlakovac; tourism=camp_site;
    id=node/5878474085</desc>
  </wpt>
  <wpt lat="43.7162899" lon="19.1688843">
    <ele>345.0</ele>
    <name>Camping Drina</name>
    <desc>name=Camping Drina; tourism=camp_site;
    id=node/5919847869</desc>
  </wpt>
  <wpt lat="43.6366447" lon="17.7883691">
    <ele>209.0</ele>
    <name>node/6171261685</name>
    <desc>addr:postcode=88420; email=mahir.maha@hotmail.com;
    name:en=Household and campsite Mesic; phone=+38762884520;
    tourism=camp_site; id=node/6171261685</desc>
  </wpt>
  <wpt lat="44.5327246" lon="18.551159">
    <ele>255.0</ele>
    <name>Camping bestarac lake</name>
    <desc>internet_access=wlan; name=Camping bestarac lake;
    name:de=Bestarac See; name:en=Bestarac Lake;
    opening_hours=Mo-Su 09:00-20:00; tourism=camp_site;
    id=node/6220436587</desc>
  </wpt>
  <wpt lat="43.4981352" lon="18.7743342">
    <ele>624.0</ele>
    <name>Planinarski Dom</name>
    <desc>addr:postcode=73300; addr:street=Zubovici bb;
    name=Planinarski Dom; tourism=camp_site;
    id=node/6268287786</desc>
  </wpt>
  <wpt lat="43.308424" lon="18.6560814">
    <ele>704.0</ele>
    <name>Suha</name>
    <desc>description=Hütte Bänke, Zelten Möglich; name=Suha;
    phone=+38758233118; tourism=camp_site;
    id=node/6419411086</desc>
  </wpt>
  <wpt lat="43.7064857" lon="17.5019744">
    <ele>1426.0</ele>
    <name>Diva Grabovčeva</name>
    <desc>name=Diva Grabovčeva; tourism=camp_site;
    id=node/6571227885</desc>
  </wpt>
  <wpt lat="43.2567251" lon="17.8798749">
    <ele>40.0</ele>
    <name>Autocamp Holiday</name>
    <desc>caravans=yes; name=Autocamp Holiday; tents=yes;
    tourism=camp_site; id=node/6699432169</desc>
  </wpt>
  <wpt lat="43.3683645" lon="18.7005624">
    <ele>543.0</ele>
    <name>Tentorium</name>
    <desc>name=Tentorium; tourism=camp_site;
    id=node/6703727909</desc>
  </wpt>
  <wpt lat="44.9187726" lon="18.424598">
    <ele>97.0</ele>
    <name>Hipodrom Vukovic</name>
    <desc>name=Hipodrom Vukovic; tourism=camp_site;
    id=node/6795673285</desc>
  </wpt>
  <wpt lat="44.4030151" lon="17.1078422">
    <ele>736.0</ele>
    <name>Parnice</name>
    <desc>access=yes; addr:street=Podorugla; capacity=100;
    internet_access=no; name=Parnice; tourism=camp_site;
    id=node/6971133492</desc>
  </wpt>
  <wpt lat="44.3950376" lon="17.0451566">
    <ele>1433.0</ele>
    <name>node/6971203792</name>
    <desc>tourism=camp_site; id=node/6971203792</desc>
  </wpt>
  <wpt lat="44.3958974" lon="17.0439207">
    <ele>1438.0</ele>
    <name>node/6971203794</name>
    <desc>tourism=camp_site; id=node/6971203794</desc>
  </wpt>
  <wpt lat="43.3201204" lon="18.9606997">
    <ele>523.0</ele>
    <name>Rafting Tara</name>
    <desc>access=yes; addr:city=Foca; addr:postcode=73300;
    addr:street=Kanjon rijeke Tare; capacity=100; name=Rafting
    Tara; tourism=camp_site; website=https://www.rafttrekk.com/;
    id=node/7153232602</desc>
    <link href="https://www.rafttrekk.com/"></link>
  </wpt>
  <wpt lat="44.6292478" lon="18.6853284">
    <ele>728.0</ele>
    <name>Ćuma Bungalovi "Eko-Život Stara Majevica"</name>
    <desc>addr:postcode=75000; addr:street=Stara Majevica BB;
    name=Ćuma Bungalovi "Eko-Život Stara Majevica";
    opening_hours=Mo-Su 07:00-20:00; phone=+38761 635 118;
    tourism=camp_site;
    website=https://cuma-bungalovi.business.site/#details;
    id=node/8293826917</desc>
    <link href="https://cuma-bungalovi.business.site/#details">
    </link>
  </wpt>
  <wpt lat="43.1951855" lon="17.674875">
    <ele>169.0</ele>
    <name>Camp Zemo</name>
    <desc>addr:city=Međugorje; charge=5EUR/person;
    contact:email=jakov.sivric@tel.net.ba; contact:phone=+387 36
    651878;
    contact:website=http://www.tel.net.ba/medjugorje-pansion.camp;
    description:hu=http://www.eurocampings.hu/bosznia-es-hercegovina/medugorje/camp-zemo-121309/;
    fee=yes; name=Camp Zemo; payment:cash=yes; source=survey;
    tourism=camp_site; id=node/9455557846; ; name=Zemo;
    id=way/374559102</desc>
    <link href="http://www.tel.net.ba/medjugorje-pansion.camp">
    </link>
  </wpt>
  <wpt lat="44.605407" lon="18.6239849">
    <ele>401.0</ele>
    <name>node/9739223846</name>
    <desc>tourism=camp_site; id=node/9739223846</desc>
  </wpt>
  <wpt lat="43.8437268" lon="18.417756">
    <ele>830.0</ele>
    <name>Olywood</name>
    <desc>access=private; addr:city=Istocni Stari Grad;
    addr:housenumber=59; addr:postcode=71144; addr:street=R446,
    Hambina Carina 59 Zlatna, Dolina BB,; camp_site=managed;
    capacity:caravans=8; capacity:persons=20; capacity:tents=10;
    caravans=yes; ele=830; fee=yes; internet_access=wlan;
    internet_access:fee=no; name=Olywood; operator=Oliver;
    payment:cash=yes; rooms=4; smoking=separated; source=bing,local
    knowledge; source:date=2014-03-24; stars=4; tents=yes;
    tourism=camp_site;
    website=https://olywood-one.business.site/?utm_source=gmb&amp;utm_medium=referral;
    wheelchair=limited; id=node/9815580706</desc>
    <link href="https://olywood-one.business.site/?utm_source=gmb%26utm_medium=referral">
    </link>
  </wpt>
  <wpt lat="43.3646361" lon="17.8151623">
    <ele>53.0</ele>
    <name>Camping Neretva</name>
    <desc>caravans=yes; name=Camping Neretva; tents=yes;
    tourism=camp_site;
    website=http://Www.Neretva-camping.business.site;
    id=node/9900088817</desc>
    <link href="http://Www.Neretva-camping.business.site"></link>
  </wpt>
  <wpt lat="44.0561758" lon="18.9997752">
    <ele>987.0</ele>
    <name>Izletiste Komnica</name>
    <desc>name=Izletiste Komnica; tourism=camp_site;
    id=node/9912094017</desc>
  </wpt>
  <wpt lat="44.1174769" lon="17.7654877">
    <ele>527.0</ele>
    <name>Auto Camp Bistrovo</name>
    <desc>name=Auto Camp Bistrovo; tourism=camp_site;
    id=node/9922898317</desc>
  </wpt>
  <wpt lat="43.600093" lon="17.4858568">
    <ele>1182.0</ele>
    <name>Camp Blidinje</name>
    <desc>name=Camp Blidinje; phone=+38763527110;
    tourism=camp_site; website=https://www.camp-blidinje.com;
    id=node/10007419474</desc>
    <link href="https://www.camp-blidinje.com"></link>
  </wpt>
  <wpt lat="44.6587625" lon="16.0365915">
    <ele>547.0</ele>
    <name>node/10009753407</name>
    <desc>description=Between plum trees; fee=no;
    tourism=camp_site; id=node/10009753407</desc>
  </wpt>
  <wpt lat="44.3476931" lon="17.2417043">
    <ele>420.0</ele>
    <name>node/10009814443</name>
    <desc>fee=no; tourism=camp_site; id=node/10009814443</desc>
  </wpt>
  <wpt lat="44.5196939" lon="16.1234044">
    <ele>312.0</ele>
    <name>node/10009816848</name>
    <desc>description=Supposedly not allowed, but probably no one
    will check.; fee=no; tourism=camp_site;
    id=node/10009816848</desc>
  </wpt>
  <wpt lat="43.6359819" lon="17.6024339">
    <ele>1970.0</ele>
    <name>node/10015942977</name>
    <desc>tourism=camp_site; id=node/10015942977</desc>
  </wpt>
  <wpt lat="43.6314516" lon="17.6505232">
    <ele>1963.0</ele>
    <name>node/10015953746</name>
    <desc>tourism=camp_site; id=node/10015953746</desc>
  </wpt>
  <wpt lat="43.6077754" lon="17.6639303">
    <ele>382.0</ele>
    <name>node/10015953748</name>
    <desc>tourism=camp_site; id=node/10015953748</desc>
  </wpt>
  <wpt lat="44.493785" lon="16.1419728">
    <ele>324.0</ele>
    <name>node/10015991720</name>
    <desc>fee=yes; tourism=camp_site; id=node/10015991720</desc>
  </wpt>
  <wpt lat="43.6321464" lon="17.6496708">
    <ele>1964.0</ele>
    <name>node/10015991721</name>
    <desc>tourism=camp_site; id=node/10015991721</desc>
  </wpt>
  <wpt lat="43.6314152" lon="17.6071607">
    <ele>1901.0</ele>
    <name>node/10016001119</name>
    <desc>description=Space for 1–2 tents. Also there is a tiny
    gras valley, just down 50 m.; tourism=camp_site;
    id=node/10016001119</desc>
  </wpt>
  <wpt lat="42.887307" lon="17.9706904">
    <ele>326.0</ele>
    <name>Ravno Station Hotel</name>
    <desc>name=Ravno Station Hotel; tourism=camp_site;
    id=node/10020282816</desc>
  </wpt>
  <wpt lat="44.0615604" lon="18.2932302">
    <ele>571.0</ele>
    <name>Izletište Kiseljak-Dabravine</name>
    <desc>name=Izletište Kiseljak-Dabravine; tourism=camp_site;
    id=node/10588870470</desc>
  </wpt>
  <wpt lat="43.2463843" lon="17.8590927">
    <ele>40.0</ele>
    <name>Autocamping am Fluss (klein familiär)</name>
    <desc>internet_access=wlan; name=Autocamping am Fluss (klein
    familiär); name:de=Autocamping am Fuss (klein familiär);
    name:en=Autocamping Riverside; tourism=camp_site;
    id=node/10765404505</desc>
  </wpt>
  <wpt lat="44.6176627" lon="19.0964586">
    <ele>189.0</ele>
    <name>node/10770458974</name>
    <desc>access=customers; fee=yes; payment:cash=yes;
    tourism=camp_site; id=node/10770458974</desc>
  </wpt>
  <wpt lat="45.0686175" lon="17.0170559">
    <ele>190.0</ele>
    <name>Camp Bukovica</name>
    <desc>name=Camp Bukovica; tourism=camp_site;
    website=https://camp-bukovica.business.site/?utm_source=gmb&amp;utm_medium=referral;
    id=node/10911203070</desc>
    <link href="https://camp-bukovica.business.site/?utm_source=gmb%26utm_medium=referral">
    </link>
  </wpt>
  <wpt lat="44.8219699" lon="15.8230028">
    <ele>232.0</ele>
    <name>Auto / Tent Camping</name>
    <desc>internet_access=yes; name=Auto / Tent Camping;
    payment:debit_cards=no; phone=+387 61 972 869;
    tourism=camp_site; id=node/10943634461</desc>
  </wpt>
  <wpt lat="45.0689757" lon="17.0170939">
    <ele>190.0</ele>
    <name>https://camp-bukovica.business.site/</name>
    <desc>addr:postcode=78405; addr:street=Bukovačka bb;
    email=dprpos@gmail.com; internet_access=wlan; name:en=Camp
    Bukovica; opening_hours=24/7; phone=+38765466179;
    tourism=camp_site;
    website=https://camp-bukovica.business.site/;
    id=node/10964780169</desc>
    <link href="https://camp-bukovica.business.site/"></link>
  </wpt>
  <wpt lat="44.0108635" lon="18.1650878">
    <ele>423.0</ele>
    <name>node/10968979705</name>
    <desc>internet_access=wlan; name:de=Autokamp Visoko;
    name:en=Autokamp Visoko; tourism=camp_site;
    id=node/10968979705</desc>
  </wpt>
  <wpt lat="44.488274" lon="18.0684445">
    <ele>208.0</ele>
    <name>Eco Farm Camping</name>
    <desc>internet_access=wlan; name=Eco Farm Camping; name:de=Eco
    Farm Camping; name:en=Eco Farm Camping; tourism=camp_site;
    website=https://ecofarmcamping.com/; id=node/10971425305</desc>
    <link href="https://ecofarmcamping.com/"></link>
  </wpt>
  <wpt lat="44.9826405" lon="16.202904">
    <ele>134.0</ele>
    <name>Camp Colony</name>
    <desc>access=yes; addr:city=bosanska otoka;
    addr:postcode=77244; addr:street=Prokop 4173;
    capacity:persons=80; caravans=yes;
    contact:facebook=https://www.facebook.com/CampColony/; fee=yes;
    name=Camp Colony; operator=Samir +387 (0)61 764 850; tents=yes;
    tourism=camp_site; id=node/10982572934</desc>
  </wpt>
  <wpt lat="43.2462405" lon="17.8584296">
    <ele>40.0</ele>
    <name>Auto camping EKO AGRITOURISM</name>
    <desc>name=Auto camping EKO AGRITOURISM; tourism=camp_site;
    id=node/10991828305</desc>
  </wpt>
  <wpt lat="44.782432" lon="19.3066504">
    <ele>87.0</ele>
    <name>node/11049875003</name>
    <desc>tourism=camp_site; id=node/11049875003</desc>
  </wpt>
  <wpt lat="43.6325514" lon="17.541248">
    <ele>1226.0</ele>
    <name>node/11074855124</name>
    <desc>addr:street=Put sv. Ilije; camp_site=basic;
    tourism=camp_site; id=node/11074855124</desc>
  </wpt>
  <wpt lat="43.245545" lon="17.8584037">
    <ele>36.0</ele>
    <name>Laks</name>
    <desc>name=Laks; tourism=camp_site; id=node/11080707616</desc>
  </wpt>
  <wpt lat="43.3683102" lon="18.7092407">
    <ele>633.0</ele>
    <name>Camp Maglic</name>
    <desc>addr:street=Popov Most; name=Camp Maglic;
    phone=+38761517637; tourism=camp_site;
    id=node/11093802911</desc>
  </wpt>
  <wpt lat="43.8100621" lon="17.519254">
    <ele>594.0</ele>
    <name>Camping Bosnjak AutoKamp</name>
    <desc>internet_access=wlan; name=Camping Bosnjak AutoKamp;
    name:en=Camping Bosnjak AutoKamp; tourism=camp_site;
    id=node/11206069037</desc>
  </wpt>
  <wpt lat="43.6907438" lon="18.4446384">
    <ele>797.0</ele>
    <name>Autokamp Trnovo</name>
    <desc>caravans=yes; drinking_water=yes; name=Autokamp Trnovo;
    power_supply=no; sanitary_dump_station=no; shower=yes;
    tents=yes; toilets=yes; tourism=camp_site;
    id=node/11206299253</desc>
  </wpt>
  <wpt lat="43.8158027" lon="18.3365331">
    <ele>513.0</ele>
    <name>node/11209867137</name>
    <desc>tourism=camp_site; id=node/11209867137</desc>
  </wpt>
  <wpt lat="43.8082233" lon="17.5336727">
    <ele>591.0</ele>
    <name>Grubeša camp</name>
    <desc>access=customers; caravans=yes; drinking_water=yes;
    fee=yes; internet_access=wlan; name=Grubeša camp;
    payment:cash=yes; picnic_table=yes; power_supply=yes;
    shower=yes; toilets=yes; tourism=camp_site;
    id=node/11257535792</desc>
  </wpt>
  <wpt lat="43.7880152" lon="16.9697237">
    <ele>722.0</ele>
    <name>Kamp Sturba</name>
    <desc>name=Kamp Sturba; tourism=camp_site;
    id=node/11482320614</desc>
  </wpt>
  <wpt lat="43.3640669" lon="18.7097551">
    <ele>742.0</ele>
    <name>Outdoor Tara</name>
    <desc>access=private; addr:city=Tjentiste;
    addr:place=Тјентиште; addr:postcode=73311;
    capacity:caravans=10; capacity:persons=30; capacity:tents=10;
    caravans=yes; cuisine=regional,coffee_shop;
    email=info@outdoortara.com; name=Outdoor Tara; operator=Outdoor
    Tara; phone=+38766834105; static_caravans=yes; tents=yes;
    tourism=camp_site; website=https://outdoortara.com/;
    id=node/11589097936</desc>
    <link href="https://outdoortara.com/"></link>
  </wpt>
  <wpt lat="43.3644229" lon="18.7101668">
    <ele>733.0</ele>
    <name>Camp Nomad</name>
    <desc>access=private; addr:city=Tjentiste;
    addr:place=Тјентиште; addr:postcode=73311; caravans=yes;
    email=info@visitsutjeskanationalpark.com; mobile=+38765387276;
    name=Camp Nomad; static_caravans=yes; tents=yes;
    tourism=camp_site;
    website=https://visitsutjeskanationalpark.com/;
    id=node/11591682115</desc>
    <link href="https://visitsutjeskanationalpark.com/"></link>
  </wpt>
  <wpt lat="43.3533428" lon="18.8230524">
    <ele>477.0</ele>
    <name>Rafting Kamp Konak</name>
    <desc>name=Rafting Kamp Konak; tourism=camp_site;
    id=node/11961160869; ; id=way/939474577</desc>
  </wpt>
  <wpt lat="43.6846506" lon="17.7943625">
    <ele>280.0</ele>
    <name>Glamping Bagrem</name>
    <desc>bar=yes; camp_site=serviced; internet_access=wlan;
    internet_access:fee=no; name=Glamping Bagrem;
    tourism=camp_site; wheelchair=no; id=node/11971714223</desc>
  </wpt>
  <wpt lat="43.8070926" lon="17.5309503">
    <ele>600.0</ele>
    <name>Camping Franjusic</name>
    <desc>name=Camping Franjusic; tourism=camp_site;
    id=node/12093488101</desc>
  </wpt>
  <wpt lat="44.8933532" lon="15.9256734">
    <ele>202.0</ele>
    <name>Topole</name>
    <desc>caravans=yes; drinking_water=yes; internet_access=wlan;
    name=Topole; power_supply=no; sanitary_dump_station=no;
    shower=yes; tents=yes; toilets=yes; tourism=camp_site;
    id=node/12102885901</desc>
  </wpt>
  <wpt lat="44.901073" lon="16.0046543">
    <ele>186.0</ele>
    <name>node/12102886001</name>
    <desc>tourism=camp_site; id=node/12102886001</desc>
  </wpt>
  <wpt lat="43.297147" lon="18.6428643">
    <ele>725.0</ele>
    <name>node/12135484048</name>
    <desc>tourism=camp_site; id=node/12135484048</desc>
  </wpt>
  <wpt lat="44.8939601" lon="18.1080463">
    <ele>123.0</ele>
    <name>node/12135484773</name>
    <desc>tourism=camp_site; id=node/12135484773</desc>
  </wpt>
  <wpt lat="43.4009205" lon="17.3367131">
    <ele>265.0</ele>
    <name>Kamp Sidro</name>
    <desc>access=yes; fee=no; name=Kamp Sidro; tents=yes;
    tourism=camp_site; id=node/12300354091</desc>
  </wpt>
  <wpt lat="44.7173057" lon="17.1648476">
    <ele>174.0</ele>
    <name>Camp Jablan</name>
    <desc>addr:postcode=78000; addr:street=E661;
    internet_access=wlan; name=Camp Jablan; opening_hours=24/7;
    outdoor_seating=no; tourism=camp_site; id=node/12403755001; ;
    caravans=yes; drinking_water=yes; fee=yes;
    internet_access:fee=no; tents=yes; id=way/1324054510</desc>
  </wpt>
  <wpt lat="44.6440849" lon="16.0368462">
    <ele>297.0</ele>
    <name>Kamp kestenovac</name>
    <desc>fee=yes; name=Kamp kestenovac; payment:cash=yes;
    tourism=camp_site; id=node/12876058875</desc>
  </wpt>
  <wpt lat="43.8373872" lon="18.4354445">
    <ele>1003.0</ele>
    <name>Above Sarajevo</name>
    <desc>name=Above Sarajevo; phone=+38766757467;
    tourism=camp_site; id=node/13070562507</desc>
  </wpt>
  <wpt lat="43.2560202" lon="17.9011936">
    <ele>52.0</ele>
    <name>node/13165283301</name>
    <desc>tourism=camp_site; id=node/13165283301</desc>
  </wpt>
  <wpt lat="43.83891875" lon="18.264801866324675">
    <ele>511.0</ele>
    <name>Camping Sarajevo</name>
    <desc>addr:city=Ilidža; addr:housenumber=57;
    addr:postcode=71210; addr:street=Mratnjevače; caravans=yes;
    drinking_water=yes; fee=yes; internet_access=wlan;
    internet_access:fee=no; name=Camping Sarajevo;
    payment:cash=yes; payment:credit_cards=no; power_supply=yes;
    sanitary_dump_station=customers; shower=yes; tents=yes;
    toilets=yes; tourism=camp_site; type=multipolygon;
    website=https://camping-sarajevo.com/;
    id=relation/17328507</desc>
    <link href="https://camping-sarajevo.com/"></link>
  </wpt>
  <wpt lat="43.8285944" lon="18.297144020688137">
    <ele>492.0</ele>
    <name>Oaza</name>
    <desc>caravans=yes; internet_access=wlan;
    internet_access:fee=no; name=Oaza; payment:cash=yes;
    payment:visa=yes; sanitary_dump_station=customers; tents=yes;
    tourism=camp_site; id=way/85605565</desc>
  </wpt>
  <wpt lat="43.3696357" lon="18.795657251753898">
    <ele>435.0</ele>
    <name>way/178566956</name>
    <desc>tourism=camp_site; id=way/178566956</desc>
  </wpt>
  <wpt lat="44.3519747" lon="17.2263668665306">
    <ele>427.0</ele>
    <name>Plivsko jezero</name>
    <desc>caravans=yes; drinking_water=yes; internet_access=wlan;
    internet_access:fee=no; name=Plivsko jezero; opening_hours=Apr
    15-Sep 30 Mo-Su, PH; power_supply=no;
    sanitary_dump_station=customers; shower=yes; tents=yes;
    toilets=yes; tourism=camp_site;
    website=http://jajcetours.com/auto-camp-plivsko-jezero;
    id=way/192473207</desc>
    <link href="http://jajcetours.com/auto-camp-plivsko-jezero">
    </link>
  </wpt>
  <wpt lat="44.91437735" lon="16.15720318038635">
    <ele>155.0</ele>
    <name>Una Camping</name>
    <desc>caravans=yes; contact:email=unacamping@web.de;
    contact:phone=+387 61972071;
    contact:website=http://unacamping.de; drinking_water=yes;
    fee=yes; name=Una Camping; power_supply=yes;
    sanitary_dump_station=yes; shower=yes; tents=yes; toilets=yes;
    tourism=camp_site; id=way/232450773</desc>
    <link href="http://unacamping.de"></link>
  </wpt>
  <wpt lat="44.49399835" lon="16.137592058993228">
    <ele>317.0</ele>
    <name>Picnic &amp; Camp Lučica</name>
    <desc>access=yes; fee=yes; internet_access=no; name=Picnic
    &amp; Camp Lučica; note=Picnic area and flyfishing camp Lučica
    - Una river.; operator=Nationalpark Una; payment:cash=yes;
    source=Nacionalni park Una; tourism=camp_site;
    website=http://nationalpark-una.ba; id=way/268863714</desc>
    <link href="http://nationalpark-una.ba"></link>
  </wpt>
  <wpt lat="44.825619700000004" lon="15.815515343898802">
    <ele>214.0</ele>
    <name>Bijeli Rafting</name>
    <desc>name=Bijeli Rafting; tourism=camp_site;
    id=way/359381839</desc>
  </wpt>
  <wpt lat="44.3412372" lon="17.261742559603704">
    <ele>392.0</ele>
    <name>Jajce Youth Hostel Camping</name>
    <desc>name=Jajce Youth Hostel Camping; tourism=camp_site;
    id=way/360683631</desc>
  </wpt>
  <wpt lat="44.6700753" lon="17.15762990174219">
    <ele>216.0</ele>
    <name>Vrbas Kamp</name>
    <desc>email=vrbaskamp@gmail.com; name=Vrbas Kamp; phone=+387 66
    946 749; tourism=camp_site; website=https://www.vrbaskamp.com/;
    id=way/403519470</desc>
    <link href="https://www.vrbaskamp.com/"></link>
  </wpt>
  <wpt lat="43.09749395" lon="17.975240588991085">
    <ele>76.0</ele>
    <name>Heaven in Nature</name>
    <desc>caravans=yes; fee=yes; internet_access=wlan;
    internet_access:fee=no; name=Heaven in Nature;
    payment:credit_cards=no; tents=yes; tourism=camp_site;
    id=way/514772775</desc>
  </wpt>
  <wpt lat="44.78287565" lon="15.925139764821674">
    <ele>233.0</ele>
    <name>Una RC Kiro Rafting Camp</name>
    <desc>addr:street=Golubićka Put; caravans=yes;
    email=extreme@una-kiro-rafting.com; fee=yes;
    internet_access=wlan; internet_access:fee=no @ customers;
    name=Una RC Kiro Rafting Camp; opening_hours=24/7; phone=+387
    61687421; shower=yes; tents=yes; toilets=yes;
    tourism=camp_site; website=http://www.una-kiro-rafting.com;
    id=way/516892092</desc>
    <link href="http://www.una-kiro-rafting.com"></link>
  </wpt>
  <wpt lat="43.19371795" lon="17.68439575908647">
    <ele>164.0</ele>
    <name>Camp Verite</name>
    <desc>alt_name=Pansion &amp; Auto-Camping Park Verite;
    contact:email=mate.pavlovic@tel.net.ba; contact:phone=+387 36
    651-678; motorhome=yes; name=Camp Verite; shower=yes;
    tents=yes; toilets=yes; tourism=camp_site;
    website=https://www.camp-medjugorje.com/;
    id=way/622453776</desc>
    <link href="https://www.camp-medjugorje.com/"></link>
  </wpt>
  <wpt lat="43.2022918" lon="17.785829705524392">
    <ele>22.0</ele>
    <name>way/653745704</name>
    <desc>tourism=camp_site; id=way/653745704</desc>
  </wpt>
  <wpt lat="44.6364717" lon="16.04346104494581">
    <ele>293.0</ele>
    <name>Kamp Šefik</name>
    <desc>fee=yes; name=Kamp Šefik; operator=Šefik Dika;
    payment:cash=yes; phone=+387 62 180 392;
    sanitary_dump_station=no; tourism=camp_site;
    id=way/697855118</desc>
  </wpt>
  <wpt lat="44.63831035" lon="16.04212306025365">
    <ele>293.0</ele>
    <name>Camping Vasva &amp; Hazim</name>
    <desc>access=yes; addr:city=Orasac; addr:housenumber=476;
    addr:postcode=77206; addr:street=Celije; capacity=10; fee=yes;
    internet_access=wlan; name=Camping Vasva &amp; Hazim;
    payment:cash=yes; tourism=camp_site; id=way/698790333</desc>
  </wpt>
  <wpt lat="44.635233299999996" lon="16.043457822892115">
    <ele>293.0</ele>
    <name>Camp Hamza</name>
    <desc>access=yes; addr:city=orasac; addr:housenumber=470;
    addr:postcode=77206; addr:street=Celije; capacity=20; fee=yes;
    internet_access=no; name=Camp Hamza; payment:cash=yes;
    tourism=camp_site; id=way/698795898</desc>
  </wpt>
  <wpt lat="44.635511449999996" lon="16.04332585822556">
    <ele>294.0</ele>
    <name>Camp Nurka</name>
    <desc>capacity=20; fee=yes; name=Camp Nurka; payment:cash=yes;
    tourism=camp_site; id=way/698796265</desc>
  </wpt>
  <wpt lat="43.24184045" lon="17.83915980980742">
    <ele>33.0</ele>
    <name>AutoCamp River Buna - Half Island</name>
    <desc>addr:city=Buna; backcountry=no; check_date=2024-08-09;
    description=Small campsite with river access; dog=yes;
    email=halfislandbuna@gmail.com; fee=yes; group_only=no;
    internet_access=wlan; internet_access:fee=no; name=AutoCamp
    River Buna - Half Island; phone=+387 62 612 532;
    power_supply=yes; sanitary_dump_station=yes; shower=yes;
    toilets=yes; tourism=camp_site;
    website=https://camping-buna.com/; id=way/712357782</desc>
    <link href="https://camping-buna.com/"></link>
  </wpt>
  <wpt lat="43.25659365" lon="17.879790991748422">
    <ele>38.0</ele>
    <name>Autocamp Blagaj</name>
    <desc>addr:city=Blagaj; caravans=yes; internet_access=wlan;
    internet_access:fee=no; name=Autocamp Blagaj; phone=+387 61
    533771; tents=yes; tourism=camp_site;
    website=https://www.autocamp-blagaj.com/;
    id=way/712357788</desc>
    <link href="https://www.autocamp-blagaj.com/"></link>
  </wpt>
  <wpt lat="43.36991265" lon="18.70114445055399">
    <ele>528.0</ele>
    <name>Camp Sutjeska</name>
    <desc>name=Camp Sutjeska; tourism=camp_site;
    id=way/713125604</desc>
  </wpt>
  <wpt lat="43.68866335" lon="17.829925420747422">
    <ele>264.0</ele>
    <name>Auto Camp Miris ljeta</name>
    <desc>caravans=yes; charge=15 €;
    email=kampmirisljeta@hotmail.com; internet_access=wlan;
    internet_access:fee=no; name=Auto Camp Miris ljeta; phone=+387
    36 755 056; sanitary_dump_station=no; tourism=camp_site;
    website=https://www.facebook.com/autocamp.mirisljeta/;
    id=way/724136516</desc>
    <link href="https://www.facebook.com/autocamp.mirisljeta/">
    </link>
  </wpt>
  <wpt lat="42.927859299999994" lon="17.620312251919998">
    <ele>109.0</ele>
    <name>Autokamp Mir</name>
    <desc>fee=yes; name=Autokamp Mir; tourism=camp_site;
    id=way/726983300</desc>
  </wpt>
  <wpt lat="44.6918182" lon="17.203184969201317">
    <ele>185.0</ele>
    <name>San</name>
    <desc>name=San; tents=yes; tourism=camp_site;
    id=way/893019071</desc>
  </wpt>
  <wpt lat="43.20634015" lon="17.789961198563347">
    <ele>23.0</ele>
    <name>Autocamp Green Park</name>
    <desc>name=Autocamp Green Park; tourism=camp_site;
    id=way/964100634</desc>
  </wpt>
  <wpt lat="44.637831" lon="16.042414576237576">
    <ele>293.0</ele>
    <name>Seosko domacinstvo Halil</name>
    <desc>access=customers; area=yes; fee=yes; name=Seosko
    domacinstvo Halil; payment:cash=yes; tourism=camp_site;
    id=way/1094540100</desc>
  </wpt>
  <wpt lat="43.386973499999996" lon="18.785613536308084">
    <ele>456.0</ele>
    <name>way/1160555899</name>
    <desc>tourism=camp_site; id=way/1160555899</desc>
  </wpt>
  <wpt lat="43.38554555" lon="18.787391591195146">
    <ele>448.0</ele>
    <name>way/1160555922</name>
    <desc>tourism=camp_site; id=way/1160555922</desc>
  </wpt>
  <wpt lat="43.36067385" lon="18.81041482934268">
    <ele>466.0</ele>
    <name>Rafting kamp IVONA</name>
    <desc>caravans=yes; name=Rafting kamp IVONA; tents=no;
    tourism=camp_site; id=way/1194303933</desc>
  </wpt>
  <wpt lat="43.24304395" lon="17.841300707065848">
    <ele>33.0</ele>
    <name>Relax Outdoor Center</name>
    <desc>access=yes; addr:city=Buna; contact:mobile=+387 63 282
    287; name=Relax Outdoor Center; phone=+387 36 480 199;
    tourism=camp_site; id=way/1194329524</desc>
  </wpt>
  <wpt lat="43.529147699999996" lon="18.782287976424122">
    <ele>404.0</ele>
    <name>Drina</name>
    <desc>name=Drina; source=Seen from road; tourism=camp_site;
    website=https://autocampdrina.com/; id=way/1204706619</desc>
    <link href="https://autocampdrina.com/"></link>
  </wpt>
  <wpt lat="43.37569005" lon="18.548935933098896">
    <ele>1483.0</ele>
    <name>way/1300038891</name>
    <desc>tourism=camp_site; id=way/1300038891</desc>
  </wpt>
  <wpt lat="43.37504585" lon="18.549792592416395">
    <ele>1472.0</ele>
    <name>way/1300038892</name>
    <desc>tourism=camp_site; id=way/1300038892</desc>
  </wpt>
  <wpt lat="44.71233485" lon="18.179628091312516">
    <ele>147.0</ele>
    <name>Camping Luzani</name>
    <desc>caravans=yes; drinking_water=yes; name=Camping Luzani;
    phone=+38765433880; power_supply=yes; sanitary_dump_station=no;
    shower=yes; tents=yes; toilets=yes; tourism=camp_site;
    id=way/1315872962</desc>
  </wpt>
  <wpt lat="44.615909099999996" lon="17.147684218429916">
    <ele>204.0</ele>
    <name>Camping Krupa na Vrbasu</name>
    <desc>name=Camping Krupa na Vrbasu; stars=1; tourism=camp_site;
    id=way/1390567657</desc>
  </wpt>
  <wpt lat="44.7522909" lon="16.6813264713495">
    <ele>157.0</ele>
    <name>Čarakov Oluk</name>
    <desc>access=customers; camp_site=standard; caravans=yes;
    charge=15 EUR; fee=yes; name=Čarakov Oluk; payment:cash=yes;
    static_caravans=yes; tents=yes; tourism=camp_site;
    id=way/1432313698</desc>
  </wpt>
</gpx>
