<?xml version="1.0" encoding="utf-8"?>
<gpx xmlns="http://www.topografix.com/GPX/1/1"
xmlns:xsi="http://www.w3.org/2001/XMLSchema-instance"
xsi:schemaLocation="http://www.topografix.com/GPX/1/1 http://www.topografix.com/GPX/1/1/gpx.xsd"
version="1.1" creator="togpx">
  <metadata>
    <copyright>
      <license>"osm3s": { "timestamp_osm_base":
      "2025-08-01T09:41:30Z", "timestamp_areas_base":
      "2025-08-01T04:12:55Z", "copyright": "The data included in
      this document is from www.openstreetmap.org. The data is made
      available under ODbL." } // SRTM: { Elevation data missing in
      OSM was added by the NASA Shuttle Radar Topography Mission as
      public release version, if available there. } // { Check for
      latest version of this file on:
      https://github.com/GpxFeed/campgrounds }</license>
    </copyright>
  </metadata>
  <wpt lat="49.5417124" lon="17.7423823">
    <ele>256.0</ele>
    <name>Autocamping</name>
    <desc>created_by=JOSM; name=Autocamping; tourism=camp_site;
    id=node/26861142</desc>
  </wpt>
  <wpt lat="48.955833" lon="17.554444">
    <ele>251.0</ele>
    <name>Babí Hora</name>
    <desc>created_by=xybot; name=Babí Hora; name:cs=Babí Hora;
    tourism=camp_site; website=https://www.camping-babihora.cz;
    id=node/26861143</desc>
    <link href="https://www.camping-babihora.cz"></link>
  </wpt>
  <wpt lat="48.920278" lon="16.025833">
    <ele>321.0</ele>
    <name>Country</name>
    <desc>created_by=JOSM; name=Country; tourism=camp_site;
    id=node/26861146; ; name=Camping Country;
    id=way/1061799274</desc>
  </wpt>
  <wpt lat="50.1214277" lon="17.3580684">
    <ele>573.0</ele>
    <name>Autokempink Dolina</name>
    <desc>name=Autokempink Dolina; tourism=camp_site;
    id=node/26861149</desc>
  </wpt>
  <wpt lat="50.043889" lon="14.284167">
    <ele>351.0</ele>
    <name>Familiy Camp Drusus</name>
    <desc>caravans=yes; dog=yes; email=drusus@drusus.com; fee=yes;
    hot_water=yes; internet_access=wlan; motorhome=yes;
    name=Familiy Camp Drusus; phone=+420 608 527 229;
    swimming_pool=no; tents=yes; tourism=camp_site;
    website=https://www.drusus.com; id=node/26861150</desc>
    <link href="https://www.drusus.com"></link>
  </wpt>
  <wpt lat="48.6558633" lon="14.1702039">
    <ele>741.0</ele>
    <name>Frymburk</name>
    <desc>caravans=yes; motorcar=yes; name=Frymburk; openfire=yes;
    phone=+420 380 735 284; power_supply=yes;
    sanitary_dump_station=yes; shower=yes; tents=yes;
    tourism=camp_site; washing_machine=yes; water_supply=yes;
    website=https://www.campingfrymburk.cz/en;
    id=node/26861151</desc>
    <link href="https://www.campingfrymburk.cz/en"></link>
  </wpt>
  <wpt lat="50.0880889" lon="15.9738247">
    <ele>258.0</ele>
    <name>Autocamping Hluboký</name>
    <desc>fee=yes; name=Autocamping Hluboký; phone=+420 605 276
    028; tourism=camp_site;
    website=https://www.camp-hluboky.cz/cenik.html;
    id=node/26861154</desc>
    <link href="https://www.camp-hluboky.cz/cenik.html"></link>
  </wpt>
  <wpt lat="49.4859509" lon="13.5345881">
    <ele>491.0</ele>
    <name>Nový rybník</name>
    <desc>name=Nový rybník; source=cuzk:km,uhul:ortofoto;
    tourism=camp_site; id=node/26861168</desc>
  </wpt>
  <wpt lat="49.951389" lon="14.475">
    <ele>372.0</ele>
    <name>Oase</name>
    <desc>name=Oase; tourism=camp_site;
    website=https://www.campingoase.cz/; id=node/26861169; ;
    id=way/214830580</desc>
    <link href="https://www.campingoase.cz/"></link>
  </wpt>
  <wpt lat="48.8925" lon="14.7675">
    <ele>484.0</ele>
    <name>Sever</name>
    <desc>created_by=JOSM; name=Sever; tourism=camp_site;
    id=node/26861178</desc>
  </wpt>
  <wpt lat="50.011389" lon="14.150556">
    <ele>275.0</ele>
    <name>Valek</name>
    <desc>name=Valek; tourism=camp_site; id=node/26861190</desc>
  </wpt>
  <wpt lat="49.1185782" lon="17.3801355">
    <ele>222.0</ele>
    <name>kemp Velehrad</name>
    <desc>name=kemp Velehrad; tourism=camp_site;
    id=node/26861191</desc>
  </wpt>
  <wpt lat="50.624167" lon="15.640556">
    <ele>486.0</ele>
    <name>Vrchlabi</name>
    <desc>created_by=JOSM; name=Vrchlabi; tourism=camp_site;
    id=node/26861196</desc>
  </wpt>
  <wpt lat="49.7199263" lon="15.1953186">
    <ele>352.0</ele>
    <name>Kovací Hamr</name>
    <desc>created_by=JOSM; name=Kovací Hamr; tourism=camp_site;
    id=node/110360893</desc>
  </wpt>
  <wpt lat="48.8872399" lon="16.6552544">
    <ele>168.0</ele>
    <name>Autokemp U Vody</name>
    <desc>cabins=yes; capacity=100; caravans=yes;
    email=kemp@ulangru.cz; name=Autokemp U Vody; phone=+420 774 369
    156; ref:nap=20620; shower=yes; tents=yes; toilets=yes;
    tourism=camp_site; website=https://www.ulangru.cz/;
    id=node/259570375</desc>
    <link href="https://www.ulangru.cz/"></link>
  </wpt>
  <wpt lat="49.4162577" lon="13.1252482">
    <ele>493.0</ele>
    <name>Úžlebec</name>
    <desc>created_by=JOSM; name=Úžlebec; tourism=camp_site;
    id=node/263015840</desc>
  </wpt>
  <wpt lat="49.9586769" lon="12.8507471">
    <ele>676.0</ele>
    <name>Betlem</name>
    <desc>name=Betlem; tourism=camp_site; id=node/264132169</desc>
  </wpt>
  <wpt lat="49.4426251" lon="18.2639152">
    <ele>495.0</ele>
    <name>Autocamping Knehyne</name>
    <desc>addr:housenumber=291; addr:street=Prostřední Bečva;
    name=Autocamping Knehyne; phone=+420 602 184 824;
    tourism=camp_site; website=https://www.podpustevnami.cz/;
    id=node/268631115</desc>
    <link href="https://www.podpustevnami.cz/"></link>
  </wpt>
  <wpt lat="50.1957328" lon="12.7668543">
    <ele>396.0</ele>
    <name>Vodácké tábořiště Loket</name>
    <desc>addr:city=Loket; addr:country=CZ;
    addr:housenumber=ev.146; addr:place=Loket; addr:postcode=35733;
    addr:provisionalnumber=146; addr:street=Rooseveltova;
    name=Vodácké tábořiště Loket; phone=+420 777 167 779;
    source:addr=cuzk:ruian; tourism=camp_site;
    website=https://www.vodacketaboristeloket.cz/;
    id=node/279922673</desc>
    <link href="https://www.vodacketaboristeloket.cz/"></link>
  </wpt>
  <wpt lat="48.7857166" lon="16.8273775">
    <ele>165.0</ele>
    <name>Kemp Apollo</name>
    <desc>capacity=250; email=info@apollokemp.cz; name=Kemp Apollo;
    phone=+420 519 340 414; ref:nap=15637; tourism=camp_site;
    website=https://www.apollokemp.cz/; id=node/281258886</desc>
    <link href="https://www.apollokemp.cz/"></link>
  </wpt>
  <wpt lat="48.7862156" lon="16.8263496">
    <ele>163.0</ele>
    <name>ATC Apollo</name>
    <desc>fee=yes; internet_access=limited; internet_access:fee=no;
    name=ATC Apollo; phone=+420 519340414; tourism=camp_site;
    website=https://www.atcapollo.cz/; id=node/281258887</desc>
    <link href="https://www.atcapollo.cz/"></link>
  </wpt>
  <wpt lat="49.0240919" lon="13.4909162">
    <ele>994.0</ele>
    <name>Modrava</name>
    <desc>backcountry=yes; caravans=no; fee=no; name=Modrava;
    note:cs=Nouzové nocoviště; note:de=Notübernachtungsplätze;
    note:en=Emergency night shelter; openfire=no; surface=grass;
    tents=yes; tourism=camp_site;
    website=https://www.npsumava.cz/cz/1336/sekce/nouzova-nocoviste/;
    id=node/283596292</desc>
    <link href="https://www.npsumava.cz/cz/1336/sekce/nouzova-nocoviste/">
    </link>
  </wpt>
  <wpt lat="48.9005578" lon="14.9374853">
    <ele>468.0</ele>
    <name>U Pavlisů</name>
    <desc>name=U Pavlisů; tourism=camp_site;
    id=node/286966289</desc>
  </wpt>
  <wpt lat="50.4963944" lon="13.3364953">
    <ele>487.0</ele>
    <name>Tábořiště Druhý mlýn</name>
    <desc>name=Tábořiště Druhý mlýn; tourism=camp_site;
    id=node/287379913</desc>
  </wpt>
  <wpt lat="49.1489532" lon="15.0651847">
    <ele>489.0</ele>
    <name>Autocamp Jindřiš</name>
    <desc>name=Autocamp Jindřiš; tourism=camp_site;
    id=node/298900560; ; id=way/536664704</desc>
  </wpt>
  <wpt lat="49.1413041" lon="15.11679">
    <ele>529.0</ele>
    <name>Chatový tábor Malý Ratmírov</name>
    <desc>caravans=yes; drinking_water=yes; name=Chatový tábor Malý
    Ratmírov; power_supply=yes; shower=yes; tents=yes; toilets=yes;
    tourism=camp_site; id=node/298900798</desc>
  </wpt>
  <wpt lat="50.3828657" lon="13.1773164">
    <ele>293.0</ele>
    <name>Autokempu Ujezu</name>
    <desc>cabins=yes; caravans=yes; email=lodelestina@seznam.cz;
    motorhome=yes; name=Autokempu Ujezu; phone=+420777283232,
    +491717520427; shower=yes; tents=yes; toilets=yes;
    tourism=camp_site; website=https://www.kempklasterec.cz/;
    id=node/302442419</desc>
    <link href="https://www.kempklasterec.cz/"></link>
  </wpt>
  <wpt lat="50.4463534" lon="14.5773477">
    <ele>258.0</ele>
    <name>Tábořiště u splávku</name>
    <desc>name=Tábořiště u splávku; tourism=camp_site;
    id=node/302829196</desc>
  </wpt>
  <wpt lat="49.9105709" lon="13.5331337">
    <ele>276.0</ele>
    <name>Kobylka</name>
    <desc>name=Kobylka; tourism=camp_site;
    website=https://taboristekobylka.cz/; id=node/330783898</desc>
    <link href="https://taboristekobylka.cz/"></link>
  </wpt>
  <wpt lat="49.2299991" lon="14.7195768">
    <ele>405.0</ele>
    <name>Kravánky</name>
    <desc>name=Kravánky; tourism=camp_site; id=way/229139649; ;
    id=node/356830582</desc>
  </wpt>
  <wpt lat="50.0603679" lon="14.8478174">
    <ele>227.0</ele>
    <name>Podviňák</name>
    <desc>name=Podviňák; tourism=camp_site; id=way/487466936; ;
    id=node/364991218</desc>
  </wpt>
  <wpt lat="50.1953444" lon="12.8626335">
    <ele>420.0</ele>
    <name>Camping Březová</name>
    <desc>cabins=yes; contact:email=info@brezovy-haj.cz;
    contact:phone=+420 602 20 70 80;
    contact:website=http://www.brezovy-haj.cz/; name=Camping
    Březová; tents=yes; tourism=camp_site; id=node/365222425</desc>
    <link href="http://www.brezovy-haj.cz/"></link>
  </wpt>
  <wpt lat="49.359554" lon="13.4963875">
    <ele>572.0</ele>
    <name>relax areal</name>
    <desc>name=relax areal; tourism=camp_site;
    website=http://www.atc.hnacov.cz/; id=node/373111340</desc>
    <link href="http://www.atc.hnacov.cz/"></link>
  </wpt>
  <wpt lat="48.8607018" lon="17.3846251">
    <ele>282.0</ele>
    <name>Autokemp Lucina</name>
    <desc>internet_access=wlan; name=Autokemp Lucina;
    name:cs=Autokemp Lucina; phone=+420518337525;
    tourism=camp_site; id=node/382366475</desc>
  </wpt>
  <wpt lat="50.8637567" lon="14.8258122">
    <ele>247.0</ele>
    <name>Kristýna</name>
    <desc>cabins=yes; caravans=yes; email=recepce@kemp-kristyna.cz;
    motorhome=yes; name=Kristýna; phone=+420603867576; shower=yes;
    tents=yes; toilets=yes; tourism=camp_site;
    website=https://www.kemp-kristyna.cz/; id=node/385718364</desc>
    <link href="https://www.kemp-kristyna.cz/"></link>
  </wpt>
  <wpt lat="49.8836373" lon="14.8214344">
    <ele>288.0</ele>
    <name>Vaníček</name>
    <desc>name=Vaníček; tourism=camp_site; id=node/389996724</desc>
  </wpt>
  <wpt lat="49.2095508" lon="15.3713569">
    <ele>630.0</ele>
    <name>Veřejné tábořiště Lhotka</name>
    <desc>access=yes; name=Veřejné tábořiště Lhotka;
    tourism=camp_site; id=node/405934071</desc>
  </wpt>
  <wpt lat="49.3208799" lon="14.8705036">
    <ele>505.0</ele>
    <name>Tábořiště Chábrovice</name>
    <desc>name=Tábořiště Chábrovice; scout=yes; tourism=camp_site;
    id=node/409456986</desc>
  </wpt>
  <wpt lat="49.0146399" lon="14.4517908">
    <ele>376.0</ele>
    <name>Kemp České Vrbné</name>
    <desc>caravans=yes; fee=yes; name=Kemp České Vrbné; shower=yes;
    tents=yes; toilets=yes; tourism=camp_site;
    website=https://raftingcb.cz/kemp-ceske-vrbne;
    id=node/409687299</desc>
    <link href="https://raftingcb.cz/kemp-ceske-vrbne"></link>
  </wpt>
  <wpt lat="50.438047" lon="14.5872512">
    <ele>289.0</ele>
    <name>Autokemp Kokořín</name>
    <desc>addr:city=Kokořín; addr:housenumber=60;
    addr:postcode=27723; addr:street=Kokořinský důl; fee=yes;
    name=Autokemp Kokořín; phone=+420608869906; tourism=camp_site;
    website=https://www.autokempkokorin.cz;
    id=node/411250816</desc>
    <link href="https://www.autokempkokorin.cz"></link>
  </wpt>
  <wpt lat="49.3007695" lon="14.7116086">
    <ele>411.0</ele>
    <name>Dětský tábor Orion</name>
    <desc>name=Dětský tábor Orion; tourism=camp_site;
    id=node/414544774</desc>
  </wpt>
  <wpt lat="50.4403056" lon="14.6268136">
    <ele>348.0</ele>
    <name>Rekreační středisko Sever</name>
    <desc>name=Rekreační středisko Sever; phone=+420 603 152 356;
    tourism=camp_site; website=https://www.rssever.cz/;
    id=node/417395926</desc>
    <link href="https://www.rssever.cz/"></link>
  </wpt>
  <wpt lat="49.6081379" lon="16.0411167">
    <ele>722.0</ele>
    <name>Autokemp Sykovec</name>
    <desc>name=Autokemp Sykovec; tourism=camp_site;
    website=http://www.kempsykovec.cz/; id=node/432819230</desc>
    <link href="http://www.kempsykovec.cz/"></link>
  </wpt>
  <wpt lat="49.6182347" lon="16.0507526">
    <ele>712.0</ele>
    <name>Tábořiště Medlov</name>
    <desc>name=Tábořiště Medlov; tourism=camp_site;
    id=node/432819231</desc>
  </wpt>
  <wpt lat="50.4063778" lon="13.7775024">
    <ele>305.0</ele>
    <name>Sklenik</name>
    <desc>name=Sklenik; tourism=camp_site; id=node/434136934</desc>
  </wpt>
  <wpt lat="49.6326379" lon="15.9090377">
    <ele>613.0</ele>
    <name>node/436152740</name>
    <desc>access=customers; tourism=camp_site;
    id=node/436152740</desc>
  </wpt>
  <wpt lat="49.1706606" lon="14.7322805">
    <ele>423.0</ele>
    <name>Kemp Krkavec</name>
    <desc>name=Kemp Krkavec; tourism=camp_site;
    website=https://www.kempkrkavec.cz/; id=node/436250987</desc>
    <link href="https://www.kempkrkavec.cz/"></link>
  </wpt>
  <wpt lat="49.6308935" lon="12.7603579">
    <ele>486.0</ele>
    <name>Sycherák</name>
    <desc>name=Sycherák; tourism=camp_site;
    id=node/436390868</desc>
  </wpt>
  <wpt lat="50.4694847" lon="13.4232517">
    <ele>348.0</ele>
    <name>Kamencové jezero</name>
    <desc>name=Kamencové jezero; tourism=camp_site;
    id=node/440232889</desc>
  </wpt>
  <wpt lat="49.3727154" lon="16.1029256">
    <ele>558.0</ele>
    <name>Rekreační středisko DRAK Křižanov</name>
    <desc>internet_access=wlan; name=Rekreační středisko DRAK
    Křižanov; tourism=camp_site; id=node/440371047</desc>
  </wpt>
  <wpt lat="49.4347245" lon="14.6663359">
    <ele>441.0</ele>
    <name>Malý Jordán</name>
    <desc>name=Malý Jordán; tourism=camp_site;
    id=node/444520330</desc>
  </wpt>
  <wpt lat="49.0322068" lon="14.4064065">
    <ele>394.0</ele>
    <name>Bezdrev</name>
    <desc>name=Bezdrev; tourism=camp_site; id=node/444583626</desc>
  </wpt>
  <wpt lat="48.9030336" lon="14.8982139">
    <ele>452.0</ele>
    <name>Autocamp U Pískovny</name>
    <desc>email=info@kempupiskovny.cz; name=Autocamp U Pískovny;
    phone=+420 606 129 996; tourism=camp_site;
    website=https://www.kempupiskovny.cz/; id=node/450865695</desc>
    <link href="https://www.kempupiskovny.cz/"></link>
  </wpt>
  <wpt lat="50.1179116" lon="12.4075375">
    <ele>425.0</ele>
    <name>Retro-Camp Tršnice</name>
    <desc>name=Retro-Camp Tršnice; operator=Rafting Ohře s.r.o.;
    tourism=camp_site; website=https://ohre.putzer.cz/;
    id=node/470561776</desc>
    <link href="https://ohre.putzer.cz/"></link>
  </wpt>
  <wpt lat="50.112813" lon="12.4006284">
    <ele>428.0</ele>
    <name>Tršnice</name>
    <desc>capacity=50; name=Tršnice; tourism=camp_site;
    id=node/470561777</desc>
  </wpt>
  <wpt lat="50.1250851" lon="12.52832">
    <ele>416.0</ele>
    <name>Dronte</name>
    <desc>addr:city=Kynšperk nad Ohří; addr:housenumber=206;
    addr:postcode=35751; addr:street=Pobřežní; capacity=200;
    name=Dronte; operator=Dronte.cz +420 778 736 421;
    tourism=camp_site; id=node/470569936</desc>
  </wpt>
  <wpt lat="50.1353174" lon="12.57912">
    <ele>416.0</ele>
    <name>U Šabiny</name>
    <desc>name=U Šabiny; tourism=camp_site;
    id=node/470576433</desc>
  </wpt>
  <wpt lat="50.2119038" lon="12.8177381">
    <ele>373.0</ele>
    <name>Kemp Liapor sport centrum</name>
    <desc>access=permissive; caravans=no; group_only=yes; name=Kemp
    Liapor sport centrum; note=its not clear, that this camp site
    can be used by sport sportsmens or everyone; tents=yes;
    tourism=camp_site; wheelchair=limited; id=node/470593805</desc>
  </wpt>
  <wpt lat="50.3087455" lon="13.0190412">
    <ele>332.0</ele>
    <name>Vodácký kemp Vojkovice</name>
    <desc>name=Vodácký kemp Vojkovice; tourism=camp_site;
    id=node/470601458</desc>
  </wpt>
  <wpt lat="48.9712913" lon="13.5974144">
    <ele>1185.0</ele>
    <name>Bučina, nouzové nocoviště</name>
    <desc>backcountry=yes; caravans=no; fee=no; name=Bučina,
    nouzové nocoviště; note:cs=Nouzové nocoviště;
    note:de=Notübernachtungsplätze; note:en=Emergency night
    shelter; openfire=no; surface=grass; tents=yes;
    tourism=camp_site;
    website=https://www.npsumava.cz/cz/1336/sekce/nouzova-nocoviste/;
    id=node/473467160</desc>
    <link href="https://www.npsumava.cz/cz/1336/sekce/nouzova-nocoviste/">
    </link>
  </wpt>
  <wpt lat="49.9325869" lon="14.3724499">
    <ele>202.0</ele>
    <name>Matyáš</name>
    <desc>name=Matyáš; tourism=camp_site; id=node/476540137</desc>
  </wpt>
  <wpt lat="49.8726818" lon="14.8822175">
    <ele>296.0</ele>
    <name>U hrocha</name>
    <desc>caravans=yes; drinking_water=yes; name=U hrocha;
    power_supply=yes; sanitary_dump_station=no; shower=yes;
    tents=yes; toilets=yes; tourism=camp_site;
    id=node/477219565</desc>
  </wpt>
  <wpt lat="49.7793395" lon="13.4090509">
    <ele>346.0</ele>
    <name>node/495489540</name>
    <desc>tourism=camp_site; id=node/495489540</desc>
  </wpt>
  <wpt lat="49.9689889" lon="14.0755419">
    <ele>221.0</ele>
    <name>Autocamp Na Hrázi</name>
    <desc>name=Autocamp Na Hrázi; tourism=camp_site;
    id=node/528283336</desc>
  </wpt>
  <wpt lat="50.0123976" lon="14.5121027">
    <ele>291.0</ele>
    <name>Prager</name>
    <desc>name=Prager; tourism=camp_site; wikidata=Q96279918;
    id=node/539142322</desc>
  </wpt>
  <wpt lat="48.9266524" lon="13.7911871">
    <ele>764.0</ele>
    <name>Lenora</name>
    <desc>name=Lenora; tourism=camp_site; id=node/560896620</desc>
  </wpt>
  <wpt lat="48.9092992" lon="13.7414158">
    <ele>802.0</ele>
    <name>node/560901005</name>
    <desc>tourism=camp_site; id=node/560901005</desc>
  </wpt>
  <wpt lat="49.1433384" lon="13.2471314">
    <ele>834.0</ele>
    <name>Autocamp Železná Ruda</name>
    <desc>name=Autocamp Železná Ruda; phone=+420602258589;
    tourism=camp_site; website=https://autocamp-zeleznaruda.cz/;
    id=node/577572534</desc>
    <link href="https://autocamp-zeleznaruda.cz/"></link>
  </wpt>
  <wpt lat="49.2874349" lon="13.4605015">
    <ele>519.0</ele>
    <name>node/593992737</name>
    <desc>tourism=camp_site; id=node/593992737</desc>
  </wpt>
  <wpt lat="50.5101792" lon="15.2308818">
    <ele>361.0</ele>
    <name>Svitačka</name>
    <desc>caravans=yes; name=Svitačka; tents=yes;
    tourism=camp_site; id=node/611729855</desc>
  </wpt>
  <wpt lat="50.8581336" lon="14.2273892">
    <ele>240.0</ele>
    <name>node/632655395</name>
    <desc>backcountry=yes; tourism=camp_site;
    id=node/632655395</desc>
  </wpt>
  <wpt lat="49.4086783" lon="14.6295714">
    <ele>419.0</ele>
    <name>node/635898547</name>
    <desc>tourism=camp_site; id=node/635898547</desc>
  </wpt>
  <wpt lat="50.3852672" lon="16.0900814">
    <ele>286.0</ele>
    <name>Camp Pohoda</name>
    <desc>addr:conscriptionnumber=1; addr:country=CZ;
    addr:housenumber=1; addr:place=Šeřeč; addr:postcode=55203;
    name=Camp Pohoda; ref:ruian:addr=7337221; tourism=camp_site;
    id=node/656284419</desc>
  </wpt>
  <wpt lat="49.0563149" lon="14.6646715">
    <ele>438.0</ele>
    <name>node/689928695</name>
    <desc>tourism=camp_site; id=node/689928695</desc>
  </wpt>
  <wpt lat="49.7831136" lon="17.8456012">
    <ele>516.0</ele>
    <name>Agility kemp</name>
    <desc>access=permit; addr:city=Větřkovice; addr:country=CZ;
    addr:housenumber=ev.10; addr:place=Větřkovice;
    addr:postcode=74743; addr:provisionalnumber=10;
    description=Agility kemp se nachází v malebné krajině Oderských
    vrchů, mezi obcemi Březová a Větřkovice. ; ; Jeho okolí je
    protkáno sítí cyklotras, které umožňují přístup k přírodním
    zajímavostem a historickým památkám. Nedaleko areálu kempu je
    rybník.; dog=yes; drinking_water=yes;
    email=kempvetrkovice@seznam.cz; fee=yes; group_only=yes;
    name=Agility kemp; payment:cash=yes; power_supply=yes;
    ref:ruian:addr=27378900; reservation=required; shower=yes;
    toilets=yes; tourism=camp_site;
    website=https://kempvetrkovice.webnode.cz;
    id=node/703691472</desc>
    <link href="https://kempvetrkovice.webnode.cz"></link>
  </wpt>
  <wpt lat="50.0600204" lon="13.3166924">
    <ele>568.0</ele>
    <name>Plot</name>
    <desc>name=Plot; source=TMJ-Mobile_0.7.3; tourism=camp_site;
    id=node/705525712</desc>
  </wpt>
  <wpt lat="49.8777507" lon="14.900095">
    <ele>288.0</ele>
    <name>Pod Vrbou</name>
    <desc>name=Pod Vrbou; tourism=camp_site;
    id=node/753668755</desc>
  </wpt>
  <wpt lat="50.4502876" lon="14.1565601">
    <ele>154.0</ele>
    <name>node/793930949</name>
    <desc>tourism=camp_site; id=node/793930949</desc>
  </wpt>
  <wpt lat="50.2314638" lon="12.8620821">
    <ele>373.0</ele>
    <name>Klub vodáků Karlovy Vary</name>
    <desc>name=Klub vodáků Karlovy Vary; tourism=camp_site;
    wheelchair=yes; id=node/795055204</desc>
  </wpt>
  <wpt lat="50.3176443" lon="13.0270057">
    <ele>336.0</ele>
    <name>Tábořiště Ve Mlýně</name>
    <desc>name=Tábořiště Ve Mlýně; tourism=camp_site;
    id=node/795227655</desc>
  </wpt>
  <wpt lat="49.8258871" lon="17.9977221">
    <ele>366.0</ele>
    <name>Letní tábor</name>
    <desc>name=Letní tábor; tourism=camp_site;
    id=node/802007803</desc>
  </wpt>
  <wpt lat="48.9683807" lon="13.9371785">
    <ele>815.0</ele>
    <name>Křišťanovický rybník</name>
    <desc>name=Křišťanovický rybník; tourism=camp_site;
    id=node/806797193</desc>
  </wpt>
  <wpt lat="50.5399243" lon="15.6263566">
    <ele>387.0</ele>
    <name>Autokemp "Na koupališti"</name>
    <desc>name=Autokemp "Na koupališti"; tourism=camp_site;
    website=http://www.dolnikalna.cz/vismo/zobraz_dok.asp?id_org=2927&amp;id_ktg=1033&amp;p1=1539;
    id=node/820938852</desc>
    <link href="http://www.dolnikalna.cz/vismo/zobraz_dok.asp?id_org=2927%26id_ktg=1033%26p1=1539">
    </link>
  </wpt>
  <wpt lat="49.1380764" lon="13.7039906">
    <ele>714.0</ele>
    <name>Autokemp Rohanov</name>
    <desc>name=Autokemp Rohanov; tourism=camp_site;
    id=node/828904644</desc>
  </wpt>
  <wpt lat="50.8377308" lon="14.3562814">
    <ele>215.0</ele>
    <name>U Ferdinanda</name>
    <desc>name=U Ferdinanda; tourism=camp_site;
    id=node/832424889</desc>
  </wpt>
  <wpt lat="50.0864204" lon="16.47693">
    <ele>409.0</ele>
    <name>Autocamping Pod Černým lesem</name>
    <desc>capacity=560; caravans=yes; drinking_water=yes;
    email=kemp@kemp-zamberk.cz; internet_access=no;
    name=Autocamping Pod Černým lesem; phone=+420 465 614 755;
    ref:nap=15069; tents=yes; tourism=camp_site;
    website=https://www.autocamping.cz/; wheelchair=yes;
    id=node/842112593</desc>
    <link href="https://www.autocamping.cz/"></link>
  </wpt>
  <wpt lat="49.8806391" lon="14.7297657">
    <ele>276.0</ele>
    <name>node/842946449</name>
    <desc>tourism=camp_site; id=node/842946449; ;
    id=way/1096696018</desc>
  </wpt>
  <wpt lat="48.9850926" lon="14.9612908">
    <ele>486.0</ele>
    <name>Autokemp Světlíková Staňkov</name>
    <desc>alt_name=Staňkov 1; caravans=yes;
    email=autokempsvetlikova@email.cz; motorhome=yes; name=Autokemp
    Světlíková Staňkov; phone=+420 776 669 335; shower=yes;
    source=survey; tents=yes; toilets=yes; tourism=camp_site;
    website=http://www.autokempsvetlikova.cz/;
    id=node/845808523</desc>
    <link href="http://www.autokempsvetlikova.cz/"></link>
  </wpt>
  <wpt lat="49.420273" lon="14.1939173">
    <ele>381.0</ele>
    <name>Kemp Štědronín</name>
    <desc>name=Kemp Štědronín; tourism=camp_site;
    website=https://www.pobytyprodeti.cz/detail.php?ID=2&amp;anketa_nazev=diskuse_stedronin&amp;anketa_ukonceni=ne;
    id=node/846286084</desc>
    <link href="https://www.pobytyprodeti.cz/detail.php?ID=2%26anketa_nazev=diskuse_stedronin%26anketa_ukonceni=ne">
    </link>
  </wpt>
  <wpt lat="49.8022328" lon="14.4231367">
    <ele>286.0</ele>
    <name>Autokemp Slapy Skalice</name>
    <desc>name=Autokemp Slapy Skalice; tourism=camp_site;
    website=http://www.slapy-ubytovani.cz/;
    id=node/846294240</desc>
    <link href="http://www.slapy-ubytovani.cz/"></link>
  </wpt>
  <wpt lat="50.5835854" lon="14.3293675">
    <ele>236.0</ele>
    <name>Kemp Úštěk u jezera Chmelař</name>
    <desc>caravans=yes; name=Kemp Úštěk u jezera Chmelař;
    note=Large camping, includes beach area and bumper cars;
    tents=yes; tourism=camp_site; id=node/853885969</desc>
  </wpt>
  <wpt lat="49.2353879" lon="14.3906897">
    <ele>361.0</ele>
    <name>node/865268263</name>
    <desc>tourism=camp_site; id=node/865268263</desc>
  </wpt>
  <wpt lat="49.9239163" lon="14.273343">
    <ele>203.0</ele>
    <name>http://www.campdobrichovice.cz/</name>
    <desc>addr:city=Dobřichovice; addr:country=CZ;
    addr:place=Dobřichovice; addr:postcode=25229; phone=+420 733
    766 516; tourism=camp_site;
    website=http://www.campdobrichovice.cz/;
    id=node/872159038</desc>
    <link href="http://www.campdobrichovice.cz/"></link>
  </wpt>
  <wpt lat="49.8391683" lon="15.6633242">
    <ele>512.0</ele>
    <name>U Letadla</name>
    <desc>access=customers; addr:city=Seč; addr:housenumber=325;
    addr:postcode=53807; addr:street=K Přehradě; fee=yes; name=U
    Letadla; tourism=camp_site; wheelchair=yes; id=way/423024365; ;
    name=Autokemp U Letadla - recepce; wheelchair=limited;
    id=node/887157415</desc>
  </wpt>
  <wpt lat="49.6702094" lon="17.1370876">
    <ele>222.0</ele>
    <name>node/900611360</name>
    <desc>tourism=camp_site; id=node/900611360</desc>
  </wpt>
  <wpt lat="48.7795547" lon="13.8849268">
    <ele>973.0</ele>
    <name>Pod Plešným jezerem</name>
    <desc>backcountry=yes; caravans=no; fee=no; name=Pod Plešným
    jezerem; note:cs=Nouzové nocoviště;
    note:de=Notübernachtungsplätze; note:en=Emergency night
    shelter; openfire=no; surface=ground; tents=yes;
    tourism=camp_site;
    website=https://www.npsumava.cz/cz/1336/sekce/nouzova-nocoviste/;
    id=node/911296889</desc>
    <link href="https://www.npsumava.cz/cz/1336/sekce/nouzova-nocoviste/">
    </link>
  </wpt>
  <wpt lat="50.8654447" lon="14.5561908">
    <ele>551.0</ele>
    <name>Pod Jedlovou</name>
    <desc>internet_access=no; name=Pod Jedlovou; smoking=yes;
    tourism=camp_site; id=node/917072051</desc>
  </wpt>
  <wpt lat="49.1177195" lon="13.6715263">
    <ele>729.0</ele>
    <name>Adolf Žižka - Kemp Úbislav</name>
    <desc>name=Adolf Žižka - Kemp Úbislav; tourism=camp_site;
    id=node/954702666</desc>
  </wpt>
  <wpt lat="50.7317373" lon="14.1929605">
    <ele>157.0</ele>
    <name>Hotel a kemp Formule</name>
    <desc>access=customers; addr:housenumber=113; addr:postcode=407
    11; addr:street=Pěší; capacity=20; caravans=yes;
    drinking_water=yes; email=info@hotelformule.cz; fax=+420 412
    537 002; fee=yes; internet_access=wlan; internet_access:fee=no;
    internet_access:ssid=Kemp; name=Hotel a kemp Formule;
    phone=+420 412 548 445; ref:nap=15429; reservation=yes;
    shower=yes; stars=2; tents=yes; toilets=yes; tourism=camp_site;
    website=https://www.hotelformule.cz/; wheelchair=limited;
    id=node/1037786736</desc>
    <link href="https://www.hotelformule.cz/"></link>
  </wpt>
  <wpt lat="49.2081172" lon="15.3846233">
    <ele>595.0</ele>
    <name>Penzion &amp; camp Javořice</name>
    <desc>caravans=yes; drinking_water=yes; name=Penzion &amp; camp
    Javořice; power_supply=yes; shower=yes; tents=yes;
    tourism=camp_site; website=https://agrika.cz/;
    id=node/1139418664</desc>
    <link href="https://agrika.cz/"></link>
  </wpt>
  <wpt lat="49.9410905" lon="12.6914194">
    <ele>555.0</ele>
    <name>node/1141447946</name>
    <desc>tourism=camp_site; id=node/1141447946</desc>
  </wpt>
  <wpt lat="49.9441543" lon="12.7277372">
    <ele>583.0</ele>
    <name>Kemp Stanowitz</name>
    <desc>backcountry=no; caravans=yes; email=info@stanowitz.cz;
    internet_access=wlan; internet_access:fee=no; maxtents=25;
    name=Kemp Stanowitz; phone=+420 354 624 673; tents=yes;
    tourism=camp_site; website=http://www.stanowitz.com/;
    id=node/1154637813</desc>
    <link href="http://www.stanowitz.com/"></link>
  </wpt>
  <wpt lat="50.9153588" lon="15.2044657">
    <ele>437.0</ele>
    <name>Ludvikov Horses &amp; Holiday</name>
    <desc>name=Ludvikov Horses &amp; Holiday; tourism=camp_site;
    id=node/1207053122</desc>
  </wpt>
  <wpt lat="49.533022" lon="14.1908909">
    <ele>394.0</ele>
    <name>Tvrz Holesice</name>
    <desc>name=Tvrz Holesice; tourism=camp_site;
    id=node/1262480450</desc>
  </wpt>
  <wpt lat="48.8565553" lon="16.7309934">
    <ele>165.0</ele>
    <name>Pálava</name>
    <desc>name=Pálava; tourism=camp_site; id=node/1270079217</desc>
  </wpt>
  <wpt lat="50.0893691" lon="13.4775317">
    <ele>487.0</ele>
    <name>node/1276888264</name>
    <desc>tourism=camp_site; id=node/1276888264</desc>
  </wpt>
  <wpt lat="49.9985277" lon="13.6388736">
    <ele>346.0</ele>
    <name>Machův Mlýn</name>
    <desc>fee=yes; name=Machův Mlýn; tourism=camp_site;
    website=https://www.machuvmlyn.cz/; id=node/1278694856</desc>
    <link href="https://www.machuvmlyn.cz/"></link>
  </wpt>
  <wpt lat="49.958827" lon="13.6962788">
    <ele>256.0</ele>
    <name>Pod Mostem</name>
    <desc>name=Pod Mostem; tourism=camp_site;
    website=https://www.kemp-podmostem.cz/;
    id=node/1278741778</desc>
    <link href="https://www.kemp-podmostem.cz/"></link>
  </wpt>
  <wpt lat="50.5425205" lon="14.021558">
    <ele>257.0</ele>
    <name>Jordán</name>
    <desc>email=campjordan@seznam.cz; name=Jordán; operator=Ichthys
    v.o.s.; phone=+420777949924; tourism=camp_site;
    id=node/1279234179; ; id=way/399104302</desc>
  </wpt>
  <wpt lat="48.9718419" lon="14.9421023">
    <ele>473.0</ele>
    <name>Autocamp U Čerta</name>
    <desc>email=david@campucerta.cz; internet_access=wlan;
    name=Autocamp U Čerta; phone=+420723717341; source=survey;
    tourism=camp_site; website=http://campucerta.cz;
    id=node/1279673776</desc>
    <link href="http://campucerta.cz"></link>
  </wpt>
  <wpt lat="48.9589303" lon="13.8268365">
    <ele>845.0</ele>
    <name>Camp Idina pila</name>
    <desc>addr:city=Lenora; addr:postcode=38442;
    addr:street=Kaplice; caravans=yes; impromptu=yes; name=Camp
    Idina pila; openfire=yes; tents=yes; tourism=camp_site;
    id=node/1289356297</desc>
  </wpt>
  <wpt lat="48.9065925" lon="14.8890937">
    <ele>448.0</ele>
    <name>vodácká základna Suchdol nad Lužnicí</name>
    <desc>name=vodácká základna Suchdol nad Lužnicí;
    tourism=camp_site; id=node/1305217094</desc>
  </wpt>
  <wpt lat="49.1883172" lon="14.7020102">
    <ele>409.0</ele>
    <name>Tábořiště Ostrov</name>
    <desc>name=Tábořiště Ostrov; tourism=camp_site;
    id=node/1306120877</desc>
  </wpt>
  <wpt lat="49.6671247" lon="16.0872779">
    <ele>603.0</ele>
    <name>node/1317286463</name>
    <desc>tourism=camp_site; id=node/1317286463</desc>
  </wpt>
  <wpt lat="50.7417705" lon="15.2822818">
    <ele>576.0</ele>
    <name>node/1339083605</name>
    <desc>tourism=camp_site; id=node/1339083605</desc>
  </wpt>
  <wpt lat="49.0331518" lon="15.2997916">
    <ele>652.0</ele>
    <name>node/1346831666</name>
    <desc>comment=Nejde asi přímo o skautský tábor, ale je velmi
    podobný.; scout=yes; source=gps; tourism=camp_site;
    id=node/1346831666</desc>
  </wpt>
  <wpt lat="49.034807" lon="15.2890776">
    <ele>630.0</ele>
    <name>node/1346831718</name>
    <desc>scout=yes; source=gps; tourism=camp_site;
    id=node/1346831718</desc>
  </wpt>
  <wpt lat="49.0277947" lon="15.3010049">
    <ele>621.0</ele>
    <name>node/1346831730</name>
    <desc>scout=yes; source=gps; tourism=camp_site;
    id=node/1346831730</desc>
  </wpt>
  <wpt lat="49.2457967" lon="13.5451184">
    <ele>463.0</ele>
    <name>Kemp Sušice</name>
    <desc>name=Kemp Sušice; tourism=camp_site;
    website=https://www.kempsusice.cz/; id=node/1393403188</desc>
    <link href="https://www.kempsusice.cz/"></link>
  </wpt>
  <wpt lat="50.6768262" lon="15.9688458">
    <ele>527.0</ele>
    <name>Camping Kralovec</name>
    <desc>addr:housenumber=68; addr:place=Královec;
    addr:postcode=542 03; email=info@camping-kralovec.com;
    internet_access=wlan; name=Camping Kralovec;
    opening_hours=Mo-Su 07:00-21:30; phone=+420722515806;
    source=http://www.camping-kralovec.com; tourism=camp_site;
    website=http://www.camping-kralovec.com/nl/;
    id=node/1420981525</desc>
    <link href="http://www.camping-kralovec.com/nl/"></link>
  </wpt>
  <wpt lat="49.9831313" lon="13.4707825">
    <ele>460.0</ele>
    <name>Sport-kemp</name>
    <desc>addr:city=Kralovice; addr:conscriptionnumber=911;
    addr:country=CZ; addr:housenumber=911; addr:place=Kralovice;
    addr:postcode=33141; addr:street=Manětínská; name=Sport-kemp;
    ref:ruian:addr=26455391; tourism=camp_site;
    id=node/1447565808</desc>
  </wpt>
  <wpt lat="50.7032288" lon="14.8607363">
    <ele>335.0</ele>
    <name>node/1498620884</name>
    <desc>tourism=camp_site; id=node/1498620884</desc>
  </wpt>
  <wpt lat="49.9720201" lon="13.7661135">
    <ele>257.0</ele>
    <name>Kemp Ahoj</name>
    <desc>name=Kemp Ahoj; tourism=camp_site;
    id=node/1599106276</desc>
  </wpt>
  <wpt lat="49.7177037" lon="14.3304538">
    <ele>283.0</ele>
    <name>Kemp Cholín</name>
    <desc>caravans=yes; drinking_water=yes; name=Kemp Cholín;
    power_supply=yes; sanitary_dump_station=yes; shower=yes;
    tents=yes; toilets=yes; tourism=camp_site;
    website=http://kemp-cholin.cz/; id=node/1661273870</desc>
    <link href="http://kemp-cholin.cz/"></link>
  </wpt>
  <wpt lat="49.7378913" lon="14.3589811">
    <ele>285.0</ele>
    <name>RS Častoboř</name>
    <desc>name=RS Častoboř; tourism=camp_site; id=node/1686318620;
    ; id=way/156379439</desc>
  </wpt>
  <wpt lat="49.9208785" lon="14.2102963">
    <ele>211.0</ele>
    <name>Autocamp Ostrov - Zadní Třebáň</name>
    <desc>addr:city=Zadní Třebaň; addr:country=CZ; addr:place=Zadní
    Třebaň; addr:postcode=26729; internet_access=wlan;
    internet_access:fee=no; name=Autocamp Ostrov - Zadní Třebáň;
    phone=+420 777 150 241; tourism=camp_site;
    website=https://www.kempostrov.cz/; id=node/1728784720</desc>
    <link href="https://www.kempostrov.cz/"></link>
  </wpt>
  <wpt lat="49.0596216" lon="14.8551343">
    <ele>436.0</ele>
    <name>Kemp Mláka</name>
    <desc>name=Kemp Mláka; tourism=camp_site;
    id=node/1746060717</desc>
  </wpt>
  <wpt lat="50.5278156" lon="15.2808011">
    <ele>360.0</ele>
    <name>Palda - rekreační středisko</name>
    <desc>addr:housenumber=10; addr:street=Liščí Kotce;
    contact:email=rezervace@campingvraji.cz; ele=360; name=Palda -
    rekreační středisko; operator=MENCL PRO s.r.o.; phone=+420 770
    660 775; tourism=camp_site; website=https://campingvraji.cz/;
    id=node/1763862871</desc>
    <link href="https://campingvraji.cz/"></link>
  </wpt>
  <wpt lat="49.4208975" lon="18.3132557">
    <ele>564.0</ele>
    <name>Kemp Horni Becva</name>
    <desc>name=Kemp Horni Becva; tourism=camp_site;
    id=node/1781910500</desc>
  </wpt>
  <wpt lat="49.9544837" lon="15.2601724">
    <ele>286.0</ele>
    <name>Barbora Kemp</name>
    <desc>addr:housenumber=988; addr:postcode=28401;
    addr:street=Tyršova; caravans=yes;
    email=santabarbarakh@gmail.com; internet_access=wlan;
    name=Barbora Kemp; phone=+420704737747; tents=yes;
    tourism=camp_site; website=https://www.barborakemp.cz/;
    id=node/1803225595</desc>
    <link href="https://www.barborakemp.cz/"></link>
  </wpt>
  <wpt lat="50.2697585" lon="16.1298593">
    <ele>280.0</ele>
    <name>Broumar</name>
    <desc>access=customers; fee=yes; group_only=no; name=Broumar;
    tourism=camp_site; id=way/1070506189; ;
    id=node/1811024393</desc>
  </wpt>
  <wpt lat="50.077583" lon="16.5609708">
    <ele>495.0</ele>
    <name>Petrův palouk</name>
    <desc>name=Petrův palouk; source=survey; tourism=camp_site;
    wheelchair=limited; id=node/1817938544</desc>
  </wpt>
  <wpt lat="48.9540925" lon="14.8787517">
    <ele>448.0</ele>
    <name>Kosky</name>
    <desc>name=Kosky; tourism=camp_site; id=node/1824756185</desc>
  </wpt>
  <wpt lat="49.412642" lon="14.6472328">
    <ele>419.0</ele>
    <name>node/1826149883</name>
    <desc>tourism=camp_site; id=node/1826149883</desc>
  </wpt>
  <wpt lat="48.7243673" lon="14.592483">
    <ele>597.0</ele>
    <name>Dálava</name>
    <desc>designation=Dálava letní tábor; name=Dálava; scout=yes;
    tourism=camp_site; website=http://dalava.webpark.cz;
    id=node/1826195374</desc>
    <link href="http://dalava.webpark.cz"></link>
  </wpt>
  <wpt lat="49.7886112" lon="13.6461166">
    <ele>446.0</ele>
    <name>TJ Volduchy</name>
    <desc>name=TJ Volduchy; official_name=Tělovýchovná jednota
    Volduchy; tourism=camp_site; id=node/1828974638</desc>
  </wpt>
  <wpt lat="48.8865703" lon="17.2727769">
    <ele>167.0</ele>
    <name>node/1835858274</name>
    <desc>tourism=camp_site; id=node/1835858274</desc>
  </wpt>
  <wpt lat="50.3778649" lon="15.6399467">
    <ele>400.0</ele>
    <name>Autokemp U Věže</name>
    <desc>cabins=yes; caravans=yes; internet_access=wlan;
    motorhome=yes; name=Autokemp U Věže; phone=+420 725 016 710;
    shower=yes; tents=yes; toilets=yes; tourism=camp_site;
    website=http://www.kempuveze.cz/; id=node/1839114493</desc>
    <link href="http://www.kempuveze.cz/"></link>
  </wpt>
  <wpt lat="49.886888" lon="14.2260597">
    <ele>408.0</ele>
    <name>tábořiště</name>
    <desc>backcountry=yes; camp_site=basic;
    camp_type=non_designated; description=bivak; fireplace=yes;
    group_only=no; impromptu=yes; informal=yes; name=tábořiště;
    scout=no; tourism=camp_site; id=node/1871845642</desc>
  </wpt>
  <wpt lat="49.1216377" lon="13.4897468">
    <ele>611.0</ele>
    <name>Pavlova Louka</name>
    <desc>name=Pavlova Louka;
    source=http://www.gps-data-team.com/where/Camping_Pavlova_Louka;
    tourism=camp_site; id=node/1905900717</desc>
    <link href="http://www.gps-data-team.com/where/Camping_Pavlova_Louka">
    </link>
  </wpt>
  <wpt lat="49.2093815" lon="15.6558458">
    <ele>596.0</ele>
    <name>Vidlák</name>
    <desc>name=Vidlák; source=survey; tourism=camp_site;
    id=node/1918506085</desc>
  </wpt>
  <wpt lat="49.844977" lon="14.948986">
    <ele>308.0</ele>
    <name>node/1940282893</name>
    <desc>tourism=camp_site; id=node/1940282893</desc>
  </wpt>
  <wpt lat="49.8490917" lon="14.9488344">
    <ele>299.0</ele>
    <name>node/1940282897</name>
    <desc>tourism=camp_site; id=node/1940282897</desc>
  </wpt>
  <wpt lat="49.6789492" lon="13.9679342">
    <ele>550.0</ele>
    <name>Dětský areál Pepa</name>
    <desc>name=Dětský areál Pepa; tourism=camp_site;
    id=node/1968772660</desc>
  </wpt>
  <wpt lat="49.3835207" lon="14.5416438">
    <ele>387.0</ele>
    <name>node/1988560520</name>
    <desc>tourism=camp_site; id=node/1988560520</desc>
  </wpt>
  <wpt lat="50.2998263" lon="16.3673154">
    <ele>668.0</ele>
    <name>Camping Destne-Zakoutí</name>
    <desc>caravans=yes; drinking_water=yes; internet_access=wlan;
    name=Camping Destne-Zakoutí; phone=+420 494663335;
    power_supply=yes; sanitary_dump_station=yes; shower=yes;
    tents=yes; tourism=camp_site; id=node/2036060974</desc>
  </wpt>
  <wpt lat="49.4675696" lon="14.3638354">
    <ele>454.0</ele>
    <name>kemp Vášův mlýn</name>
    <desc>name=kemp Vášův mlýn; tourism=camp_site;
    id=node/2130427795</desc>
  </wpt>
  <wpt lat="50.4246103" lon="14.4605579">
    <ele>197.0</ele>
    <name>Kemp Želízy</name>
    <desc>name=Kemp Želízy; tourism=camp_site;
    id=node/2213029244</desc>
  </wpt>
  <wpt lat="49.8607671" lon="18.0304716">
    <ele>364.0</ele>
    <name>Letní tábor</name>
    <desc>name=Letní tábor; tourism=camp_site;
    id=node/2245000299</desc>
  </wpt>
  <wpt lat="49.7251837" lon="14.3505882">
    <ele>272.0</ele>
    <name>Oboz</name>
    <desc>name=Oboz; tourism=camp_site; id=node/2247038650</desc>
  </wpt>
  <wpt lat="49.0633505" lon="14.75982">
    <ele>423.0</ele>
    <name>Lužnice</name>
    <desc>name=Lužnice; phone=+420724061513; tourism=camp_site;
    id=node/2252987898</desc>
  </wpt>
  <wpt lat="50.4553387" lon="16.1044289">
    <ele>420.0</ele>
    <name>node/2276023708</name>
    <desc>tourism=camp_site; id=node/2276023708</desc>
  </wpt>
  <wpt lat="49.8968629" lon="18.16926">
    <ele>215.0</ele>
    <name>Camping Hlucin</name>
    <desc>addr:city=Hlucin; addr:housename=Celní 12, Hlučín;
    cabins=yes; caravans=yes; email=autokemp@sak-hlucin.cz;
    mobile=+420 601 533 057; name=Camping Hlucin; phone=+420 595
    043 677; shower=yes; tents=yes; toilets=yes; tourism=camp_site;
    website=https://www.sak-hlucin.cz/cs/sport-a-relaxace/autocamp/a-891/;
    id=node/2295977355</desc>
    <link href="https://www.sak-hlucin.cz/cs/sport-a-relaxace/autocamp/a-891/">
    </link>
  </wpt>
  <wpt lat="49.260759" lon="15.9415052">
    <ele>469.0</ele>
    <name>Tábor u Malého Boru</name>
    <desc>name=Tábor u Malého Boru; tourism=camp_site;
    id=node/2298110995</desc>
  </wpt>
  <wpt lat="48.9255628" lon="15.9386769">
    <ele>357.0</ele>
    <name>ATC Mexico</name>
    <desc>name=ATC Mexico; tourism=camp_site;
    id=node/2303101962</desc>
  </wpt>
  <wpt lat="49.6687596" lon="15.8578104">
    <ele>569.0</ele>
    <name>Rekreační středisko Štíří důl</name>
    <desc>name=Rekreační středisko Štíří důl; tourism=camp_site;
    id=node/2311923621</desc>
  </wpt>
  <wpt lat="49.0954715" lon="15.2392522">
    <ele>652.0</ele>
    <name>Kemp Zvůle</name>
    <desc>name=Kemp Zvůle; tourism=camp_site;
    id=node/2314781032</desc>
  </wpt>
  <wpt lat="49.0954695" lon="15.2324668">
    <ele>653.0</ele>
    <name>Chata Zvule</name>
    <desc>name=Chata Zvule; tourism=camp_site;
    id=node/2314781034</desc>
  </wpt>
  <wpt lat="50.5399008" lon="13.7604445">
    <ele>207.0</ele>
    <name>Kemp Kyselka</name>
    <desc>email=autokemp@sportbilina.cz; name=Kemp Kyselka;
    opening_hours=Mo-Su 09:00-21:00; phone=+420-417 823 254;
    tourism=camp_site; website=http://www.sportbilina.cz/autocamp;
    id=node/2327717927; ; group_only=yes; name=Autokemp;
    id=way/1030827705</desc>
    <link href="http://www.sportbilina.cz/autocamp"></link>
  </wpt>
  <wpt lat="49.3661555" lon="18.3149546">
    <ele>536.0</ele>
    <name>Kemp Machůzky</name>
    <desc>cabins=yes; caravans=yes; email=info@machuzky.cz;
    name=Kemp Machůzky; phone=+420 603 327 150; tents=yes;
    tourism=camp_site; website=https://www.machuzky.cz/;
    id=node/2334329609</desc>
    <link href="https://www.machuzky.cz/"></link>
  </wpt>
  <wpt lat="49.6182247" lon="12.8557092">
    <ele>545.0</ele>
    <name>U Vidic</name>
    <desc>access=yes; amenity=shelter; backcountry=yes;
    camp_site=basic; description=bivakovací přístřešek;
    drinking_water=no; fireplace=yes; group_only=no; name=U Vidic;
    scout=no; shelter=yes; shelter_type=lean_to; tourism=camp_site;
    id=node/2359333023</desc>
  </wpt>
  <wpt lat="50.5472728" lon="14.9340676">
    <ele>249.0</ele>
    <name>node/2359404752</name>
    <desc>tourism=camp_site; id=node/2359404752</desc>
  </wpt>
  <wpt lat="49.0213394" lon="15.2846657">
    <ele>635.0</ele>
    <name>node/2360254756</name>
    <desc>tourism=camp_site; id=node/2360254756</desc>
  </wpt>
  <wpt lat="48.8737493" lon="16.7253933">
    <ele>174.0</ele>
    <name>Kemp Mars</name>
    <desc>backcountry=no; fee=yes; group_only=no; name=Kemp Mars;
    source=Bing,survey; tourism=camp_site;
    id=node/2360416015</desc>
  </wpt>
  <wpt lat="49.8197301" lon="15.6542042">
    <ele>504.0</ele>
    <name>Yachtclub Pardubice</name>
    <desc>alt_name=Autocamp Seč; capacity=72; caravans=yes;
    email=ubytovani@ycpardubice.cz; motorhome=yes; name=Yachtclub
    Pardubice; phone=+420 737 434 626; ref:nap=23003; tents=yes;
    toilets=yes; tourism=camp_site;
    website=https://www.ubytovaninaseci.cz/;
    id=node/2363176275</desc>
    <link href="https://www.ubytovaninaseci.cz/"></link>
  </wpt>
  <wpt lat="49.7477155" lon="17.3057842">
    <ele>315.0</ele>
    <name>Autokemp Šternberk</name>
    <desc>name=Autokemp Šternberk; tourism=camp_site;
    id=node/2365897154</desc>
  </wpt>
  <wpt lat="49.0412637" lon="15.3606229">
    <ele>498.0</ele>
    <name>node/2366210556</name>
    <desc>tourism=camp_site; id=node/2366210556</desc>
  </wpt>
  <wpt lat="50.2677352" lon="12.783508">
    <ele>434.0</ele>
    <name>Autokemp Nová Role</name>
    <desc>cabins=yes; capacity:cabins=5;
    email=pitr.dolejs@seznam.cz; name=Autokemp Nová Role;
    phone=+420 721 223 671; source:tents=phone; tents=no;
    tourism=camp_site; id=node/2370503405</desc>
  </wpt>
  <wpt lat="50.0807486" lon="16.5640601">
    <ele>475.0</ele>
    <name>ATC Šlechtův palouk</name>
    <desc>caravans=yes; email=atc@pastviny.cz; fee=yes; name=ATC
    Šlechtův palouk; phone=+420724147317; power_supply=yes;
    sanitary_dump_station=yes;
    source=http://www.atcslechtuvpalouk.cz; tents=yes;
    tourism=camp_site; website=http://www.atcslechtuvpalouk.cz;
    id=node/2370780460</desc>
    <link href="http://www.atcslechtuvpalouk.cz"></link>
  </wpt>
  <wpt lat="49.8809962" lon="14.9065162">
    <ele>291.0</ele>
    <name>Sázavský ostrov</name>
    <desc>name=Sázavský ostrov; tourism=camp_site;
    id=node/2371745823</desc>
  </wpt>
  <wpt lat="50.0200838" lon="13.8346128">
    <ele>243.0</ele>
    <name>Kemp Branov</name>
    <desc>caravans=yes;
    contact:facebook=https://www.facebook.com/kemp.branov/;
    drinking_water=yes; fee=yes; internet_access=no; name=Kemp
    Branov; power_supply=yes; sanitary_dump_station=no; shower=yes;
    tents=yes; toilets=yes; toilets:wheelchair=no;
    tourism=camp_site; website=https://www.kempbranov.cz/;
    wheelchair=limited; id=node/2373237304</desc>
    <link href="https://www.kempbranov.cz/"></link>
  </wpt>
  <wpt lat="48.9178653" lon="14.4302334">
    <ele>410.0</ele>
    <name>Boršov - Poslední Štace</name>
    <desc>email=info@poslednistace.cz; name=Boršov - Poslední
    Štace; phone=+420602272659; tourism=camp_site;
    website=http://www.poslednistace.cz/; id=node/2374230131</desc>
    <link href="http://www.poslednistace.cz/"></link>
  </wpt>
  <wpt lat="49.6714991" lon="15.3165451">
    <ele>368.0</ele>
    <name>Stvořidla</name>
    <desc>caravans=yes; drinking_water=yes;
    email=stvoridla@email.cz; internet_access=wlan;
    internet_access:fee=no; internet_access:password=taboriste17;
    internet_access:ssid=Stvoridla; name=Stvořidla;
    power_supply=yes; sanitary_dump_station=no; shower=yes;
    tents=yes; toilets=yes; tourism=camp_site;
    website=https://www.trpisovice.cz/verejne-taboriste-stvoridla;
    wheelchair=yes; id=node/2378220503</desc>
    <link href="https://www.trpisovice.cz/verejne-taboriste-stvoridla">
    </link>
  </wpt>
  <wpt lat="49.1807835" lon="13.4993193">
    <ele>521.0</ele>
    <name>Autokempink Nové Městečko</name>
    <desc>caravans=yes; name=Autokempink Nové Městečko;
    openfire=yes; tents=yes; tourism=camp_site;
    website=https://www.sumavanet.cz/novemestecko/;
    id=node/2378229381</desc>
    <link href="https://www.sumavanet.cz/novemestecko/"></link>
  </wpt>
  <wpt lat="49.147282" lon="14.1274737">
    <ele>414.0</ele>
    <name>Pražák</name>
    <desc>caravans=yes; internet_access=wlan; name=Pražák;
    tents=yes; tourism=camp_site; id=node/2378239378</desc>
  </wpt>
  <wpt lat="49.7385497" lon="15.1285822">
    <ele>337.0</ele>
    <name>Kemp Horka II</name>
    <desc>fee=yes; name=Kemp Horka II; power_supply=yes;
    shower=yes; source=www.obec-horkaii.cz; toilets=yes;
    tourism=camp_site; id=node/2378336856</desc>
    <link href="www.obec-horkaii.cz"></link>
  </wpt>
  <wpt lat="49.2969754" lon="13.7543464">
    <ele>414.0</ele>
    <name>Kemp Hoštice</name>
    <desc>name=Kemp Hoštice; tourism=camp_site;
    website=https://www.kemphostice.cz/; id=node/2380656099</desc>
    <link href="https://www.kemphostice.cz/"></link>
  </wpt>
  <wpt lat="50.6794833" lon="14.6529141">
    <ele>262.0</ele>
    <name>node/2385492286</name>
    <desc>tourism=camp_site; id=node/2385492286</desc>
  </wpt>
  <wpt lat="50.7223448" lon="14.4023868">
    <ele>294.0</ele>
    <name>Camp Slunce Žandov</name>
    <desc>name=Camp Slunce Žandov; tourism=camp_site;
    id=node/2388595244</desc>
  </wpt>
  <wpt lat="50.6210696" lon="14.0756722">
    <ele>144.0</ele>
    <name>Cyklokemp Loděnice</name>
    <desc>addr:city=Ústí nad Labem; addr:housenumber=50;
    addr:postcode=40321; addr:street=Pod Tratí; caravans=yes;
    drinking_water=yes; name=Cyklokemp Loděnice; phone=+420 472 741
    527; sanitary_dump_station=yes; shower=yes; tents=yes;
    toilets=yes; tourism=camp_site;
    website=http://www.cyklokemplodenice.cz;
    id=node/2391867597</desc>
    <link href="http://www.cyklokemplodenice.cz"></link>
  </wpt>
  <wpt lat="49.7908845" lon="17.6359458">
    <ele>497.0</ele>
    <name>Autokemp Budišov n.B.</name>
    <desc>name=Autokemp Budišov n.B.; tourism=camp_site;
    id=node/2392626795</desc>
  </wpt>
  <wpt lat="48.983474" lon="14.9715379">
    <ele>488.0</ele>
    <name>TZ Vlčice</name>
    <desc>access=customers; backcountry=yes; drinking_water=no;
    internet_access=no; name=TZ Vlčice; operator=YMCA;
    power_supply=no; ref=Z 8050; shower=yes; smoking=no;
    tourism=camp_site;
    website=https://ymca-jh.cz/taborova-zakladna-vlcice/;
    id=node/2405787461</desc>
    <link href="https://ymca-jh.cz/taborova-zakladna-vlcice/">
    </link>
  </wpt>
  <wpt lat="50.9753552" lon="14.5069971">
    <ele>429.0</ele>
    <name>Camp Valdek</name>
    <desc>caravans=yes; name=Camp Valdek; tents=yes;
    tourism=camp_site; id=node/2405871780</desc>
  </wpt>
  <wpt lat="48.9598983" lon="14.9421147">
    <ele>463.0</ele>
    <name>kemp Hejtman - jih</name>
    <desc>name=kemp Hejtman - jih; source=survey;
    tourism=camp_site; id=node/2406963931</desc>
  </wpt>
  <wpt lat="48.9606648" lon="14.9485034">
    <ele>463.0</ele>
    <name>kemp Veronika</name>
    <desc>name=kemp Veronika; source=survey; tourism=camp_site;
    id=node/2406963935</desc>
  </wpt>
  <wpt lat="48.9608636" lon="14.9494831">
    <ele>461.0</ele>
    <name>kemp Kapřík</name>
    <desc>name=kemp Kapřík; source=survey; tourism=camp_site;
    id=node/2406963938</desc>
  </wpt>
  <wpt lat="48.9785459" lon="14.9562337">
    <ele>479.0</ele>
    <name>Kemp U Tomášků</name>
    <desc>caravans=yes; email=stika9@centrum.cz;
    internet_access=wlan; name=Kemp U Tomášků;
    phone=+420721090050,+420606507244,+420384797257; shower=yes;
    tents=yes; toilets=yes; tourism=camp_site;
    website=http://www.camptomasek.cz; id=node/2406970500</desc>
    <link href="http://www.camptomasek.cz"></link>
  </wpt>
  <wpt lat="48.9789383" lon="14.9588243">
    <ele>474.0</ele>
    <name>Autocamp OASA</name>
    <desc>caravans=yes; drinking_water=yes; internet_access=wlan;
    name=Autocamp OASA; phone=+420606832100; power_supply=yes;
    sanitary_dump_station=yes; shower=yes; tents=yes; toilets=yes;
    tourism=camp_site; website=http://www.campoasa.cz;
    id=node/2406970501</desc>
    <link href="http://www.campoasa.cz"></link>
  </wpt>
  <wpt lat="48.975518" lon="14.9551613">
    <ele>474.0</ele>
    <name>Autokemp U Kosů</name>
    <desc>email=autokemp.kos@treb.cz; internet_access=wlan;
    name=Autokemp U Kosů; phone=+420606145578; source=survey;
    tourism=camp_site; website=https://www.autokempukosu.cz/;
    id=node/2406970502</desc>
    <link href="https://www.autokempukosu.cz/"></link>
  </wpt>
  <wpt lat="50.2704369" lon="17.7159691">
    <ele>229.0</ele>
    <name>Autocamp</name>
    <desc>caravans=yes; drinking_water=yes; name=Autocamp;
    shower=yes; tents=yes; toilets=yes; tourism=camp_site;
    id=node/2407209652</desc>
  </wpt>
  <wpt lat="48.9845625" lon="14.7765147">
    <ele>440.0</ele>
    <name>Sportcentrum Doubí</name>
    <desc>NAP:ref=19325; addr:city=Třeboň; addr:housenumber=108;
    addr:postcode=37901; addr:street=Branná; cabins=yes;
    caravans=yes; email=doubi@treb.cz; motorhome=yes;
    name=Sportcentrum Doubí; phone=+420 725 119 330; tents=yes;
    toilets=yes; tourism=camp_site;
    website=http://www.doubi.treb.cz/; id=node/2407646298</desc>
    <link href="http://www.doubi.treb.cz/"></link>
  </wpt>
  <wpt lat="48.729455" lon="14.088391">
    <ele>726.0</ele>
    <name>Villa Bohemia</name>
    <desc>caravans=yes; contact:email=camp@villabohemia.cz;
    fax=+420 380 744 004; internet_access=wlan; name=Villa Bohemia;
    phone=+420 380 744 004, +420 736 609 842; source=survey;
    tents=yes; tourism=camp_site;
    website=https://www.villabohemia.cz/; wheelchair=limited;
    id=node/2408614238</desc>
    <link href="https://www.villabohemia.cz/"></link>
  </wpt>
  <wpt lat="48.7384315" lon="14.1045464">
    <ele>725.0</ele>
    <name>Autokemp Na terasách</name>
    <desc>caravans=yes; drinking_water=yes; fee=yes; group_only=no;
    name=Autokemp Na terasách; tents=yes; tourism=camp_site;
    id=way/1078177052; ; id=node/2408821467</desc>
  </wpt>
  <wpt lat="50.5241598" lon="15.2103862">
    <ele>293.0</ele>
    <name>node/2408868663</name>
    <desc>tourism=camp_site; id=node/2408868663</desc>
  </wpt>
  <wpt lat="48.9657406" lon="14.8662582">
    <ele>438.0</ele>
    <name>Kemp Majdalena</name>
    <desc>name=Kemp Majdalena; phone=+420 606 117 421;
    tourism=camp_site;
    website=https://www.pujcovnalodidunaj.cz/kemp-majdalena/;
    id=node/2409936739</desc>
    <link href="https://www.pujcovnalodidunaj.cz/kemp-majdalena/">
    </link>
  </wpt>
  <wpt lat="50.1644755" lon="14.4855355">
    <ele>257.0</ele>
    <name>node/2410179703</name>
    <desc>tourism=camp_site; id=node/2410179703</desc>
  </wpt>
  <wpt lat="48.9640894" lon="14.937637">
    <ele>466.0</ele>
    <name>Camping Sever</name>
    <desc>backcountry=no; cabins=yes; dog=yes; drinking_water=yes;
    email=post@campsever.cz; fee=yes; internet_access=wlan;
    name=Camping Sever; openfire=yes; payment:cash=yes;
    phone=+420602393683; power_supply=yes; reservation=yes;
    shower=yes; source=survey; tents=yes; toilets=yes;
    tourism=camp_site; washing_machine=yes;
    website=http://www.campsever.cz; id=node/2412411581</desc>
    <link href="http://www.campsever.cz"></link>
  </wpt>
  <wpt lat="48.9658146" lon="14.9380543">
    <ele>467.0</ele>
    <name>kemp Březák</name>
    <desc>name=kemp Březák; source=survey; tourism=camp_site;
    id=node/2412426560</desc>
  </wpt>
  <wpt lat="48.965243" lon="14.9464824">
    <ele>465.0</ele>
    <name>Chatový areál Atlas</name>
    <desc>email=hejtman15@seznam.cz; internet_access=wlan;
    name=Chatový areál Atlas; phone=+420602945041;
    tourism=camp_site; website=https://www.atlas-rekreace.cz/;
    id=node/2413609980</desc>
    <link href="https://www.atlas-rekreace.cz/"></link>
  </wpt>
  <wpt lat="50.4517757" lon="15.93435">
    <ele>435.0</ele>
    <name>Letní tábor Běluň</name>
    <desc>name=Letní tábor Běluň; tourism=camp_site;
    id=node/2424057704</desc>
  </wpt>
  <wpt lat="49.1346966" lon="15.1929751">
    <ele>569.0</ele>
    <name>Autokemp Komorník</name>
    <desc>caravans=no; drinking_water=yes; internet_access=wlan;
    internet_access:fee=no; name=Autokemp Komorník; nudism=no;
    power_supply=yes; shower=yes; tents=yes; toilets=yes;
    tourism=camp_site; wheelchair=no; id=node/2430991461</desc>
  </wpt>
  <wpt lat="48.8786842" lon="14.9665075">
    <ele>499.0</ele>
    <name>Turistická základna Tokániště</name>
    <desc>email=info@ddmjh.cz; name=Turistická základna Tokániště;
    operator=DDM J. Hradec; phone=+420 725 763 186; smoking=no;
    source=survey; tourism=camp_site;
    website=https://www.ddmjh.cz/; id=node/2432711476</desc>
    <link href="https://www.ddmjh.cz/"></link>
  </wpt>
  <wpt lat="49.1490039" lon="15.2074629">
    <ele>550.0</ele>
    <name>Autokemp Komorník</name>
    <desc>name=Autokemp Komorník; tourism=camp_site;
    id=node/2443593828</desc>
  </wpt>
  <wpt lat="48.6344154" lon="14.5701155">
    <ele>702.0</ele>
    <name>Rodinná farma</name>
    <desc>name=Rodinná farma; name:cs=Rodinná farma;
    tourism=camp_site; id=node/2459285560</desc>
  </wpt>
  <wpt lat="49.8785454" lon="14.9196173">
    <ele>296.0</ele>
    <name>U Kavalíra</name>
    <desc>email=info@kawalir.cz; name=U Kavalíra; phone=+420 607
    818 963; source=Bing; tourism=camp_site;
    website=http://www.kawalir.cz/; id=node/2488927116</desc>
    <link href="http://www.kawalir.cz/"></link>
  </wpt>
  <wpt lat="49.5067009" lon="12.9069507">
    <ele>404.0</ele>
    <name>Delta Podhájí autokemp</name>
    <desc>name=Delta Podhájí autokemp; tourism=camp_site;
    id=node/2493523577</desc>
  </wpt>
  <wpt lat="48.8820603" lon="14.6211123">
    <ele>481.0</ele>
    <name>Dětský tábor</name>
    <desc>access=customers; internet_access=no; name=Dětský tábor;
    smoking=no; source=survey; tourism=camp_site;
    id=node/2504828397</desc>
  </wpt>
  <wpt lat="50.6213934" lon="14.4792544">
    <ele>267.0</ele>
    <name>Kemp Milčany</name>
    <desc>addr:city=Holany; addr:country=CZ; addr:place=Holany;
    addr:postcode=47002; name=Kemp Milčany; phone=+420 775 957 590;
    tourism=camp_site; website=https://www.holany.cz/kempmilcany;
    id=node/2520696753</desc>
    <link href="https://www.holany.cz/kempmilcany"></link>
  </wpt>
  <wpt lat="50.1093088" lon="13.2900059">
    <ele>544.0</ele>
    <name>OSADA Šárka</name>
    <desc>access=private; addr:city=Chyše;
    addr:conscriptionnumber=2; addr:country=CZ; addr:housenumber=4;
    addr:place=Žďárek; addr:postcode=36453; addr:street=Žďárek;
    backcountry=yes; caravans=yes; charge=250 CZK; description=Our
    new family settlement Šárka offers the possibility of camping
    and camping in the beautiful nature of the Karlovy Vary region.
    We are here for you from April to October and, weather
    permitting, also in March and November. We speak German and
    English.; drinking_water=yes; fee=yes; group_only=no;
    name=OSADA Šárka; openfire=yes; opening_hours=duben - říjen;
    operator=Šárka Šímová; payment:cash=yes;
    payment:credit_cards=yes; payment:mastercard=yes;
    payment:visa=yes; phone=+420 725 813 526; picnic_table=yes;
    ref:ruian:addr=11930241; shower=yes; source:addr=cuzk:ruian;
    static_caravans=yes; tents=yes; toilets=yes; tourism=camp_site;
    website=https://www.osadasarka.cz/; id=node/2536683828</desc>
    <link href="https://www.osadasarka.cz/"></link>
  </wpt>
  <wpt lat="48.9086743" lon="17.3109367">
    <ele>171.0</ele>
    <name>node/2558202651</name>
    <desc>tourism=camp_site; id=node/2558202651</desc>
  </wpt>
  <wpt lat="48.9084663" lon="17.3118808">
    <ele>174.0</ele>
    <name>node/2558202664</name>
    <desc>tourism=camp_site; id=node/2558202664</desc>
  </wpt>
  <wpt lat="49.6966386" lon="13.5256673">
    <ele>506.0</ele>
    <name>Seník</name>
    <desc>access=no; amenity=game_feeding; backcountry=yes;
    camp_type=non_designated; feeding:fodder=hay; feeding:for=game;
    feeding:type=manger; name=Seník; tourism=camp_site;
    id=node/2569929771</desc>
  </wpt>
  <wpt lat="49.8158098" lon="16.1411424">
    <ele>499.0</ele>
    <name>Zahrádky</name>
    <desc>access=yes; backcountry=yes; camp_site=basic;
    caravans=no; drinking_water=no; lit=no; name=Zahrádky;
    note=Anyone can access this camp and legally sleep there, BUT
    no fire and no tents are allowed.; openfire=no; shower=no;
    tents=no; tourism=camp_site; id=node/2581027094</desc>
  </wpt>
  <wpt lat="49.8259505" lon="16.1495138">
    <ele>429.0</ele>
    <name>node/2581245999</name>
    <desc>scout=yes; tourism=camp_site; id=node/2581245999</desc>
  </wpt>
  <wpt lat="50.8431942" lon="14.3922157">
    <ele>237.0</ele>
    <name>Autokemp Jetřichovice</name>
    <desc>addr:housename=Jetřichovice 117; backcountry=yes;
    dog=yes; fee=yes; name=Autokemp Jetřichovice; openfire=yes;
    power_supply=yes; sanitary_dump_station=yes; shower=yes;
    toilets=yes; tourism=camp_site;
    website=https://www.campingplatze.cz/ustecky-kraj/decin/370-autocamp-jetrichovice;
    id=node/2582377146</desc>
    <link href="https://www.campingplatze.cz/ustecky-kraj/decin/370-autocamp-jetrichovice">
    </link>
  </wpt>
  <wpt lat="49.0327346" lon="14.4018266">
    <ele>385.0</ele>
    <name>Bezdrev</name>
    <desc>name=Bezdrev; tourism=camp_site;
    id=node/2629824158</desc>
  </wpt>
  <wpt lat="49.7720969" lon="17.3195253">
    <ele>356.0</ele>
    <name>Dálava</name>
    <desc>name=Dálava; tourism=camp_site;
    website=http://www.dalava.cz/; id=node/2645549303</desc>
    <link href="http://www.dalava.cz/"></link>
  </wpt>
  <wpt lat="49.4838892" lon="16.1427408">
    <ele>488.0</ele>
    <name>MARACAIBO</name>
    <desc>designation=Letní dětský tábor MARACAIBO; name=MARACAIBO;
    source=Letní dětský tábor MARACAIBO; tourism=camp_site;
    id=node/2661626507</desc>
  </wpt>
  <wpt lat="50.9247884" lon="15.030654">
    <ele>281.0</ele>
    <name>Camping Harta</name>
    <desc>caravans=yes; internet_access:fee=no; name=Camping Harta;
    payment:coins=yes; payment:credit_cards=no;
    payment:cryptocurrencies=no; payment:debit_cards=no;
    payment:electronic_purses=no; payment:notes=yes; tents=yes;
    tourism=camp_site; id=node/2669102634</desc>
  </wpt>
  <wpt lat="49.2883532" lon="17.4127957">
    <ele>185.0</ele>
    <name>Loděnice VM Hradisko</name>
    <desc>name=Loděnice VM Hradisko; tourism=camp_site;
    id=node/2705522574</desc>
  </wpt>
  <wpt lat="50.738981" lon="14.2998169">
    <ele>185.0</ele>
    <name>node/2852466345</name>
    <desc>tourism=camp_site; id=node/2852466345</desc>
  </wpt>
  <wpt lat="50.5029607" lon="15.0768926">
    <ele>275.0</ele>
    <name>Komárov (Peklo)</name>
    <desc>access=permit; name=Komárov (Peklo); tourism=camp_site;
    id=node/2865560199</desc>
  </wpt>
  <wpt lat="50.5022874" lon="15.0800533">
    <ele>272.0</ele>
    <name>Chatová osada Lemberk</name>
    <desc>name=Chatová osada Lemberk; tourism=camp_site;
    id=node/2865565721</desc>
  </wpt>
  <wpt lat="48.74171" lon="14.0865094">
    <ele>729.0</ele>
    <name>node/2880654854</name>
    <desc>source=survery; tourism=camp_site;
    id=node/2880654854</desc>
  </wpt>
  <wpt lat="50.6353409" lon="15.292482">
    <ele>295.0</ele>
    <name>Paraplíčko</name>
    <desc>backcountry=yes; name=Paraplíčko; tourism=camp_site;
    id=node/2900773720</desc>
  </wpt>
  <wpt lat="50.5266513" lon="16.372151">
    <ele>391.0</ele>
    <name>Camping U Potoka</name>
    <desc>name=Camping U Potoka; tourism=camp_site;
    id=node/2928976192</desc>
  </wpt>
  <wpt lat="49.1479571" lon="16.2420772">
    <ele>305.0</ele>
    <name>node/2940828780</name>
    <desc>backcountry=yes; tourism=camp_site;
    id=node/2940828780</desc>
  </wpt>
  <wpt lat="49.1585169" lon="16.2351355">
    <ele>323.0</ele>
    <name>node/2940828782</name>
    <desc>backcountry=yes; tourism=camp_site;
    id=node/2940828782</desc>
  </wpt>
  <wpt lat="49.1561598" lon="16.1665552">
    <ele>315.0</ele>
    <name>node/2940925779</name>
    <desc>backcountry=yes; tourism=camp_site;
    id=node/2940925779</desc>
  </wpt>
  <wpt lat="49.1698116" lon="16.166458">
    <ele>337.0</ele>
    <name>Údolí Klondike</name>
    <desc>backcountry=yes; name=Údolí Klondike; tourism=camp_site;
    id=node/2940925782</desc>
  </wpt>
  <wpt lat="49.1675714" lon="16.1720811">
    <ele>342.0</ele>
    <name>node/2940925783</name>
    <desc>backcountry=yes; tourism=camp_site;
    id=node/2940925783</desc>
  </wpt>
  <wpt lat="49.1742319" lon="16.1625261">
    <ele>347.0</ele>
    <name>Zlatá podkova</name>
    <desc>backcountry=yes; name=Zlatá podkova; tourism=camp_site;
    id=node/2940925785</desc>
  </wpt>
  <wpt lat="50.5255249" lon="13.6215182">
    <ele>233.0</ele>
    <name>Kemp - tábořiště Matylda</name>
    <desc>caravans=yes; description=open 1.5. - 30.9.; name=Kemp -
    tábořiště Matylda; phone=+420 725 958 011; tents=yes;
    tourism=camp_site;
    website=https://www.tsmost.cz/sluzby/matylda-kemp;
    id=node/2956982232</desc>
    <link href="https://www.tsmost.cz/sluzby/matylda-kemp"></link>
  </wpt>
  <wpt lat="50.1728639" lon="13.8410932">
    <ele>432.0</ele>
    <name>Camping Bucek</name>
    <desc>caravans=yes; email=info@campingbucek.cz; name=Camping
    Bucek; opening_hours=Apr 25-Sep 15; phone=+420 313 564 212;
    tents=yes; tourism=camp_site;
    website=http://www.campingbucek.cz; id=node/2965752041</desc>
    <link href="http://www.campingbucek.cz"></link>
  </wpt>
  <wpt lat="50.590229" lon="15.6617591">
    <ele>417.0</ele>
    <name>Camping Papillon</name>
    <desc>addr:city=Dolní Lánov; addr:housenumber=81;
    addr:postcode=54341; addr:street=Dolní Lánov; name=Camping
    Papillon; operator=Jan en Akkelien Nijdam; smoking=outside;
    tourism=camp_site;
    website=http://www.papillonvakanties.nl/contact.html;
    id=node/2975365464</desc>
    <link href="http://www.papillonvakanties.nl/contact.html">
    </link>
  </wpt>
  <wpt lat="50.6160639" lon="16.1085254">
    <ele>530.0</ele>
    <name>Ubytování U Stránských</name>
    <desc>camp_site=serviced; name=Ubytování U Stránských;
    static_caravans=no; tourism=camp_site;
    id=node/2980725602</desc>
  </wpt>
  <wpt lat="50.0292844" lon="13.8661261">
    <ele>242.0</ele>
    <name>Tábořiště mezi mosty</name>
    <desc>caravans=no; drinking_water=yes; internet_access=no;
    name=Tábořiště mezi mosty; openfire=yes; power_supply=no;
    shower=no; tents=yes; toilets=yes; tourism=camp_site;
    wheelchair=yes; id=node/2983514210</desc>
  </wpt>
  <wpt lat="50.0447712" lon="13.9122316">
    <ele>234.0</ele>
    <name>Kemp Riviera</name>
    <desc>name=Kemp Riviera; tourism=camp_site;
    id=node/2983519144</desc>
  </wpt>
  <wpt lat="49.944456" lon="13.6140266">
    <ele>266.0</ele>
    <name>U Mloka</name>
    <desc>caravans=no; drinking_water=yes; email=info@umloka.cz;
    internet_access=wlan; internet_access:fee=no; name=U Mloka;
    phone=+420725348980; power_supply=no; shower=yes; tents=yes;
    toilets=yes; tourism=camp_site; website=http://www.umloka.cz/;
    id=node/3010514459</desc>
    <link href="http://www.umloka.cz/"></link>
  </wpt>
  <wpt lat="49.8577604" lon="13.5223585">
    <ele>284.0</ele>
    <name>Planá</name>
    <desc>addr:city=Planá; name=Planá; tourism=camp_site;
    id=node/3017020639</desc>
  </wpt>
  <wpt lat="50.2045977" lon="12.8961874">
    <ele>632.0</ele>
    <name>Camp Varry</name>
    <desc>addr:city=Karlovy Vary; name=Camp Varry;
    tourism=camp_site; id=node/3046073181</desc>
  </wpt>
  <wpt lat="49.4848722" lon="16.5066264">
    <ele>447.0</ele>
    <name>node/3054422866</name>
    <desc>scout=yes; source=gps; tourism=camp_site;
    id=node/3054422866</desc>
  </wpt>
  <wpt lat="49.0679043" lon="14.9300085">
    <ele>458.0</ele>
    <name>Autokemp U Skalníků</name>
    <desc>cabins=yes; caravans=yes; motorhome=yes; name=Autokemp U
    Skalníků; phone=+420 702 387 490; shower=yes; tents=yes;
    toilets=yes; tourism=camp_site; website=https://uskalniku.cz/;
    id=node/3061348298</desc>
    <link href="https://uskalniku.cz/"></link>
  </wpt>
  <wpt lat="48.8726902" lon="17.6194523">
    <ele>433.0</ele>
    <name>node/3170458238</name>
    <desc>source=survey; tourism=camp_site;
    id=node/3170458238</desc>
  </wpt>
  <wpt lat="49.7194248" lon="17.7329476">
    <ele>351.0</ele>
    <name>u Maria skály</name>
    <desc>name=u Maria skály; tourism=camp_site;
    id=node/3197742093</desc>
  </wpt>
  <wpt lat="48.8703655" lon="16.7258147">
    <ele>173.0</ele>
    <name>Unicamp</name>
    <desc>fee=yes; name=Unicamp; note=Cheap camping site with
    shared bathrooms and places for tents. Quiet and nice place by
    the lake.; payment:cash=yes; tourism=camp_site;
    id=node/3250614370</desc>
  </wpt>
  <wpt lat="50.1171043" lon="14.4289246">
    <ele>189.0</ele>
    <name>Autocamp Hajek</name>
    <desc>addr:housenumber=377/146; addr:postcode=17100;
    addr:street=Trojská; email=info@camphajek.nl;
    internet_access=wlan; name=Autocamp Hajek; opening_hours=Mo-Su
    07:00-22:00; phone=+420233541352; tourism=camp_site;
    website=http://www.camphajek.cz; id=node/3346715589</desc>
    <link href="http://www.camphajek.cz"></link>
  </wpt>
  <wpt lat="50.1171146" lon="14.4274601">
    <ele>190.0</ele>
    <name>Camp Fremunt</name>
    <desc>name=Camp Fremunt; tourism=camp_site;
    id=node/3346715590</desc>
  </wpt>
  <wpt lat="50.1171782" lon="14.427157">
    <ele>190.0</ele>
    <name>Camp Herzog</name>
    <desc>name=Camp Herzog; tourism=camp_site;
    website=https://www.campherzog.cz/; id=node/3346715592</desc>
    <link href="https://www.campherzog.cz/"></link>
  </wpt>
  <wpt lat="49.9226039" lon="15.2430079">
    <ele>296.0</ele>
    <name>Autokemp Malešov</name>
    <desc>caravans=yes; name=Autokemp Malešov; tents=yes;
    tourism=camp_site; website=http://www.kemp-malesov.cz/;
    id=node/3362985472</desc>
    <link href="http://www.kemp-malesov.cz/"></link>
  </wpt>
  <wpt lat="50.0274946" lon="17.037062">
    <ele>388.0</ele>
    <name>Mlýn</name>
    <desc>name=Mlýn; tourism=camp_site; id=node/3417603540</desc>
  </wpt>
  <wpt lat="48.7462724" lon="14.1167582">
    <ele>746.0</ele>
    <name>Camping Olšina</name>
    <desc>caravans=yes; name=Camping Olšina; tents=yes;
    tourism=camp_site; id=way/490576454; ;
    id=node/3554894370</desc>
  </wpt>
  <wpt lat="50.4125157" lon="14.4531441">
    <ele>179.0</ele>
    <name>Camp SK Liběchov</name>
    <desc>addr:city=Liběchov; addr:country=CZ; addr:place=Liběchov;
    addr:postcode=27721; name=Camp SK Liběchov; phone=+420 777 061
    806; tourism=camp_site; website=http://www.sklibechov.cz/;
    id=node/3555673693</desc>
    <link href="http://www.sklibechov.cz/"></link>
  </wpt>
  <wpt lat="48.9923487" lon="16.5178304">
    <ele>179.0</ele>
    <name>node/3579677505</name>
    <desc>tourism=camp_site; id=node/3579677505</desc>
  </wpt>
  <wpt lat="49.484894" lon="16.7517935">
    <ele>667.0</ele>
    <name>node/3596899835</name>
    <desc>tourism=camp_site; id=node/3596899835</desc>
  </wpt>
  <wpt lat="50.7044575" lon="14.8447176">
    <ele>336.0</ele>
    <name>Rekreační centrum Hamr na Jezeře</name>
    <desc>addr:city=Hamr na Jezeře; addr:postcode=47128;
    addr:street=Školní; fee=yes; name=Rekreační centrum Hamr na
    Jezeře; operator=obechamr.cz; tourism=camp_site;
    id=node/3634594182</desc>
  </wpt>
  <wpt lat="49.7206042" lon="15.1807945">
    <ele>357.0</ele>
    <name>MEXICANA</name>
    <desc>capacity=30; drinking_water=yes; fee=yes; name=MEXICANA;
    phone=+420604472123; tents=yes; tourism=camp_site;
    id=node/3639277553</desc>
  </wpt>
  <wpt lat="49.4315092" lon="13.6880288">
    <ele>563.0</ele>
    <name>node/3667879449</name>
    <desc>tourism=camp_site; id=node/3667879449</desc>
  </wpt>
  <wpt lat="49.1903844" lon="14.4479834">
    <ele>370.0</ele>
    <name>Autokemp</name>
    <desc>name=Autokemp; tourism=camp_site;
    id=node/3675198627</desc>
  </wpt>
  <wpt lat="49.9667285" lon="13.7484228">
    <ele>252.0</ele>
    <name>node/3678439163</name>
    <desc>tourism=camp_site; id=node/3678439163</desc>
  </wpt>
  <wpt lat="50.0284335" lon="13.8629004">
    <ele>272.0</ele>
    <name>Na Aljašce</name>
    <desc>name=Na Aljašce; tourism=camp_site;
    id=node/3678465567</desc>
  </wpt>
  <wpt lat="50.0051272" lon="13.9722783">
    <ele>229.0</ele>
    <name>Tábořiště</name>
    <desc>addr:city=Zdice; caravans=no; drinking_water=yes;
    email=lode@gweb.cz; fee=no; name=Tábořiště; openfire=yes;
    operator=Alena Dvořáková; phone=+420604283702; source=survey;
    tents=yes; toilets=yes; tourism=camp_site;
    website=http://lode.gweb.cz/; id=node/3678492074</desc>
    <link href="http://lode.gweb.cz/"></link>
  </wpt>
  <wpt lat="50.4931442" lon="15.3251849">
    <ele>368.0</ele>
    <name>Český ráj</name>
    <desc>name=Český ráj; tourism=camp_site;
    id=node/3687950333</desc>
  </wpt>
  <wpt lat="50.4741109" lon="15.3127612">
    <ele>323.0</ele>
    <name>Chatový Tábor Jinolice</name>
    <desc>contact:email=jinol.kemp@seznam.cz; name=Chatový Tábor
    Jinolice; phone=+420 493 591 929; sorting_name=Jinolice;
    tourism=camp_site; website=https://www.kempy-ceskyraj.cz/home;
    id=node/3687950478</desc>
    <link href="https://www.kempy-ceskyraj.cz/home"></link>
  </wpt>
  <wpt lat="50.4745717" lon="15.3046233">
    <ele>340.0</ele>
    <name>Eden</name>
    <desc>name=Eden; tourism=camp_site; id=node/3687950479</desc>
  </wpt>
  <wpt lat="49.1862956" lon="14.2291527">
    <ele>432.0</ele>
    <name>Camp Lišák</name>
    <desc>backcountry=yes; name=Camp Lišák; tourism=camp_site;
    id=node/3692169424</desc>
  </wpt>
  <wpt lat="50.519404" lon="14.0671179">
    <ele>146.0</ele>
    <name>Marina Labe</name>
    <desc>caravans=yes; name=Marina Labe; tents=yes;
    tourism=camp_site; website=http://www.marinalabe.cz/#kemp;
    id=way/719277224; ; id=node/3694108513</desc>
    <link href="http://www.marinalabe.cz/#kemp"></link>
  </wpt>
  <wpt lat="48.900147" lon="16.5479306">
    <ele>172.0</ele>
    <name>Yacht Club</name>
    <desc>name=Yacht Club; tourism=camp_site;
    id=node/3702863923</desc>
  </wpt>
  <wpt lat="48.8078353" lon="16.4947075">
    <ele>179.0</ele>
    <name>Jáňův dvůr</name>
    <desc>capacity=40; caravans=yes; email=recepce@januvdvur.cz;
    name=Jáňův dvůr; phone=+420 732 644 269; ref:nap=15470;
    source=survey; tents=yes; toilets=yes; tourism=camp_site;
    website=https://www.januvdvur.cz/index.php/kemp/;
    id=node/3702871309</desc>
    <link href="https://www.januvdvur.cz/index.php/kemp/"></link>
  </wpt>
  <wpt lat="48.8863886" lon="14.365335">
    <ele>438.0</ele>
    <name>U Kelta</name>
    <desc>addr:city=Holubov; name=U Kelta; note=Great camping with
    Dorm ; tourism=camp_site; website=https://www.ukelta.cz/;
    id=node/3708173220</desc>
    <link href="https://www.ukelta.cz/"></link>
  </wpt>
  <wpt lat="49.5767691" lon="13.6997042">
    <ele>595.0</ele>
    <name>node/3713948106</name>
    <desc>tourism=camp_site; id=node/3713948106</desc>
  </wpt>
  <wpt lat="50.1219735" lon="12.5255485">
    <ele>420.0</ele>
    <name>u Piráta</name>
    <desc>addr:city=Kynšperk nad Ohří; addr:postcode=35751; name=u
    Piráta; operator=Pirrat.cz; tourism=camp_site;
    id=node/3730560871</desc>
  </wpt>
  <wpt lat="50.4125807" lon="14.454686">
    <ele>173.0</ele>
    <name>Camp Zahrada</name>
    <desc>addr:city=Liběchov; addr:country=CZ; addr:place=Liběchov;
    addr:postcode=27721; internet_access=wlan;
    internet_access:fee=no; name=Camp Zahrada; phone=+420 777 335
    379; tourism=camp_site; website=http://www.campzahrada.cz/;
    id=node/3742357724</desc>
    <link href="http://www.campzahrada.cz/"></link>
  </wpt>
  <wpt lat="48.7436824" lon="16.3801804">
    <ele>177.0</ele>
    <name>Tábořiště Hevlín</name>
    <desc>name=Tábořiště Hevlín; tourism=camp_site;
    website=http://pujcovna.vodaci.org/taboriste;
    id=node/3753949687</desc>
    <link href="http://pujcovna.vodaci.org/taboriste"></link>
  </wpt>
  <wpt lat="48.7678879" lon="16.2692085">
    <ele>186.0</ele>
    <name>Tábořiště Hrádek</name>
    <desc>name=Tábořiště Hrádek; tourism=camp_site;
    website=http://pujcovna.vodaci.org/taboriste;
    id=node/3753949688</desc>
    <link href="http://pujcovna.vodaci.org/taboriste"></link>
  </wpt>
  <wpt lat="48.8121167" lon="16.1721182">
    <ele>202.0</ele>
    <name>Tábořiště Krhovice</name>
    <desc>name=Tábořiště Krhovice; tourism=camp_site;
    website=http://pujcovna.vodaci.org/taboriste;
    id=node/3753949689</desc>
    <link href="http://pujcovna.vodaci.org/taboriste"></link>
  </wpt>
  <wpt lat="48.7375018" lon="14.5021733">
    <ele>532.0</ele>
    <name>node/3767841010</name>
    <desc>tourism=camp_site; id=node/3767841010</desc>
  </wpt>
  <wpt lat="50.0877704" lon="16.5631589">
    <ele>475.0</ele>
    <name>U Kapličky</name>
    <desc>name=U Kapličky; opening_hours=06:00-22:00, Nov-Apr off;
    tourism=camp_site; id=node/3769901981</desc>
  </wpt>
  <wpt lat="50.0795833" lon="16.5567577">
    <ele>508.0</ele>
    <name>Zátiší</name>
    <desc>name=Zátiší; tourism=camp_site; id=node/3769901982</desc>
  </wpt>
  <wpt lat="50.1093345" lon="13.2899203">
    <ele>546.0</ele>
    <name>OSADA Šárka</name>
    <desc>access=private; addr:city=Chyše;
    addr:conscriptionnumber=4; addr:housenumber=4;
    addr:place=Žďárek; addr:postcode=36453; addr:street=Žďárek;
    backcountry=yes; caravans=yes; charge=250 CZK /osoba noc;
    contact:facebook=www.osadasarka.cz; dog=leashed;
    drinking_water=yes; fee=yes; group_only=yes;
    internet_access=yes; internet_access:fee=no; name=OSADA Šárka;
    openfire=yes; opening_hours=duben - říjen; operator=Šárka
    Šímová; payment:cards=yes; payment:cash=yes;
    payment:mastercard=yes; payment:visa=yes; phone=+420 725 813
    526; picnic_table=yes; power_supply=yes;
    ref:ruian:addr=74209523; shower=yes; static_caravans=yes;
    tents=yes; toilets=yes; tourism=camp_site;
    website=https://www.osadasarka.cz/; id=node/3822543034</desc>
    <link href="https://www.osadasarka.cz/"></link>
  </wpt>
  <wpt lat="49.381129" lon="14.5365732">
    <ele>377.0</ele>
    <name>node/3857509263</name>
    <desc>tourism=camp_site; id=node/3857509263</desc>
  </wpt>
  <wpt lat="49.5294664" lon="14.1728265">
    <ele>361.0</ele>
    <name>kemp Radava</name>
    <desc>name=kemp Radava; tourism=camp_site;
    id=node/3857863657</desc>
  </wpt>
  <wpt lat="49.5246021" lon="14.160702">
    <ele>366.0</ele>
    <name>Kemp Velký výr</name>
    <desc>name=Kemp Velký výr; tourism=camp_site;
    id=node/3857864319</desc>
  </wpt>
  <wpt lat="48.7524451" lon="14.5464206">
    <ele>560.0</ele>
    <name>Tábor</name>
    <desc>internet_access=no; internet_access:fee=no; name=Tábor;
    sanitary_dump_station=no; tourism=camp_site; wheelchair=no;
    id=node/3994982372</desc>
  </wpt>
  <wpt lat="49.992004" lon="13.5860018">
    <ele>365.0</ele>
    <name>node/4008018108</name>
    <desc>phone=+420 734 362 317; tourism=camp_site;
    id=node/4008018108</desc>
  </wpt>
  <wpt lat="49.0240232" lon="13.4891965">
    <ele>991.0</ele>
    <name>Nouzové nocoviste</name>
    <desc>access=yes; backcountry=yes; capacity:caravans=0;
    capacity:tents=5; description:en="emergency overnight
    campsite"; maxstay=1 night; name=Nouzové nocoviste;
    opening_hours=18:00-09:00; power_supply=no; shower=no;
    toilets=yes; tourism=camp_site; id=node/4011963920</desc>
  </wpt>
  <wpt lat="49.0944374" lon="13.8135214">
    <ele>575.0</ele>
    <name>zámek Skalice</name>
    <desc>name=zámek Skalice; phone=+420 777 157 600;
    tourism=camp_site; website=http://www.zamekskalice.cz;
    id=node/4013796223</desc>
    <link href="http://www.zamekskalice.cz"></link>
  </wpt>
  <wpt lat="48.7256426" lon="14.5772701">
    <ele>591.0</ele>
    <name>Uragán</name>
    <desc>designation=Uragán letní tábor; name=Uragán; scout=yes;
    tourism=camp_site; id=node/4047512577</desc>
  </wpt>
  <wpt lat="48.7238905" lon="14.5830313">
    <ele>598.0</ele>
    <name>Ličov</name>
    <desc>designation=Ličov letní tábor; name=Ličov; scout=yes;
    tourism=camp_site; id=node/4047514296</desc>
  </wpt>
  <wpt lat="49.9394499" lon="13.6232401">
    <ele>265.0</ele>
    <name>U Potůčků</name>
    <desc>name=U Potůčků; tourism=camp_site;
    id=node/4076690594</desc>
  </wpt>
  <wpt lat="49.9597135" lon="13.6927664">
    <ele>263.0</ele>
    <name>U Varských</name>
    <desc>access=customers; caravans=yes; fee=yes; name=U Varských;
    operator=Ing. Igor Tjutčev; payment:cash=yes; tents=yes;
    tourism=camp_site; id=node/4076690595</desc>
  </wpt>
  <wpt lat="49.8217728" lon="13.5275038">
    <ele>288.0</ele>
    <name>U Přívozu</name>
    <desc>addr:city=Nadryby; name=U Přívozu; source=survey;
    tourism=camp_site; id=node/4088821921</desc>
  </wpt>
  <wpt lat="49.8142441" lon="13.5271023">
    <ele>300.0</ele>
    <name>Nadryby Valentovský mlýn</name>
    <desc>name=Nadryby Valentovský mlýn; source=survey;
    tourism=camp_site; id=node/4088821922</desc>
  </wpt>
  <wpt lat="49.9179166" lon="13.5409909">
    <ele>272.0</ele>
    <name>Reggae Kemp Liblín</name>
    <desc>alt_name=Na Střelnici; name=Reggae Kemp Liblín;
    source=survey; tourism=camp_site;
    website=https://reggaekemp.cz/; id=node/4121679289</desc>
    <link href="https://reggaekemp.cz/"></link>
  </wpt>
  <wpt lat="49.9240974" lon="13.5785137">
    <ele>270.0</ele>
    <name>Na Rybárně</name>
    <desc>name=Na Rybárně; source=survey; tourism=camp_site;
    id=node/4121693867</desc>
  </wpt>
  <wpt lat="50.7975272" lon="14.3488442">
    <ele>267.0</ele>
    <name>Camp Pod Lesem</name>
    <desc>name=Camp Pod Lesem; tourism=camp_site;
    id=node/4212976062</desc>
  </wpt>
  <wpt lat="50.799982" lon="14.3447243">
    <ele>262.0</ele>
    <name>Autokemp Aljaška</name>
    <desc>name=Autokemp Aljaška; tourism=camp_site;
    id=node/4212980718</desc>
  </wpt>
  <wpt lat="49.8428004" lon="15.6476335">
    <ele>519.0</ele>
    <name>Autokemp Seč Pláž</name>
    <desc>capacity=1500; fee=yes; internet_access=wlan;
    internet_access:fee=no; name=Autokemp Seč Pláž; operator=Město
    Seč; source=survey,uhul:ortofoto; surface=grass;
    tourism=camp_site; type=multipolygon; id=relation/7712032; ;
    addr:city=Seč; addr:housenumber=384; addr:postcode=53807;
    addr:street=Čs. pionýrů; caravans=yes; name=AK Seč Pláž,
    recepce; tents=yes; wheelchair=limited;
    id=node/4213164332</desc>
  </wpt>
  <wpt lat="49.1821495" lon="18.0417621">
    <ele>473.0</ele>
    <name>node/4227037310</name>
    <desc>tourism=camp_site; id=node/4227037310</desc>
  </wpt>
  <wpt lat="49.322611" lon="17.7936276">
    <ele>398.0</ele>
    <name>Patriot Camp Držková</name>
    <desc>name=Patriot Camp Držková; source=survey;
    tourism=camp_site; id=node/4248316696</desc>
  </wpt>
  <wpt lat="49.6712788" lon="17.1755925">
    <ele>229.0</ele>
    <name>Hynkov</name>
    <desc>name=Hynkov; operator=IN LIFE Roman Puček; phone=+420 605
    592 939; tourism=camp_site; id=node/4250178213</desc>
  </wpt>
  <wpt lat="50.8407795" lon="15.0714646">
    <ele>394.0</ele>
    <name>Ekokemp</name>
    <desc>name=Ekokemp; tourism=camp_site;
    website=http://www.ekocentrumoldrichov.cz;
    id=node/4259602867</desc>
    <link href="http://www.ekocentrumoldrichov.cz"></link>
  </wpt>
  <wpt lat="50.0958075" lon="13.7549449">
    <ele>322.0</ele>
    <name>Kemp Tyršovo koupaliště</name>
    <desc>email=spravce@tyrsak.cz; name=Kemp Tyršovo koupaliště;
    phone=+420 605 999 696; tourism=camp_site;
    website=https://www.tyrsak.cz/; id=node/4295088941</desc>
    <link href="https://www.tyrsak.cz/"></link>
  </wpt>
  <wpt lat="50.0122817" lon="16.5068249">
    <ele>426.0</ele>
    <name>LTD Ráj</name>
    <desc>name=LTD Ráj; tourism=camp_site;
    website=https://ltdraj.cz/; id=node/4297624815</desc>
    <link href="https://ltdraj.cz/"></link>
  </wpt>
  <wpt lat="49.6344585" lon="12.7555125">
    <ele>489.0</ele>
    <name>Rekreacni stredisko Sycherak</name>
    <desc>name=Rekreacni stredisko Sycherak; phone=+420 737 961
    100; tourism=camp_site; id=node/4303745091</desc>
  </wpt>
  <wpt lat="48.9814845" lon="14.9584919">
    <ele>476.0</ele>
    <name>Plecháč</name>
    <desc>caravans=yes; email=plechac@centrum.cz; name=Plecháč;
    phone=+420 603 884 227, +420 605 511 644; shower=yes;
    tents=yes; toilets=yes; tourism=camp_site;
    website=https://stankov.webnode.cz/; id=node/4303758789</desc>
    <link href="https://stankov.webnode.cz/"></link>
  </wpt>
  <wpt lat="49.0134224" lon="15.2512883">
    <ele>559.0</ele>
    <name>Cyklocamp</name>
    <desc>cabins=yes; caravans=yes; drinking_water=yes;
    email=info@cyklocamp.cz; fee=yes; internet_access=yes;
    internet_access:fee=no; mobile=+420 739 667 575; motorhome=yes;
    name=Cyklocamp; phone=+420 739 667 575; tents=yes;
    tourism=camp_site; website=https://cyklocamp.cz/;
    id=node/4303758889</desc>
    <link href="https://cyklocamp.cz/"></link>
  </wpt>
  <wpt lat="49.7516868" lon="18.4999698">
    <ele>285.0</ele>
    <name>Kemp Rostislav Rypien</name>
    <desc>name=Kemp Rostislav Rypien; phone=+420 604 239 075;
    tourism=camp_site; id=node/4303788492</desc>
  </wpt>
  <wpt lat="49.8665652" lon="18.2635193">
    <ele>205.0</ele>
    <name>Camp Landek Park</name>
    <desc>caravans=yes; motorhome=yes; name=Camp Landek Park;
    phone=+420 702 206 683,+420724539719; shower=yes; tents=yes;
    toilets=yes; tourism=camp_site;
    website=https://www.landekpark.cz/cs/ubytovani/a-30/;
    id=node/4303788493</desc>
    <link href="https://www.landekpark.cz/cs/ubytovani/a-30/">
    </link>
  </wpt>
  <wpt lat="49.1349589" lon="18.0450776">
    <ele>629.0</ele>
    <name>Rekreační středisko Královec</name>
    <desc>caravans=no; fixme=Nejste si jisti, zda zde můžete
    tábořit; name=Rekreační středisko Královec; note=Not sure you
    can camp here, site say only "The site is NOT suitable for the
    parking and stay of caravans"; phone=+420 605 744 674;
    tourism=camp_site; website=https://www.kralovec.cz/;
    id=node/4303804996</desc>
    <link href="https://www.kralovec.cz/"></link>
  </wpt>
  <wpt lat="49.428007" lon="18.2252384">
    <ele>470.0</ele>
    <name>Kemp Solanec</name>
    <desc>caravans=yes; name=Kemp Solanec; old_name=Turist Hotel
    Euro; phone=+420 602 758 989; shower=yes; tents=yes;
    toilets=yes; tourism=camp_site; id=node/4303831892</desc>
  </wpt>
  <wpt lat="50.0003776" lon="16.8956883">
    <ele>339.0</ele>
    <name>Kemp Aloisov</name>
    <desc>caravans=yes; name=Kemp Aloisov; phone=+420 606 176 989;
    shower=yes; tents=yes; toilets=yes; tourism=camp_site;
    id=node/4303831894</desc>
  </wpt>
  <wpt lat="49.3715091" lon="18.3074733">
    <ele>588.0</ele>
    <name>Areal Leskova</name>
    <desc>name=Areal Leskova; phone=+420 721 001 122;
    tourism=camp_site; id=node/4303970889</desc>
  </wpt>
  <wpt lat="49.5851775" lon="18.5317905">
    <ele>480.0</ele>
    <name>Rekreacni areal Moravka</name>
    <desc>name=Rekreacni areal Moravka; tourism=camp_site;
    id=node/4303999289</desc>
  </wpt>
  <wpt lat="50.4982273" lon="16.1847664">
    <ele>377.0</ele>
    <name>Autokemo Velky drevic</name>
    <desc>name=Autokemo Velky drevic; phone=+420 736629644;
    tourism=camp_site; id=node/4304064308</desc>
  </wpt>
  <wpt lat="50.2017434" lon="14.6558631">
    <ele>171.0</ele>
    <name>node/4312764089</name>
    <desc>tourism=camp_site; id=node/4312764089</desc>
  </wpt>
  <wpt lat="49.4228069" lon="16.7355186">
    <ele>513.0</ele>
    <name>Relaxa</name>
    <desc>internet_access=wlan; name=Relaxa; tourism=camp_site;
    wheelchair=limited; id=node/4317287239</desc>
  </wpt>
  <wpt lat="49.2567611" lon="13.5667705">
    <ele>453.0</ele>
    <name>Dobršín</name>
    <desc>internet_access=wlan; name=Dobršín; phone=+420724517143;
    tourism=camp_site; id=node/4326451489</desc>
  </wpt>
  <wpt lat="50.4011058" lon="16.9961068">
    <ele>295.0</ele>
    <name>Kemp a koupaliště Červenka</name>
    <desc>contact:email=info@ekocentrum-rychleby.cz; name=Kemp a
    koupaliště Červenka; phone=+420 604 261 942; tourism=camp_site;
    website=https://www.esterzalesi.eu/ubytovani-pobyty/kem;
    id=node/4327939521</desc>
    <link href="https://www.esterzalesi.eu/ubytovani-pobyty/kem">
    </link>
  </wpt>
  <wpt lat="48.8545376" lon="16.0405767">
    <ele>225.0</ele>
    <name>vodácký camp Stará Vodárna</name>
    <desc>name=vodácký camp Stará Vodárna; tourism=camp_site;
    id=node/4330487069</desc>
  </wpt>
  <wpt lat="50.5461653" lon="15.5910207">
    <ele>405.0</ele>
    <name>Bukovina buiten</name>
    <desc>addr:housenumber=78; addr:postcode=51401;
    addr:street=Bukovina u Čisté; email=floorengerrieke@gmail.com;
    internet_access=wlan; name=Bukovina buiten; note=Camp site is
    for sale; tourism=camp_site;
    website=https://bukovinabuiten.wordpress.com/;
    id=node/4338640093</desc>
    <link href="https://bukovinabuiten.wordpress.com/"></link>
  </wpt>
  <wpt lat="49.2854273" lon="13.1450638">
    <ele>466.0</ele>
    <name>Autokemp Nýrsko</name>
    <desc>caravans=yes; email=alena-hostalkova@seznam.cz;
    fax=+420376570437; fee=yes; internet_access=wlan;
    internet_access:fee=no; name=Autokemp Nýrsko;
    phone=+420607667765; power_supply=yes; tents=yes;
    tourism=camp_site; washing_machine=yes;
    website=https://www.autokemp-nyrsko.cz/; wheelchair=yes;
    id=node/4362067163</desc>
    <link href="https://www.autokemp-nyrsko.cz/"></link>
  </wpt>
  <wpt lat="49.4022704" lon="13.2664606">
    <ele>392.0</ele>
    <name>Autocamping Klatovy</name>
    <desc>name=Autocamping Klatovy; tourism=camp_site;
    id=node/4362082337</desc>
  </wpt>
  <wpt lat="48.9544969" lon="14.8777336">
    <ele>453.0</ele>
    <name>Chatky na jihu</name>
    <desc>name=Chatky na jihu; operator=Iva Neumannová;
    tourism=camp_site; id=node/4364380715</desc>
  </wpt>
  <wpt lat="49.9195525" lon="15.7806309">
    <ele>302.0</ele>
    <name>Nouzové nocoviště Podhůra</name>
    <desc>backcountry=yes; internet_access=wlan;
    internet_access:fee=no; name=Nouzové nocoviště Podhůra;
    operator=Městské lesy Chrudim, s. r. o.; tourism=camp_site;
    id=node/4374752491</desc>
  </wpt>
  <wpt lat="49.8700016" lon="14.8036762">
    <ele>282.0</ele>
    <name>Ostende</name>
    <desc>name=Ostende; tourism=camp_site;
    id=node/4381825706</desc>
  </wpt>
  <wpt lat="49.8842713" lon="14.7445868">
    <ele>300.0</ele>
    <name>Kemp u BOŘKA</name>
    <desc>name=Kemp u BOŘKA; tourism=camp_site;
    id=node/4381828739</desc>
  </wpt>
  <wpt lat="50.2913722" lon="14.3704985">
    <ele>170.0</ele>
    <name>node/4426319294</name>
    <desc>access=customers; addr:conscriptionnumber=169;
    addr:housenumber=169; addr:place=Vojkovice;
    addr:postcode=27744; charge=10 euro; fee=yes; payment:cash=yes;
    ref:ruian:addr=75365863; tourism=camp_site;
    id=node/4426319294</desc>
  </wpt>
  <wpt lat="49.0644292" lon="13.3952902">
    <ele>1306.0</ele>
    <name>Poledník</name>
    <desc>backcountry=yes; caravans=no; fee=no; name=Poledník;
    name:de=Notübernachtungsplatz; note:cs=Nouzové nocoviště;
    note:en=Emergency night shelter; openfire=no; surface=grass;
    tents=yes; tourism=camp_site;
    website=https://www.npsumava.cz/cz/1336/sekce/nouzova-nocoviste/;
    id=node/4434144982</desc>
    <link href="https://www.npsumava.cz/cz/1336/sekce/nouzova-nocoviste/">
    </link>
  </wpt>
  <wpt lat="48.7864763" lon="14.7708588">
    <ele>487.0</ele>
    <name>nouzové nocoviště</name>
    <desc>backcountry=yes; caravans=no; impromptu=yes; maxstay=1
    day; name=nouzové nocoviště; opening_hours=Mo-Su
    00:00-09:00,18:00-24:00; operator=město Nové Hrady;
    tourism=camp_site; id=node/4472738196</desc>
  </wpt>
  <wpt lat="48.9467258" lon="16.7337816">
    <ele>193.0</ele>
    <name>Camp &amp; Chatky Formanka</name>
    <desc>addr:city=Hustopeče; addr:housenumber=448/21;
    addr:postcode=69301; addr:street=Šafaříkova; name=Camp &amp;
    Chatky Formanka; source=survey,gps; tourism=camp_site;
    website=https://www.formanka.net/inpage/camp-chatky-formanka/;
    id=node/4478733366</desc>
    <link href="https://www.formanka.net/inpage/camp-chatky-formanka/">
    </link>
  </wpt>
  <wpt lat="49.4306829" lon="14.0830142">
    <ele>403.0</ele>
    <name>LDT Smetanova Lhota</name>
    <desc>name=LDT Smetanova Lhota; tourism=camp_site;
    id=node/4486101575</desc>
  </wpt>
  <wpt lat="49.0265499" lon="14.0770075">
    <ele>537.0</ele>
    <name>Dětský tábor</name>
    <desc>internet_access=no; name=Dětský tábor; smoking=no;
    tourism=camp_site; id=node/4731986628</desc>
  </wpt>
  <wpt lat="49.0161661" lon="14.0781543">
    <ele>572.0</ele>
    <name>Letní tábor 5. střediska Modřany</name>
    <desc>internet_access=no; name=Letní tábor 5. střediska
    Modřany; operator=Junák - český skaut, 5. středisko Modřany, z.
    s.; scout=yes; smoking=no; tourism=camp_site;
    website=http://skautizmodran.cz/; id=node/4731986640</desc>
    <link href="http://skautizmodran.cz/"></link>
  </wpt>
  <wpt lat="50.4900539" lon="13.9231887">
    <ele>521.0</ele>
    <name>node/4732448958</name>
    <desc>backcountry=yes; camp_site=basic; description=bivak;
    drinking_water=no; impromptu=yes; power_supply=no; shower=no;
    tents=no; toilets=no; tourism=camp_site;
    id=node/4732448958</desc>
  </wpt>
  <wpt lat="49.1575434" lon="14.7670088">
    <ele>413.0</ele>
    <name>Tábořiště Hamr</name>
    <desc>name=Tábořiště Hamr; tourism=camp_site;
    id=node/4778370582</desc>
  </wpt>
  <wpt lat="50.2440827" lon="12.9918104">
    <ele>360.0</ele>
    <name>Tábořiště Dubina</name>
    <desc>name=Tábořiště Dubina; tourism=camp_site;
    id=node/4838140224</desc>
  </wpt>
  <wpt lat="50.2658961" lon="13.0008554">
    <ele>414.0</ele>
    <name>Autocamp Ontario</name>
    <desc>name=Autocamp Ontario; tourism=camp_site;
    website=http://www.ontariocamp.cz; id=node/4838140225</desc>
    <link href="http://www.ontariocamp.cz"></link>
  </wpt>
  <wpt lat="50.3694904" lon="13.1094386">
    <ele>311.0</ele>
    <name>Tábořiště U Včelky</name>
    <desc>name=Tábořiště U Včelky; tourism=camp_site;
    id=node/4838140231</desc>
  </wpt>
  <wpt lat="50.117055" lon="14.4286544">
    <ele>189.0</ele>
    <name>Autocamp Petrakova</name>
    <desc>name=Autocamp Petrakova; tourism=camp_site;
    id=node/4866279474</desc>
  </wpt>
  <wpt lat="50.3786825" lon="14.2852693">
    <ele>276.0</ele>
    <name>Trampská osada Praotce Čecha</name>
    <desc>name=Trampská osada Praotce Čecha; source=survey;
    tourism=camp_site; id=node/4907077783</desc>
  </wpt>
  <wpt lat="49.8508517" lon="14.5920532">
    <ele>264.0</ele>
    <name>node/4911443842</name>
    <desc>tourism=camp_site; id=node/4911443842</desc>
  </wpt>
  <wpt lat="49.8530945" lon="14.5908573">
    <ele>273.0</ele>
    <name>node/4918415036</name>
    <desc>tourism=camp_site; id=node/4918415036</desc>
  </wpt>
  <wpt lat="49.8678407" lon="15.6222188">
    <ele>388.0</ele>
    <name>Autokemp Kraskov</name>
    <desc>name=Autokemp Kraskov; tourism=camp_site;
    website=https://www.kemp.cz/; id=node/4921983636</desc>
    <link href="https://www.kemp.cz/"></link>
  </wpt>
  <wpt lat="50.5942685" lon="14.6501386">
    <ele>276.0</ele>
    <name>Kemp Andrea</name>
    <desc>name=Kemp Andrea; tourism=camp_site; id=node/4973697629;
    ; name=Family kemp; id=way/686553845</desc>
  </wpt>
  <wpt lat="49.6401887" lon="15.0202961">
    <ele>439.0</ele>
    <name>Valcha</name>
    <desc>camp_site=basic; name=Valcha; tourism=camp_site;
    id=node/4990198056</desc>
  </wpt>
  <wpt lat="48.9926959" lon="16.1910657">
    <ele>273.0</ele>
    <name>https://www.trsteniceumorkrumlova.cz/kemp</name>
    <desc>addr:postcode=67171; check_date=2025-06-21;
    description=https://www.trsteniceumorkrumlova.cz/kemp;
    internet_access=wlan; internet_access:fee=yes;
    internet_access:ssid=KEMP; operator=Trstěnice, Trstěnice
    122,671 71 Trstěnice; source=survey; tourism=camp_site;
    website=https://www.trsteniceumorkrumlova.cz/kemp;
    wheelchair=yes; id=node/4994900921</desc>
    <link href="https://www.trsteniceumorkrumlova.cz/kemp"></link>
  </wpt>
  <wpt lat="50.7836418" lon="15.0434415">
    <ele>368.0</ele>
    <name>Autokemp Liberec</name>
    <desc>caravans=yes; internet_access=yes;
    internet_access:fee=no; name=Autokemp Liberec; tents=yes;
    tourism=camp_site; url=https://autokempliberec.cz/;
    id=node/4995321491</desc>
    <link href="https://autokempliberec.cz/"></link>
  </wpt>
  <wpt lat="49.0327244" lon="14.4013496">
    <ele>397.0</ele>
    <name>Autokemp Hoch</name>
    <desc>name=Autokemp Hoch; tourism=camp_site;
    id=node/4996954865</desc>
  </wpt>
  <wpt lat="49.7265733" lon="18.4558465">
    <ele>297.0</ele>
    <name>Zdeněk Hrabec</name>
    <desc>camp_site=basic; name=Zdeněk Hrabec; tourism=camp_site;
    id=node/5005680069</desc>
  </wpt>
  <wpt lat="49.8032641" lon="16.4675464">
    <ele>456.0</ele>
    <name>kemp Opatovec</name>
    <desc>name=kemp Opatovec; name:en=camping Opatovec;
    tourism=camp_site; website=http://kemp-Opatovec.cz;
    id=node/5008013523</desc>
    <link href="http://kemp-Opatovec.cz"></link>
  </wpt>
  <wpt lat="48.8095753" lon="16.0095243">
    <ele>286.0</ele>
    <name>Camp Havraníky</name>
    <desc>cabins=yes; capacity=45; caravans=yes;
    email=info@camp-havraniky.cz; motorhome=yes; name=Camp
    Havraníky; phone=+420 776 553 185; ref:nap=23852; shower=yes;
    tents=yes; toilets=yes; tourism=camp_site;
    website=https://camp-havraniky.cz/; id=node/5015370560</desc>
    <link href="https://camp-havraniky.cz/"></link>
  </wpt>
  <wpt lat="49.4330926" lon="13.9164375">
    <ele>439.0</ele>
    <name>node/5025050121</name>
    <desc>tourism=camp_site; id=node/5025050121</desc>
  </wpt>
  <wpt lat="48.9128456" lon="15.690719">
    <ele>354.0</ele>
    <name>Rekreační středisko Dřevotvárka</name>
    <desc>addr:housenumber=247; addr:postcode=67106;
    addr:street=Podhradí nad Dyjí; email=drevotvarka@email.cz;
    name=Rekreační středisko Dřevotvárka; phone=+420728514906;
    tourism=camp_site; website=https://drevotvarka.cz/;
    id=node/5057911921</desc>
    <link href="https://drevotvarka.cz/"></link>
  </wpt>
  <wpt lat="48.8019753" lon="14.5634642">
    <ele>527.0</ele>
    <name>Dětský tábor</name>
    <desc>name=Dětský tábor; tourism=camp_site;
    id=node/5158323796</desc>
  </wpt>
  <wpt lat="50.4606622" lon="13.0850548">
    <ele>926.0</ele>
    <name>node/5180993436</name>
    <desc>fixme=what kind of camp site?; tourism=camp_site;
    id=node/5180993436</desc>
  </wpt>
  <wpt lat="50.0930725" lon="16.4454075">
    <ele>397.0</ele>
    <name>Taboriste pod stan pro vodaky</name>
    <desc>internet_access=no; name=Taboriste pod stan pro vodaky;
    name:cs=Taboriste pod stan pro vodaky; opening_hours=24/7;
    tourism=camp_site; website=http://emobile.cz; wheelchair=no;
    id=node/5268404721</desc>
    <link href="http://emobile.cz"></link>
  </wpt>
  <wpt lat="50.4803" lon="14.5946188">
    <ele>330.0</ele>
    <name>Osada Bílé skály</name>
    <desc>impromptu=yes; name=Osada Bílé skály; source=survey;
    tourism=camp_site; id=node/5315529589</desc>
  </wpt>
  <wpt lat="50.0190665" lon="17.2926494">
    <ele>693.0</ele>
    <name>Tábořiště Karlov</name>
    <desc>name=Tábořiště Karlov; tourism=camp_site;
    id=node/5413835940</desc>
  </wpt>
  <wpt lat="49.7038807" lon="17.0692255">
    <ele>232.0</ele>
    <name>in-life kemp</name>
    <desc>dog=yes; kitchen=yes; name=in-life kemp;
    operator=http://www.in-life.cz; power_supply=yes; shower=hot;
    tents=yes; toilets=yes; tourism=camp_site;
    id=node/5505590694</desc>
  </wpt>
  <wpt lat="49.839535" lon="16.5591265">
    <ele>476.0</ele>
    <name>node/5547245512</name>
    <desc>tourism=camp_site; id=node/5547245512</desc>
  </wpt>
  <wpt lat="50.1235353" lon="15.1587963">
    <ele>200.0</ele>
    <name>node/5577627035</name>
    <desc>tourism=camp_site; id=node/5577627035</desc>
  </wpt>
  <wpt lat="50.9993617" lon="14.4668698">
    <ele>349.0</ele>
    <name>Regenboog</name>
    <desc>caravans=yes; name=Regenboog; tents=yes;
    tourism=camp_site; id=node/5592973800</desc>
  </wpt>