<?xml version="1.0" encoding="utf-8"?>
<gpx xmlns="http://www.topografix.com/GPX/1/1"
xmlns:xsi="http://www.w3.org/2001/XMLSchema-instance"
xsi:schemaLocation="http://www.topografix.com/GPX/1/1 http://www.topografix.com/GPX/1/1/gpx.xsd"
version="1.1" creator="togpx">
  <metadata>
    <copyright>
      <license>"osm3s": { "timestamp_osm_base":
      "2025-08-01T09:45:32Z", "timestamp_areas_base":
      "2025-08-01T04:12:55Z", "copyright": "The data included in
      this document is from www.openstreetmap.org. The data is made
      available under ODbL." } // SRTM: { Elevation data missing in
      OSM was added by the NASA Shuttle Radar Topography Mission as
      public release version, if available there. } // { Check for
      latest version of this file on:
      https://github.com/GpxFeed/campgrounds }</license>
    </copyright>
  </metadata>
  <wpt lat="58.8507267" lon="26.9128242">
    <ele>40.0</ele>
    <name>Circle K</name>
    <desc>amenity=fuel; brand=Circle K; brand:wikidata=Q3268010;
    brand:wikipedia=en:Circle K; name=Circle K;
    id=node/30564959</desc>
  </wpt>
  <wpt lat="59.3429572" lon="24.6165947">
    <ele>45.0</ele>
    <name>Alexela Laagri automaattankla</name>
    <desc>amenity=fuel; fuel:adblue=yes; fuel:diesel=yes;
    fuel:lpg=yes; fuel:octane_95=yes; fuel:octane_98=yes;
    name=Alexela Laagri automaattankla; opening_hours=24/7;
    operator=Alexela; id=node/66775473</desc>
  </wpt>
  <wpt lat="59.3544873" lon="24.6285074">
    <ele>42.0</ele>
    <name>Circle K Laagri</name>
    <desc>amenity=fuel; brand=Circle K; brand:wikidata=Q3268010;
    check_date=2024-03-30; fuel:diesel=yes; fuel:lpg=yes;
    fuel:octane_95=yes; fuel:octane_98=yes; name=Circle K Laagri;
    operator=Circle K; id=node/73800082</desc>
  </wpt>
  <wpt lat="58.2667408" lon="22.5104944">
    <ele>7.0</ele>
    <name>Roonimäe Tankla</name>
    <desc>amenity=fuel; name=Roonimäe Tankla;
    id=node/251121742</desc>
  </wpt>
  <wpt lat="58.2647181" lon="22.5131621">
    <ele>6.0</ele>
    <name>Olerex</name>
    <desc>addr:city=Kuressaare; addr:country=EE;
    addr:housenumber=84; addr:postcode=93815; addr:street=Tallinna;
    amenity=fuel; brand=Olerex; brand:wikidata=Q16931205;
    fuel:biodiesel=yes; fuel:diesel=yes; fuel:lpg=yes;
    fuel:octane_95=yes; fuel:octane_98=yes;
    fuel:taxfree_diesel=yes; name=Olerex; opening_hours=24/7;
    self_service=yes; id=node/251121862</desc>
  </wpt>
  <wpt lat="58.2632251" lon="22.4807832">
    <ele>4.0</ele>
    <name>Saare Kütus</name>
    <desc>amenity=fuel; name=Saare Kütus; id=node/251240321</desc>
  </wpt>
  <wpt lat="58.9938702" lon="24.0566386">
    <ele>46.0</ele>
    <name>Krooning Risti tankla</name>
    <desc>alternate=Risti tankla; amenity=fuel; brand=Krooning;
    fuel:diesel=yes; fuel:octane_95=yes; name=Krooning Risti
    tankla; opening_hours=24/7; self_service=yes;
    id=node/251974273</desc>
  </wpt>
  <wpt lat="58.3649142" lon="25.5621787">
    <ele>73.0</ele>
    <name>Olerex</name>
    <desc>addr:city=Viljandi; addr:housenumber=9;
    addr:postcode=71020; addr:street=Metsküla tee; amenity=fuel;
    brand=Olerex; brand:wikidata=Q16931205; brand:wikipedia=et:AS
    Olerex; fuel:diesel=yes; fuel:octane_95=yes;
    fuel:octane_98=yes; name=Olerex; self_service=yes;
    id=node/256300171</desc>
  </wpt>
  <wpt lat="58.9183539" lon="25.610784">
    <ele>68.0</ele>
    <name>Circle K Mäo</name>
    <desc>addr:city=Mäo küla; addr:housename=Ristmiku;
    addr:postcode=72751; amenity=fuel; brand=Circle K;
    brand:wikidata=Q3268010; brand:wikipedia=en:Circle K;
    fuel:diesel=yes; fuel:electricity=yes; fuel:octane_95=yes;
    fuel:octane_98=yes; name=Circle K Mäo; operator=Circle K;
    self_service=no; id=node/257893760</desc>
  </wpt>
  <wpt lat="58.3720904" lon="25.5635668">
    <ele>75.0</ele>
    <name>Olerex</name>
    <desc>amenity=fuel; brand=Olerex; brand:wikidata=Q16931205;
    brand:wikipedia=et:AS Olerex; name=Olerex;
    id=node/268020130</desc>
  </wpt>
  <wpt lat="58.5289877" lon="25.4639459">
    <ele>74.0</ele>
    <name>Alexela</name>
    <desc>amenity=fuel; name=Alexela; id=node/270089708</desc>
  </wpt>
  <wpt lat="59.046699" lon="25.1157856">
    <ele>83.0</ele>
    <name>Kuimetsa tankla</name>
    <desc>amenity=fuel; name=Kuimetsa tankla; operator=HEPA;
    id=node/281548129</desc>
  </wpt>
  <wpt lat="57.8421567" lon="27.0069521">
    <ele>74.0</ele>
    <name>Circle K</name>
    <desc>amenity=fuel; brand=Circle K; brand:wikidata=Q3268010;
    brand:wikipedia=en:Circle K; check_date=2025-01-13; name=Circle
    K; id=node/281717168</desc>
  </wpt>
  <wpt lat="58.0837201" lon="26.0459052">
    <ele>49.0</ele>
    <name>Pikasilla tankla</name>
    <desc>amenity=fuel; name=Pikasilla tankla;
    id=node/289012254</desc>
  </wpt>
  <wpt lat="58.4387431" lon="25.450385">
    <ele>91.0</ele>
    <name>Vastemõisa tankla</name>
    <desc>amenity=fuel; name=Vastemõisa tankla;
    id=node/291698837</desc>
  </wpt>
  <wpt lat="59.3105387" lon="24.4372768">
    <ele>31.0</ele>
    <name>Alexela</name>
    <desc>addr:city=Keila; addr:housenumber=2C;
    addr:postcode=76603; addr:street=Ülejõe tee; amenity=fuel;
    brand=Alexela; check_date=2023-05-13; fuel:adblue=yes;
    fuel:cng=yes; fuel:diesel=yes; fuel:lpg=yes;
    fuel:octane_95=yes; fuel:octane_98=yes; name=Alexela;
    opening_hours=24/7; operator=Alexela; id=node/305035205</desc>
  </wpt>
  <wpt lat="58.1090747" lon="25.5674963">
    <ele>95.0</ele>
    <name>node/322789870</name>
    <desc>amenity=fuel; id=node/322789870</desc>
  </wpt>
  <wpt lat="58.3282986" lon="26.6423132">
    <ele>63.0</ele>
    <name>Olerex</name>
    <desc>amenity=fuel; compressed_air=yes; name=Olerex;
    id=node/323377885</desc>
  </wpt>
  <wpt lat="59.4147655" lon="24.7384916">
    <ele>30.0</ele>
    <name>Olerex</name>
    <desc>addr:housenumber=6; addr:street=Tondi; amenity=fuel;
    brand=Olerex; brand:wikidata=Q16931205; check_date=2025-06-05;
    compressed_air=no; fuel:diesel=yes; fuel:e10=yes;
    fuel:octane_95=yes; fuel:octane_98=yes; name=Olerex;
    opening_hours=24/7; operator=Olerex; payment:cash=yes;
    payment:visa=yes; wheelchair=yes; id=node/390824711</desc>
  </wpt>
  <wpt lat="58.6636191" lon="25.9690447">
    <ele>68.0</ele>
    <name>Krooning</name>
    <desc>amenity=fuel; name=Krooning; phone=+372 7752716;
    id=node/392731331</desc>
  </wpt>
  <wpt lat="58.6636858" lon="25.9891596">
    <ele>63.0</ele>
    <name>Olerex</name>
    <desc>amenity=fuel; check_date=2024-01-06; name=Olerex;
    opening_hours=24/7; payment:cash=yes; payment:contactless=yes;
    payment:credit_cards=yes; payment:debit_cards=yes;
    wheelchair=yes; id=node/393824055</desc>
  </wpt>
  <wpt lat="59.1113791" lon="26.2371608">
    <ele>113.0</ele>
    <name>Kaarma</name>
    <desc>amenity=fuel; name=Kaarma; id=node/401803873</desc>
  </wpt>
  <wpt lat="58.4712635" lon="26.3603005">
    <ele>38.0</ele>
    <name>Alexela</name>
    <desc>amenity=fuel; brand=Alexela; brand:wikidata=Q20529782;
    check_date=2024-01-06; name=Alexela; opening_hours=Mo-Su,PH
    00:00-22:59; payment:cash=yes; payment:contactless=yes;
    payment:credit_cards=yes; payment:debit_cards=yes;
    wheelchair=yes; id=node/401913487</desc>
  </wpt>
  <wpt lat="58.6631453" lon="25.9908187">
    <ele>64.0</ele>
    <name>Alexela</name>
    <desc>amenity=fuel; brand=Alexela; brand:wikidata=Q20529782;
    check_date=2024-05-10; fuel:adblue=yes; fuel:diesel=yes;
    fuel:lpg=yes; fuel:octane_95=yes; fuel:octane_98=yes;
    name=Alexela; operator=Alexela; self_service=yes;
    id=node/401913533</desc>
  </wpt>
  <wpt lat="58.908724" lon="25.6186676">
    <ele>69.0</ele>
    <name>Premium 7</name>
    <desc>addr:city=Mäo küla; addr:village=Mäo; amenity=fuel;
    fuel:diesel=yes; fuel:octane_95=yes; name=Premium 7;
    operator=Sevenoil EST OÜ; self_service=yes;
    id=node/401950049</desc>
  </wpt>
  <wpt lat="58.0647941" lon="26.5105089">
    <ele>126.0</ele>
    <name>Techne tankla</name>
    <desc>amenity=fuel; name=Techne tankla; opening_hours=Mo-Su
    07:30-19:00; id=node/415514669</desc>
  </wpt>
  <wpt lat="59.3804034" lon="28.1773322">
    <ele>30.0</ele>
    <name>Circle K</name>
    <desc>amenity=fuel; brand=Circle K; brand:wikidata=Q3268010;
    brand:wikipedia=en:Circle K; fuel:diesel=yes;
    fuel:octane_95=yes; fuel:octane_98=yes; name=Circle K;
    id=node/417980923</desc>
  </wpt>
  <wpt lat="58.7389718" lon="26.3667389">
    <ele>81.0</ele>
    <name>Eksar Transoil Masti tankla</name>
    <desc>addr:city=Õuna küla; addr:housename=Eksari; amenity=fuel;
    fuel:diesel=yes; fuel:octane_95=yes; fuel:octane_98=yes;
    fuel:taxfree_diesel=yes; name=Eksar Transoil Masti tankla;
    phone=+372 7762665;
    website=https://eksar.ee/eksar-transoil-tanklad/;
    id=node/418075552</desc>
    <link href="https://eksar.ee/eksar-transoil-tanklad/"></link>
  </wpt>
  <wpt lat="59.0329726" lon="25.8905307">
    <ele>102.0</ele>
    <name>Olerex</name>
    <desc>amenity=fuel; brand=Olerex; brand:wikidata=Q16931205;
    brand:wikipedia=et:AS Olerex; name=Olerex; operator=Olerex;
    id=node/517943625</desc>
  </wpt>
  <wpt lat="59.540088" lon="25.7340125">
    <ele>32.0</ele>
    <name>Kotka Rist</name>
    <desc>amenity=fuel; name=Kotka Rist; opening_hours=24/7;
    shop=kiosk; id=node/579788463</desc>
  </wpt>
  <wpt lat="59.3527723" lon="27.4107373">
    <ele>65.0</ele>
    <name>Olerex</name>
    <desc>amenity=fuel; brand=Olerex; brand:wikidata=Q16931205;
    brand:wikipedia=et:AS Olerex; compressed_air=yes; name=Olerex;
    self_service=yes; id=node/604943577</desc>
  </wpt>
  <wpt lat="59.339417" lon="24.105153">
    <ele>20.0</ele>
    <name>Alexela</name>
    <desc>addr:city=Paldiski; addr:housenumber=20;
    addr:street=Tallinna mnt; amenity=fuel; amenity_1=cafe;
    brand=Alexela; brand:wikidata=Q20529782; compressed_air=yes;
    fuel:HGV_diesel=yes; fuel:diesel=yes; fuel:lpg=yes;
    fuel:octane_95=yes; fuel:octane_98=yes; name=Alexela;
    opening_hours=24/7; operator=Alexela; shop=car_parts;
    id=node/660788044</desc>
  </wpt>
  <wpt lat="59.4572582" lon="25.9963595">
    <ele>91.0</ele>
    <name>Eksar-Transoil</name>
    <desc>amenity=fuel; opening_hours=24/7;
    operator=Eksar-Transoil; id=node/668959097</desc>
  </wpt>
  <wpt lat="59.4128113" lon="24.9197679">
    <ele>45.0</ele>
    <name>Krooning Tankla</name>
    <desc>amenity=fuel; brand=Krooning; compressed_air=no;
    fuel:diesel=yes; fuel:octane_95=yes; fuel:octane_98=yes;
    name=Krooning Tankla; opening_hours=24/7; self_service=yes;
    id=node/683386975</desc>
  </wpt>
  <wpt lat="59.3583469" lon="24.6351743">
    <ele>46.0</ele>
    <name>Olerex</name>
    <desc>amenity=fuel; brand=Olerex; brand:wikidata=Q16931205;
    fuel:diesel=yes; fuel:octane_95=yes; fuel:octane_98=yes;
    name=Olerex; opening_hours=24/7; operator=Olerex;
    self_service=yes; id=node/722600747</desc>
  </wpt>
  <wpt lat="59.4282509" lon="24.8322266">
    <ele>48.0</ele>
    <name>Alexela Vesse</name>
    <desc>addr:housenumber=4; addr:street=Vesse; amenity=fuel;
    brand=Alexela; brand:wikidata=Q20529782; compressed_air=yes;
    fuel:diesel=yes; fuel:lpg=yes; fuel:octane_95=yes;
    fuel:octane_98=yes; name=Alexela Vesse; opening_hours=24/7;
    operator=Alexela Oil AS; self_service=yes;
    website=https://www.alexela.ee/; id=node/727752139</desc>
    <link href="https://www.alexela.ee/"></link>
  </wpt>
  <wpt lat="59.4023741" lon="27.297749">
    <ele>74.0</ele>
    <name>Alexela</name>
    <desc>amenity=fuel; brand=Alexela; brand:wikidata=Q20529782;
    brand:wikipedia=et:Alexela Oil; internet_access=wlan;
    name=Alexela; name:et=Alexela; id=node/736062609</desc>
  </wpt>
  <wpt lat="59.432395" lon="24.8231999">
    <ele>51.0</ele>
    <name>Olerex Punane tankla</name>
    <desc>addr:housenumber=16a; addr:street=Punane; amenity=fuel;
    brand=Olerex; brand:wikidata=Q16931205; compressed_air=yes;
    name=Olerex Punane tankla; opening_hours=24/7; operator=Olerex
    AS; phone=+372 53313764; website=https://www.olerex.ee/;
    id=node/748104418</desc>
    <link href="https://www.olerex.ee/"></link>
  </wpt>
  <wpt lat="59.4599008" lon="24.7023388">
    <ele>10.0</ele>
    <name>Paljassaare Tankla</name>
    <desc>amenity=fuel; name=Paljassaare Tankla;
    id=node/771604219</desc>
  </wpt>
  <wpt lat="59.4004662" lon="27.3366838">
    <ele>71.0</ele>
    <name>Olerex</name>
    <desc>addr:street=Paate; amenity=fuel; brand=Olerex;
    brand:wikidata=Q16931205; brand:wikipedia=et:AS Olerex;
    fuel:diesel=yes; fuel:octane_95=yes; fuel:octane_98=yes;
    name=Olerex; opening_hours=24/7; operator=Olerex;
    id=node/787964787</desc>
  </wpt>
  <wpt lat="58.8530559" lon="26.9500426">
    <ele>36.0</ele>
    <name>Olerex</name>
    <desc>amenity=fuel; brand=Olerex; brand:wikidata=Q16931205;
    name=Olerex; id=node/796778227</desc>
  </wpt>
  <wpt lat="57.8149907" lon="27.02976">
    <ele>89.0</ele>
    <name>Favora Kose automaattankla</name>
    <desc>amenity=fuel; brand=Favora; fixme=Please check status at
    site - this brand has been merged; name=Favora Kose
    automaattankla; id=node/870119678</desc>
  </wpt>
  <wpt lat="59.427653" lon="24.6287571">
    <ele>18.0</ele>
    <name>Circle K automaat</name>
    <desc>amenity=fuel; brand=Circle K; check_date=2024-05-24;
    name=Circle K automaat; opening_hours=24/7; shop=no;
    id=node/885852284</desc>
  </wpt>
  <wpt lat="58.8819831" lon="25.5380049">
    <ele>71.0</ele>
    <name>Circle K</name>
    <desc>addr:city=Paide; addr:country=EE; addr:housenumber=112;
    addr:postcode=72715; addr:street=Pärnu; amenity=fuel;
    brand=Circle K; brand:wikidata=Q3268010;
    brand:wikipedia=en:Circle K; fuel:diesel=yes;
    fuel:octane_95=yes; fuel:octane_98=yes; full_service=no;
    name=Circle K; opening_hours=24/7; operator=Circle K;
    self_service=yes; id=node/900954214</desc>
  </wpt>
  <wpt lat="58.2378934" lon="26.418655">
    <ele>45.0</ele>
    <name>Alxela</name>
    <desc>amenity=fuel; fixme=Please verify this POI at site. It
    would be very unusual if Alexela has a fuel station here.;
    fuel:diesel=yes; fuel:octane_95=yes; fuel:octane_98=yes;
    opening_hours=24/7; operator=Alxela; shop=kiosk;
    id=node/908650068</desc>
  </wpt>
  <wpt lat="58.5570181" lon="23.069664">
    <ele>6.0</ele>
    <name>Orissaare Tankla</name>
    <desc>amenity=fuel; brand=Saare Kütus; fuel:HGV_diesel=yes;
    fuel:diesel=yes; fuel:octane_95=yes; fuel:octane_98=yes;
    name=Orissaare Tankla; opening_hours=Mo-Su 06:30-23:30;
    operator=Saare Kütus; phone=+372 4545637; shop=yes;
    website=https://www.saarekytus.ee/tanklad/orissaare/;
    id=node/1081173421</desc>
    <link href="https://www.saarekytus.ee/tanklad/orissaare/">
    </link>
  </wpt>
  <wpt lat="59.3202897" lon="24.399353">
    <ele>40.0</ele>
    <name>Neste</name>
    <desc>addr:city=Keila; addr:housenumber=1b;
    addr:postcode=76606; addr:street=Keki; alt_name=Neste Keila
    D-jaam; amenity=fuel; brand=Neste; brand:wikidata=Q616376;
    brand:wikipedia=en:Neste; email=neste.eesti@neste.com;
    fuel:adblue=yes; fuel:diesel=yes; fuel:others=no;
    man_made=fuel_pump; name=Neste; operator=Neste Eesti AS;
    phone=+372 630 4165; self_service=yes;
    website=https://www.neste.ee; id=node/1177392069</desc>
    <link href="https://www.neste.ee"></link>
  </wpt>
  <wpt lat="59.4165634" lon="24.6923041">
    <ele>13.0</ele>
    <name>Alexela</name>
    <desc>amenity=fuel; brand=Alexela; brand:wikidata=Q20529782;
    compressed_air=no; name=Alexela; opening_hours=24/7;
    operator=Alexela; website=https://www.alexela.ee/;
    wheelchair=yes; id=node/1351522786</desc>
    <link href="https://www.alexela.ee/"></link>
  </wpt>
  <wpt lat="59.3291866" lon="24.4742761">
    <ele>36.0</ele>
    <name>node/1638082794</name>
    <desc>amenity=fuel; brand=Krooning; id=node/1638082794</desc>
  </wpt>
  <wpt lat="59.4327402" lon="24.7145273">
    <ele>12.0</ele>
    <name>Sõle CircleK tankla</name>
    <desc>addr:housenumber=44; addr:street=Paldiski mnt;
    amenity=fuel; brand=Circle K; brand:wikidata=Q3268010;
    brand:wikipedia=en:Circle K; check_date=2025-03-16;
    compressed_air=yes; internet_access=wlan; name=Sõle CircleK
    tankla; opening_hours=24/7; operator=CircleK;
    website=https://www.circlek.ee/et_EE; wheelchair=yes;
    id=node/1684936173</desc>
    <link href="https://www.circlek.ee/et_EE"></link>
  </wpt>
  <wpt lat="58.9944481" lon="24.7972795">
    <ele>65.0</ele>
    <name>Olerex Rapla</name>
    <desc>addr:city=Rapla; addr:country=EE; addr:housenumber=9;
    addr:street=Kastani; amenity=fuel; brand=Olerex;
    compressed_air=yes; fuel:1_25=no; fuel:1_50=no;
    fuel:GTL_diesel=no; fuel:HGV_diesel=no; fuel:biodiesel=no;
    fuel:biogas=no; fuel:cng=no; fuel:diesel=yes; fuel:e10=no;
    fuel:e85=no; fuel:electricity=no; fuel:lpg=no;
    fuel:octane_100=no; fuel:octane_91=no; fuel:octane_95=yes;
    fuel:octane_98=yes; name=Olerex Rapla; opening_hours=Mo-Su
    00:00-24:00; operator=Olerex AS; phone=+372 489 4002;
    id=node/1734035728</desc>
  </wpt>
  <wpt lat="58.1074447" lon="27.4592947">
    <ele>36.0</ele>
    <name>Premium-7 Räpina tankla</name>
    <desc>addr:city=Räpina; addr:housenumber=25c;
    addr:postcode=64506; addr:street=Meeksi mnt; amenity=fuel;
    brand=Premium 7; fuel:diesel=yes; fuel:octane_95=yes;
    fuel:octane_98=yes; name=Premium-7 Räpina tankla;
    opening_hours=Mo-Su 07:00-22:00; operator=Sevenoil EST OÜ;
    self_service=no;
    website=https://www.premium7.ee/premium-teenindusjaamad-rapina-tankla;
    id=node/1859942485</desc>
    <link href="https://www.premium7.ee/premium-teenindusjaamad-rapina-tankla">
    </link>
  </wpt>
  <wpt lat="57.8326924" lon="27.0343423">
    <ele>77.0</ele>
    <name>Circle K</name>
    <desc>amenity=fuel; brand=Premium-7; check_date=2025-01-13;
    fuel:diesel=yes; fuel:octane_95=yes; fuel:octane_98=yes;
    name=Circle K; opening_hours=06:00-23:00; operator=Sevenoil Est
    OÜ; shop=yes; id=node/1893895155</desc>
  </wpt>
  <wpt lat="57.8440089" lon="27.0206207">
    <ele>80.0</ele>
    <name>Olerex</name>
    <desc>amenity=fuel; brand=Olerex; brand:wikidata=Q16931205;
    brand:wikipedia=et:AS Olerex; compressed_air=yes;
    fuel:diesel=yes; fuel:octane_95=yes; name=Olerex;
    opening_hours=24/7; operator=Olerex AS; wheelchair=no;
    id=node/1893909606</desc>
  </wpt>
  <wpt lat="58.3583203" lon="25.5649114">
    <ele>75.0</ele>
    <name>Airok gaasitankla</name>
    <desc>addr:city=Viljandi; addr:housenumber=10;
    addr:postcode=71020; addr:street=Planeedi; amenity=fuel;
    fuel:cng=no; fuel:lpg=yes; name=Airok gaasitankla;
    self_service=yes; id=node/2057397960</desc>
  </wpt>
  <wpt lat="58.0062135" lon="25.9154286">
    <ele>62.0</ele>
    <name>Beetela</name>
    <desc>amenity=fuel; name=Beetela; id=node/2358604762</desc>
  </wpt>
  <wpt lat="59.4514091" lon="24.8541606">
    <ele>46.0</ele>
    <name>Olerex Tondiraba tankla</name>
    <desc>addr:housenumber=1; addr:street=Tondiraba; amenity=fuel;
    brand=Olerex; fuel:diesel=yes; fuel:lpg=yes;
    fuel:octane_95=yes; fuel:octane_98=yes; name=Olerex Tondiraba
    tankla; opening_hours=24/7; operator=Olerex; phone=+372
    53095115; website=https://www.olerex.ee/;
    id=node/2386736810</desc>
    <link href="https://www.olerex.ee/"></link>
  </wpt>
  <wpt lat="59.1847428" lon="25.1590296">
    <ele>59.0</ele>
    <name>Euro oil</name>
    <desc>amenity=fuel; compressed_air=yes; name=Euro oil;
    id=node/2407319978</desc>
  </wpt>
  <wpt lat="58.3401135" lon="26.7308276">
    <ele>47.0</ele>
    <name>CNG</name>
    <desc>amenity=fuel; brand=Eesti Gaas; fuel:cng=yes; name=CNG;
    opening_hours=24/7; operator=Eesti Gaas;
    payment:credit_cards=yes; payment:debit_cards=yes;
    id=node/2621983289</desc>
  </wpt>
  <wpt lat="58.8166131" lon="26.7425409">
    <ele>83.0</ele>
    <name>Terminal Oil Torma</name>
    <desc>addr:city=Torma alevik; addr:housenumber=14;
    addr:street=Tartu mnt; alt_name=Torma tankla; amenity=fuel;
    brand=Terminal Oil; fuel:diesel=yes; fuel:octane_95=yes;
    fuel:octane_98=yes; fuel:taxfree_diesel=yes; name=Terminal Oil
    Torma; old_name=Tartu Terminali Torma automaattankla;
    operator=Tartu Terminal AS; payment:dkv=yes; payment:uta=yes;
    self_service=yes;
    website=https://terminaloil.ee/petrol-station/8_t08/;
    id=node/2782708374</desc>
    <link href="https://terminaloil.ee/petrol-station/8_t08/">
    </link>
  </wpt>
  <wpt lat="58.7451692" lon="26.4005847">
    <ele>78.0</ele>
    <name>Olerex</name>
    <desc>amenity=fuel; name=Olerex; id=node/3612254162</desc>
  </wpt>
  <wpt lat="58.3456712" lon="26.6653396">
    <ele>69.0</ele>
    <name>Olerex</name>
    <desc>amenity=fuel; brand=Olerex; operator=Olerex;
    id=node/3681387932</desc>
  </wpt>
  <wpt lat="58.1438017" lon="24.9604985">
    <ele>68.0</ele>
    <name>Olerex</name>
    <desc>amenity=fuel; brand=Olerex; fuel:diesel=yes;
    fuel:octane_95=yes; fuel:octane_98=yes; name=Olerex;
    operator=Olerex; id=node/3682803144</desc>
  </wpt>
  <wpt lat="58.7049586" lon="24.4237469">
    <ele>20.0</ele>
    <name>Olerex Enge tankla</name>
    <desc>amenity=fuel; name=Olerex Enge tankla; wheelchair=yes;
    id=node/3743957060</desc>
  </wpt>
  <wpt lat="57.8397941" lon="27.0283301">
    <ele>75.0</ele>
    <name>Neste</name>
    <desc>addr:city=Võru; addr:housenumber=6; addr:street=Pikk;
    alt_name=Neste Võru D jaam; amenity=fuel; brand=Neste;
    brand:wikidata=Q616376; brand:wikipedia=en:Neste;
    email=neste.eesti@neste.com; fuel:HGV_diesel=yes;
    fuel:adblue=yes; fuel:diesel=yes; man_made=fuel_column;
    name=Neste; opening_hours=24/7; operator=Neste Eesti AS;
    phone=+372 630 4165; self_service=yes;
    website=https://www.neste.ee; id=node/3927751855</desc>
    <link href="https://www.neste.ee"></link>
  </wpt>
  <wpt lat="59.4705671" lon="25.0163959">
    <ele>38.0</ele>
    <name>Olerex Maardu tankla</name>
    <desc>addr:city=Maardu; addr:housenumber=1;
    addr:street=Keemikute; amenity=fuel; brand=Olerex; food=cafe;
    fuel:adblue=yes; fuel:diesel=yes; fuel:octane_95=yes;
    fuel:octane_98=yes; internet=wlan; internet_access=wlan;
    name=Olerex Maardu tankla; opening_hours=24/7; operator=Olerex
    AS; phone=+372 56994345; shop=yes; toilets=customers;
    website=https://www.olerex.ee/; id=node/4112350643</desc>
    <link href="https://www.olerex.ee/"></link>
  </wpt>
  <wpt lat="59.4242614" lon="24.8537863">
    <ele>47.0</ele>
    <name>Olerex Betooni Automaattankla</name>
    <desc>addr:housenumber=3; addr:street=Betooni; amenity=fuel;
    brand=Olerex; brand:wikidata=Q16931205; internet_access=wlan;
    name=Olerex Betooni Automaattankla; opening_hours=24/7;
    phone=+372 6100199; website=https://www.olerex.ee/;
    id=node/4121541029</desc>
    <link href="https://www.olerex.ee/"></link>
  </wpt>
  <wpt lat="59.3818506" lon="27.2174905">
    <ele>54.0</ele>
    <name>node/4322215792</name>
    <desc>amenity=fuel; id=node/4322215792</desc>
  </wpt>
  <wpt lat="59.0093506" lon="25.5963218">
    <ele>85.0</ele>
    <name>Anna Kütus</name>
    <desc>amenity=fuel; name=Anna Kütus; id=node/4354452867</desc>
  </wpt>
  <wpt lat="58.3559794" lon="26.7129818">
    <ele>65.0</ele>
    <name>Eesti Autogaas</name>
    <desc>amenity=fuel; fuel:lpg=yes; opening_hours=24/7;
    operator=Eesti Autogaas; id=node/4813157690</desc>
  </wpt>
  <wpt lat="59.2929309" lon="24.652696">
    <ele>54.0</ele>
    <name>Circle K Saku</name>
    <desc>amenity=fuel; brand=Circle K; brand:wikidata=Q3268010;
    name=Circle K Saku; operator=Circle K;
    id=node/4935876328</desc>
  </wpt>
  <wpt lat="58.3351981" lon="22.2643298">
    <ele>24.0</ele>
    <name>Kärla tankla</name>
    <desc>addr:city=Kärla alevik; addr:housenumber=10;
    addr:postcode=93501; addr:street=Kärla tee; amenity=fuel;
    name=Kärla tankla; id=node/5630258837</desc>
  </wpt>
  <wpt lat="58.8815924" lon="25.5527533">
    <ele>64.0</ele>
    <name>Õlitäht</name>
    <desc>amenity=fuel; name=Õlitäht; opening_hours=24/7;
    id=node/5680470855</desc>
  </wpt>
  <wpt lat="58.4907692" lon="26.6820257">
    <ele>65.0</ele>
    <name>Olerex</name>
    <desc>amenity=fuel; brand=Olerex; brand:wikidata=Q16931205;
    brand:wikipedia=et:AS Olerex; name=Olerex; opening_hours=Mo-Su
    06:00-22:00; id=node/5863251952</desc>
  </wpt>
  <wpt lat="59.3667138" lon="27.4162747">
    <ele>53.0</ele>
    <name>CNG</name>
    <desc>addr:city=Jõhvi; addr:housenumber=53; addr:street=Jaama;
    amenity=fuel; brand=Eesti Gaas; fuel:biogas=yes; fuel:cng=yes;
    name=CNG; id=node/6021494301</desc>
  </wpt>
  <wpt lat="58.3581127" lon="25.5655383">
    <ele>75.0</ele>
    <name>Eesti Gaas</name>
    <desc>addr:city=Viljandi; addr:housenumber=11;
    addr:street=Planeedi; amenity=fuel; fuel:cbm=yes; fuel:cng=yes;
    name=Eesti Gaas;
    website=https://www.gaas.ee/kodukliendile/gaas-autole/tanklad/;
    id=node/6052360574</desc>
    <link href="https://www.gaas.ee/kodukliendile/gaas-autole/tanklad/">
    </link>
  </wpt>
  <wpt lat="59.1823821" lon="25.1154243">
    <ele>63.0</ele>
    <name>Jetoil Kose Kuivajõe tankla</name>
    <desc>amenity=fuel; name=Jetoil Kose Kuivajõe tankla;
    id=node/6153472750</desc>
  </wpt>
  <wpt lat="59.4220014" lon="24.5385659">
    <ele>34.0</ele>
    <name>Alexela</name>
    <desc>amenity=fuel; brand=Alexela; brand:wikidata=Q20529782;
    brand:wikipedia=et:Alexela Oil; fuel:diesel=yes;
    fuel:octane_98=yes; name=Alexela; operator=Alexela;
    self_service=yes; id=node/6178499227</desc>
  </wpt>
  <wpt lat="58.1408457" lon="24.0183823">
    <ele>2.0</ele>
    <name>Alexela Kihnu sadamatankla</name>
    <desc>addr:city=Lemsi küla; addr:postcode=88002; amenity=fuel;
    brand=Alexela; brand:wikidata=Q20529782; fuel:diesel=yes;
    fuel:octane_95=yes; fuel:taxfree_diesel=yes; name=Alexela Kihnu
    sadamatankla; opening_hours=24/7; payment:cash=yes;
    payment:credit_cards=yes; payment:debit_cards=yes;
    self_service=yes;
    website=https://www.alexela.ee/et/tanklad/tankla-lemsi-kula-kihnu-vald-parnu-maakond-88002/kihnu-sadamatankla;
    id=node/6194534439</desc>
    <link href="https://www.alexela.ee/et/tanklad/tankla-lemsi-kula-kihnu-vald-parnu-maakond-88002/kihnu-sadamatankla">
    </link>
  </wpt>
  <wpt lat="57.8222788" lon="27.0216309">
    <ele>85.0</ele>
    <name>node/6291704924</name>
    <desc>access=no; amenity=fuel; id=node/6291704924</desc>
  </wpt>
  <wpt lat="58.7454777" lon="25.7682602">
    <ele>68.0</ele>
    <name>Paiaristi Alexela</name>
    <desc>amenity=fuel; brand=Alexela; brand:wikidata=Q20529782;
    brand:wikipedia=et:Alexela Oil; check_date=2025-06-14;
    compressed_air=yes; name=Paiaristi Alexela; opening_hours=24/7;
    payment:cash=yes; payment:credit_cards=yes;
    payment:debit_cards=yes; wheelchair=yes;
    id=node/6569496739</desc>
  </wpt>
  <wpt lat="58.1481405" lon="26.2291813">
    <ele>70.0</ele>
    <name>Terminal Oil Rõngu Kevili</name>
    <desc>addr:city=Lossimäe; amenity=fuel; brand=Terminal Oil;
    fuel:diesel=yes; fuel:taxfree_diesel=yes; name=Terminal Oil
    Rõngu Kevili; old_name=Tartu Terminali Rõngu diislipunkt;
    opening_hours=24/7; operator=Tartu Terminal AS;
    payment:fuel_card=yes; self_service=yes;
    website=https://terminaloil.ee/petrol-station/9_/;
    id=node/6608969636</desc>
    <link href="https://terminaloil.ee/petrol-station/9_/"></link>
  </wpt>
  <wpt lat="58.0667131" lon="26.7308884">
    <ele>132.0</ele>
    <name>Terminal Oil Saverna</name>
    <desc>addr:city=Saverna; addr:street=Tallinn — Tartu — Võru —
    Luhamaa; alt_name=Saverna tankla; amenity=fuel; brand=Terminal
    Oil; food=cafe; fuel:diesel=yes; fuel:octane_95=yes;
    fuel:octane_98=yes; fuel:taxfree_diesel=yes; name=Terminal Oil
    Saverna; old_name=Tartu Terminali Saverna automaattankla;
    opening_hours=24/7; operator=Tartu Terminal AS;
    payment:cash=yes; payment:credit_cards=yes;
    payment:debit_cards=yes; payment:fuel_card=yes;
    self_service=yes; shop=kiosk; toilets=yes;
    website=https://terminaloil.ee/petrol-station/11_t13/;
    id=node/6608996106</desc>
    <link href="https://terminaloil.ee/petrol-station/11_t13/">
    </link>
  </wpt>
  <wpt lat="59.2092032" lon="23.4983117">
    <ele>0.0</ele>
    <name>Alexela</name>
    <desc>amenity=fuel; brand=Alexela; brand:wikidata=Q20529782;
    compressed_air=no; fuel:diesel=yes; fuel:octane_95=yes;
    fuel:octane_98=yes; name=Alexela; opening_hours=24/7;
    self_service=yes;
    website=https://www.alexela.ee/et/tanklad/dirhami-sadam-dirhami-kula-derhamn-laane-nigula-vald-laane-maakond-91214/dirhami;
    id=node/6634843513</desc>
    <link href="https://www.alexela.ee/et/tanklad/dirhami-sadam-dirhami-kula-derhamn-laane-nigula-vald-laane-maakond-91214/dirhami">
    </link>
  </wpt>
  <wpt lat="58.6177779" lon="22.5925252">
    <ele>0.0</ele>
    <name>Alexela Soela sadamatankla</name>
    <desc>amenity=fuel; brand=Alexela; brand:wikidata=Q20529782;
    brand:wikipedia=et:Alexela Oil; covered=no; fuel:diesel=yes;
    fuel:octane_98=yes; name=Alexela Soela sadamatankla;
    operator=Alexela Oil AS; start_date=2017-08; waterway=fuel;
    id=node/6718149806</desc>
  </wpt>
  <wpt lat="58.3411131" lon="26.7236652">
    <ele>54.0</ele>
    <name>CNG</name>
    <desc>addr:city=Tartu; addr:housenumber=77; addr:street=Jalaka;
    amenity=fuel; brand=Alexela; fuel:cng=yes; name=CNG;
    operator=Alexela; payment:cards=yes; payment:cash=yes;
    self_service=yes; id=node/6767508629</desc>
  </wpt>
  <wpt lat="58.3433533" lon="26.7374133">
    <ele>38.0</ele>
    <name>Olerex</name>
    <desc>amenity=fuel; brand=Olerex; brand:wikidata=Q16931205;
    name=Olerex; id=node/7875271699</desc>
  </wpt>
  <wpt lat="58.8483253" lon="26.9148614">
    <ele>39.0</ele>
    <name>Olerex</name>
    <desc>amenity=fuel; brand=Olerex; brand:wikidata=Q16931205;
    brand:wikipedia=et:AS Olerex; fuel:diesel=yes; fuel:lpg=yes;
    fuel:octane_95=yes; fuel:octane_98=yes; name=Olerex;
    id=node/7954323307</desc>
  </wpt>
  <wpt lat="59.3129441" lon="24.4273676">
    <ele>30.0</ele>
    <name>Jetoil Keila diislipunkt</name>
    <desc>addr:city=Keila; addr:country=EE; addr:housenumber=3;
    addr:postcode=76610; addr:street=Põhjakaare; amenity=fuel;
    brand=Jetoil; check_date=2023-05-13; compressed_air=no;
    fuel:adblue=yes; fuel:diesel=yes; name=Jetoil Keila
    diislipunkt; opening_hours=24/7; shop=no;
    id=node/8049704450</desc>
  </wpt>
  <wpt lat="58.8794884" lon="25.5335942">
    <ele>65.0</ele>
    <name>Terminal Oil Paide diislipunkt</name>
    <desc>addr:city=Paide; addr:country=EE; addr:housenumber=3;
    addr:postcode=72720; addr:street=Pärnuvälja; amenity=fuel;
    brand=Terminal Oil; fuel:diesel=yes; name=Terminal Oil Paide
    diislipunkt; opening_hours=Mo-Fr 07:00-19:00; operator=Tartu
    Terminal AS; self_service=yes; shop=no;
    website=https://terminaloil.ee/petrol-station/paide/;
    id=node/8895624899</desc>
    <link href="https://terminaloil.ee/petrol-station/paide/">
    </link>
  </wpt>
  <wpt lat="58.3811589" lon="26.9908284">
    <ele>36.0</ele>
    <name>Terminal Oil Saaga</name>
    <desc>addr:city=Kikaste küla; addr:country=EE;
    addr:housenumber=9c; addr:street=Saaga tee; alt_name=Saaga
    sadamatankla; amenity=fuel; brand=Terminal Oil;
    fuel:diesel=yes; fuel:octane_98=yes; name=Terminal Oil Saaga;
    opening_hours=24/7; operator=Tartu Terminal AS; shop=no;
    waterway=fuel;
    website=https://terminaloil.ee/petrol-station/14_t17/;
    id=node/8895726024</desc>
    <link href="https://terminaloil.ee/petrol-station/14_t17/">
    </link>
  </wpt>
  <wpt lat="57.7924108" lon="26.0383286">
    <ele>65.0</ele>
    <name>Terminal Oil Valga</name>
    <desc>addr:city=Valga; addr:country=EE; addr:housenumber=1;
    addr:street=Transpordi; amenity=fuel; brand=Terminal Oil;
    fuel:adblue=yes; fuel:diesel=yes; fuel:octane_98=yes;
    name=Terminal Oil Valga; opening_hours=24/7; operator=Tartu
    Terminal AS; shop=no;
    website=https://terminaloil.ee/petrol-station/18_t32/;
    id=node/8895868445</desc>
    <link href="https://terminaloil.ee/petrol-station/18_t32/">
    </link>
  </wpt>
  <wpt lat="57.8770084" lon="24.3849142">
    <ele>12.0</ele>
    <name>Terminal Oil Ikla</name>
    <desc>amenity=fuel; brand=Terminal Oil; fuel:adblue=yes;
    fuel:diesel=yes; name=Terminal Oil Ikla; opening_hours=24/7;
    operator=Tartu Terminal AS; shop=no;
    website=https://terminaloil.ee/petrol-station/21_t31/;
    id=node/8895970810</desc>
    <link href="https://terminaloil.ee/petrol-station/21_t31/">
    </link>
  </wpt>
  <wpt lat="57.9576886" lon="27.6288832">
    <ele>35.0</ele>
    <name>Terminal Oil Värska</name>
    <desc>addr:city=Värska alevik; addr:housenumber=15;
    addr:postcode=64001; addr:street=Allika; amenity=fuel;
    brand=Terminal Oil; compressed_air=no; fuel:diesel=yes;
    fuel:octane_98=yes; name=Terminal Oil Värska;
    opening_hours=24/7; operator=Tartu Terminal AS;
    self_service=yes; shop=no; waterway=fuel;
    website=https://terminaloil.ee/petrol-station/19_t34/;
    wheelchair=yes; id=node/8895971156</desc>
    <link href="https://terminaloil.ee/petrol-station/19_t34/">
    </link>
  </wpt>
  <wpt lat="58.576588" lon="26.2891174">
    <ele>47.0</ele>
    <name>Terminal Oil Puurmani</name>
    <desc>addr:city=Puurmani alevik; addr:country=EE;
    addr:housenumber=2; addr:street=Tallinna mnt; amenity=fuel;
    brand=Terminal Oil; fuel:diesel=yes; fuel:octane_98=yes;
    name=Terminal Oil Puurmani; opening_hours=24/7; operator=Tartu
    Terminal AS; shop=no;
    website=https://terminaloil.ee/petrol-station/20_t35/;
    id=node/8895979196</desc>
    <link href="https://terminaloil.ee/petrol-station/20_t35/">
    </link>
  </wpt>
  <wpt lat="59.4528877" lon="24.986492">
    <ele>35.0</ele>
    <name>Terminal Oil Maardu</name>
    <desc>amenity=fuel; brand=Terminal Oil; fixme=Please verify
    location at site; fuel:diesel=yes; name=Terminal Oil Maardu;
    operator=Tartu Terminal AS; shop=no;
    website=https://terminaloil.ee/petrol-station/22_/;
    id=node/8896058437</desc>
    <link href="https://terminaloil.ee/petrol-station/22_/"></link>
  </wpt>
  <wpt lat="59.4623165" lon="24.9049437">
    <ele>34.0</ele>
    <name>Alexela</name>
    <desc>amenity=fuel; brand=Alexela; brand:wikidata=Q20529782;
    brand:wikipedia=et:Alexela Oil; fuel:diesel=yes;
    fuel:gasoline=yes; name=Alexela; operator=Alexela;
    id=node/8947268841</desc>
  </wpt>
  <wpt lat="58.3574625" lon="26.6804947">
    <ele>78.0</ele>
    <name>Alexela</name>
    <desc>addr:city=Tartu; addr:country=EE; addr:full=Ringtee 75B;
    addr:housenumber=41; addr:street=Lääneringtee; amenity=fuel;
    brand=Alexela; brand:wikidata=Q20529782; building=roof;
    fuel:HGV_diesel=yes; fuel:adblue=yes; fuel:diesel=yes;
    fuel:lpg=yes; fuel:octane_95=yes; fuel:octane_98=yes;
    name=Alexela; operator=Alexela; self_service=yes; source=Tartu
    City Government;
    website=https://www.alexela.ee/et/tanklad/ringtee-tn-75b-tartu-linn-tartu-linn-50106/tartu-lounakeskuse-tankla;
    id=way/30229859; ; fuel:cng=yes; id=node/9721257661</desc>
    <link href="https://www.alexela.ee/et/tanklad/ringtee-tn-75b-tartu-linn-tartu-linn-50106/tartu-lounakeskuse-tankla">
    </link>
  </wpt>
  <wpt lat="57.8209382" lon="27.021139">
    <ele>88.0</ele>
    <name>CNG</name>
    <desc>addr:city=Võru; addr:housenumber=6; addr:street=Kose tee;
    amenity=fuel; brand=Alexela; fuel:cng=yes; name=CNG;
    operator=Alexela; self_service=yes; id=node/9721257666</desc>
  </wpt>
  <wpt lat="58.0597843" lon="26.496073">
    <ele>152.0</ele>
    <name>Alexela Otepää tankla</name>
    <desc>addr:housenumber=16; addr:street=Otepää, Tartu mnt;
    amenity=fuel; brand=Alexela; brand:wikidata=Q20529782;
    description=Tankla avatud ööpäevaringselt. Pood avatud 7-22.;
    name=Alexela Otepää tankla; opening_hours=Mo-Su 07:00-22:00;
    phone=+37258875446;
    website=https://www.alexela.ee/et/nutihaagise-rendipunkt-tanklad-mugavuspoed-pesulad-balloonigaasi-muugipunktid/tartu-mnt-24-otepaa;
    id=node/9739198181</desc>
    <link href="https://www.alexela.ee/et/nutihaagise-rendipunkt-tanklad-mugavuspoed-pesulad-balloonigaasi-muugipunktid/tartu-mnt-24-otepaa">
    </link>
  </wpt>
  <wpt lat="58.9962385" lon="27.7414031">
    <ele>33.0</ele>
    <name>Terminal Oil Vasknarva</name>
    <desc>addr:city=Vasknarva küla; addr:country=EE;
    addr:housename=Paadisadama; amenity=fuel; brand=Terminal Oil;
    building=roof; capacity=2; fuel:diesel=yes; fuel:lpg=no;
    fuel:octane_95=no; fuel:octane_98=yes; fuel:taxfree_diesel=no;
    name=Terminal Oil Vasknarva; opening_hours=24/7; operator=Tartu
    Terminal AS; self_service=yes; shop=no; toilets=no;
    website=https://terminaloil.ee/petrol-station/vasknarva/;
    id=node/9806123947</desc>
    <link href="https://terminaloil.ee/petrol-station/vasknarva/">
    </link>
  </wpt>
  <wpt lat="58.6723182" lon="26.6953656">
    <ele>89.0</ele>
    <name>node/9874733661</name>
    <desc>amenity=fuel; fuel:diesel=yes; fuel:octane_95=yes;
    fuel:octane_98=yes; self_service=yes; id=node/9874733661</desc>
  </wpt>
  <wpt lat="59.3582585" lon="24.9320558">
    <ele>46.0</ele>
    <name>node/9992269636</name>
    <desc>amenity=fuel; compressed_air=no; fuel:diesel=yes;
    name:signed=no; opening_hours=24/7; self_service=yes;
    wheelchair=no; id=node/9992269636</desc>
  </wpt>
  <wpt lat="59.3576405" lon="24.9290563">
    <ele>46.0</ele>
    <name>Vedelgaas.ee</name>
    <desc>access=private; amenity=fuel; check_date=2024-04-10;
    compressed_air=no; fuel:lpg=yes; internet_access=no;
    name=Vedelgaas.ee; opening_hours=24/7; self_service=yes;
    id=node/10033797365</desc>
  </wpt>
  <wpt lat="59.3591717" lon="24.8901129">
    <ele>52.0</ele>
    <name>Alexela</name>
    <desc>amenity=fuel; brand=Alexela; brand:wikidata=Q20529782;
    check_date=2025-07-06; compressed_air=yes; name=Alexela;
    opening_hours=24/7; payment:cash=yes; payment:credit_cards=yes;
    payment:debit_cards=yes; wheelchair=yes;
    id=node/10068881800</desc>
  </wpt>
  <wpt lat="59.4372484" lon="24.8712137">
    <ele>43.0</ele>
    <name>Terminal Oil Mustakivi</name>
    <desc>addr:city=Tallinn; addr:country=EE; addr:housenumber=15;
    addr:postcode=13811; addr:street=Osmussaare; amenity=fuel;
    brand=Terminal Oil; building=retail; building:levels=1;
    cafe=yes; check_date=2024-06-01; compressed_air=no;
    fuel:adblue=yes; fuel:diesel=yes; fuel:electricity=yes;
    fuel:lpg=yes; fuel:octane_95=yes; fuel:octane_98=yes;
    fuel:taxfree_diesel=yes; internet_access=wlan; name=Terminal
    Oil Mustakivi; opening_hours=24/7; operator=Tartu Terminal AS;
    payment:cash=yes; payment:credit_cards=yes;
    payment:debit_cards=yes; phone=+372 5400 0616; roof:shape=flat;
    self_service=yes; shop=yes; shower=yes; toilets=yes;
    website=https://terminaloil.ee/petrol-station/mustakivi/;
    wheelchair=yes; id=node/10113838460</desc>
    <link href="https://terminaloil.ee/petrol-station/mustakivi/">
    </link>
  </wpt>
  <wpt lat="57.8786873" lon="24.3848174">
    <ele>9.0</ele>
    <name>Olerex</name>
    <desc>amenity=fuel; fuel:diesel=yes; fuel:octane_95=yes;
    name=Olerex; self_service=yes; id=node/10200027454</desc>
  </wpt>
  <wpt lat="58.894669" lon="24.4162271">
    <ele>40.0</ele>
    <name>Olerex</name>
    <desc>amenity=fuel; brand=Olerex; brand:wikidata=Q16931205;
    fuel:diesel=yes; fuel:octane_95=yes; fuel:octane_98=yes;
    name=Olerex; self_service=no; id=node/10263476530</desc>
  </wpt>
  <wpt lat="58.2950245" lon="26.7160417">
    <ele>54.0</ele>
    <name>node/10297921296</name>
    <desc>amenity=fuel; id=node/10297921296</desc>
  </wpt>
  <wpt lat="59.5580587" lon="24.5519871">
    <ele>1.0</ele>
    <name>Alexela</name>
    <desc>amenity=fuel; brand=Alexela; brand:wikidata=Q20529782;
    description=Tankla nii sõidukitele kui ka laevadele/paatidele.;
    description:en=Fuel station for vehicles as well as for
    boats/ships.; fuel:diesel=yes; fuel:octane_98=yes;
    name=Alexela; opening_hours=24/7; operator=Alexela;
    self_service=yes; id=node/10896883182</desc>
  </wpt>
  <wpt lat="58.3541528" lon="26.8819012">
    <ele>34.0</ele>
    <name>Terminal Oil Luunja</name>
    <desc>addr:city=Luunja alevik; addr:housenumber=12;
    addr:postcode=62222; addr:street=Jõesadama; alt_name=Luunja
    sadamatankla; amenity=fuel; brand=Terminal Oil; capacity=1;
    fuel:octane_98=yes; name=Terminal Oil Luunja;
    opening_hours=24/7; operator=Tartu Terminal AS;
    self_service=yes;
    website=https://terminaloil.ee/petrol-station/luunja/;
    id=node/10925127899</desc>
    <link href="https://terminaloil.ee/petrol-station/luunja/">
    </link>
  </wpt>
  <wpt lat="59.256885" lon="25.9478767">
    <ele>104.0</ele>
    <name>Jetoil Tapa tankla</name>
    <desc>addr:city=Tapa; addr:housenumber=7; addr:postcode=45106;
    addr:street=Loode; amenity=fuel; fuel:diesel=yes;
    fuel:octane_98=yes; name=Jetoil Tapa tankla; operator=Jetoil;
    self_service=yes; id=node/10942492676</desc>
  </wpt>
  <wpt lat="58.5915582" lon="22.7172635">
    <ele>4.0</ele>
    <name>node/11127361482</name>
    <desc>amenity=fuel; brand=Jetoil; compressed_air=no;
    fuel:diesel=yes; fuel:octane_98=yes; opening_hours=24/7;
    self_service=yes; id=node/11127361482</desc>
  </wpt>
  <wpt lat="58.5642254" lon="22.6900616">
    <ele>11.0</ele>
    <name>Olerex</name>
    <desc>amenity=fuel; brand=Olerex; brand:wikidata=Q16931205;
    fuel:diesel=yes; fuel:octane_95=yes; fuel:octane_98=yes;
    name=Olerex; operator=Olerex; payment:credit_cards=yes;
    payment:mastercard=yes; payment:visa=yes; self_service=yes;
    vending=fuel; id=node/11136113785</desc>
  </wpt>
  <wpt lat="59.4421918" lon="24.9109204">
    <ele>34.0</ele>
    <name>Olerex</name>
    <desc>addr:city=Tallinn; addr:housenumber=1; addr:street=Lagedi
    tee; amenity=fuel; brand=Olerex; brand:wikidata=Q16931205;
    name=Olerex; id=node/11353628339</desc>
  </wpt>
  <wpt lat="58.741654" lon="26.3668566">
    <ele>79.0</ele>
    <name>Circle K Jõgeva</name>
    <desc>addr:city=Jõgeva; addr:housenumber=13;
    addr:street=Tallinna mnt; amenity=fuel; brand=Circle K;
    brand:wikidata=Q3268010; name=Circle K Jõgeva; operator=Circle
    K; id=node/11515902055</desc>
  </wpt>
  <wpt lat="58.7519269" lon="26.3913076">
    <ele>76.0</ele>
    <name>Terminal Oil Jõgeva</name>
    <desc>addr:city=Liivoja küla; addr:place=Liivoja küla;
    amenity=fuel; brand=Terminal Oil; name=Terminal Oil Jõgeva;
    operator=Terminal Oil;
    website=https://terminaloil.ee/petrol-station/jogeva/;
    id=node/11515902056</desc>
    <link href="https://terminaloil.ee/petrol-station/jogeva/">
    </link>
  </wpt>
  <wpt lat="59.4942323" lon="26.5117336">
    <ele>57.0</ele>
    <name>Terminal Kunda diislipunkt</name>
    <desc>addr:city=Kunda; addr:housenumber=17;
    addr:postcode=44105; addr:street=Selja tee; amenity=fuel;
    brand=Terminal; fuel:diesel=yes; name=Terminal Kunda
    diislipunkt; opening_hours=24/7; self_service=yes;
    id=node/11668713997</desc>
  </wpt>
  <wpt lat="59.4941691" lon="26.5117936">
    <ele>57.0</ele>
    <name>ELER Hydraulic AdBlue tankla</name>
    <desc>addr:city=Kunda; addr:housenumber=17;
    addr:postcode=44105; addr:street=Selja tee; amenity=fuel;
    brand=Eler Hydraulic OÜ; fuel:adblue=yes; name=ELER Hydraulic
    AdBlue tankla; self_service=yes; id=node/11668713998</desc>
  </wpt>
  <wpt lat="58.4320219" lon="24.5019042">
    <ele>15.0</ele>
    <name>Alexela</name>
    <desc>addr:city=Kilksama küla; addr:country=EE;
    addr:housenumber=4; addr:postcode=85003; addr:street=Selja tee;
    amenity=fuel; brand=Alexela; brand:wikidata=Q20529782;
    fuel:adblue=yes; fuel:diesel=yes; fuel:octane_95=yes;
    fuel:octane_98=yes; name=Alexela; opening_hours=24/7;
    self_service=yes; id=node/11972392125</desc>
  </wpt>
  <wpt lat="58.4325352" lon="24.5026824">
    <ele>13.0</ele>
    <name>Alexela</name>
    <desc>amenity=fuel; brand=Alexela; brand:wikidata=Q20529782;
    fuel:lpg=yes; name=Alexela; id=node/11972392136</desc>
  </wpt>
  <wpt lat="58.9384693" lon="23.576956">
    <ele>7.0</ele>
    <name>Terminal Oil Haapsalu tankla</name>
    <desc>addr:city=Uuemõisa alevik; addr:housenumber=70b;
    addr:postcode=90401; addr:street=Tallinna mnt; amenity=fuel;
    brand=Terminal Oil; fuel:diesel=yes; fuel:octane_95=yes;
    fuel:octane_98=yes; name=Terminal Oil Haapsalu tankla;
    operator=Terminal Oil; self_service=yes;
    id=node/12247869103</desc>
  </wpt>
  <wpt lat="59.4078603" lon="24.6563047">
    <ele>16.0</ele>
    <name>Jetoil Pilvetee</name>
    <desc>addr:housenumber=8; addr:street=Pilvetee; amenity=fuel;
    brand=Jetoil; check_date=2025-01-08;
    check_date:compressed_air=2025-01-08; compressed_air=no;
    fuel:diesel=yes; fuel:octane_95=yes; fuel:octane_98=yes;
    name=Jetoil Pilvetee; opening_hours=24/7; operator=Jetoil;
    payment:cash=yes; payment:credit_cards=yes;
    payment:debit_cards=yes; self_service=yes;
    id=node/12484674989</desc>
  </wpt>
  <wpt lat="58.7835091" lon="24.8189573">
    <ele>58.0</ele>
    <name>HEPA</name>
    <desc>amenity=fuel; brand=HEPA; name=HEPA;
    id=node/12702168787</desc>
  </wpt>
  <wpt lat="59.5801704" lon="25.726283">
    <ele>16.0</ele>
    <name>Balloonigaas</name>
    <desc>amenity=fuel; brand=Alexela; brand:wikidata=Q20529782;
    check_date=2025-06-15; name=Balloonigaas; opening_hours=24/7;
    operator=Alexela; payment:app=yes; payment:cards=no;
    payment:credit_cards=no; payment:debit_cards=no; shop=gas;
    wheelchair=yes; id=node/12916817935</desc>
  </wpt>
  <wpt lat="59.3589236" lon="24.6013897">
    <ele>37.0</ele>
    <name>Circle K</name>
    <desc>amenity=fuel; brand=Circle K; brand:wikidata=Q3268010;
    fuel:diesel=yes; fuel:octane_95=yes; fuel:octane_98=yes;
    name=Circle K; operator=Circle K; self_service=yes;
    id=node/13037171917</desc>
  </wpt>
  <wpt lat="58.3700052" lon="25.59887622355717">
    <ele>89.0</ele>
    <name>Circle K</name>
    <desc>addr:city=Viljandi; addr:country=EE; addr:housenumber=1;
    addr:street=Endla; amenity=fuel; brand=Circle K; building=yes;
    check_date=2024-05-27; maaamet:orig_tunnus=89708:001:0110;
    name=Circle K; operator=Circle K Eesti AS; source:addr=Maa-amet
    2012; type=multipolygon; id=relation/12575412</desc>
  </wpt>
  <wpt lat="59.17912185" lon="25.761133179414045">
    <ele>94.0</ele>
    <name>Circle K</name>
    <desc>addr:city=Märjandi küla; addr:housename=Karikakra;
    addr:postcode=73513; amenity=fuel; brand=Circle K;
    brand:wikidata=Q3268010; brand:wikipedia=en:Circle K;
    fuel:HGV_diesel=yes; fuel:adblue=yes; fuel:diesel=yes;
    fuel:octane_95=yes; fuel:octane_98=yes; name=Circle K;
    opening_hours=24/7; operator=Circle K; self_service=yes;
    id=way/24548311</desc>
  </wpt>
  <wpt lat="59.3563448" lon="24.892677180833402">
    <ele>53.0</ele>
    <name>Alexela Jüri</name>
    <desc>addr:city=Jüri alevik; addr:country=EE;
    addr:housenumber=5; addr:street=Aleviku tee; amenity=fuel;
    brand=Alexela; brand:wikidata=Q20529782; compressed_air=yes;
    fuel:adblue=yes; fuel:cng=yes; fuel:diesel=yes; fuel:lpg=yes;
    fuel:octane_95=yes; fuel:octane_98=yes; maaamet:ETAK=6107748;
    name=Alexela Jüri; opening_hours=24/7; operator=Alexela;
    payment:cash=yes; payment:credit_cards=yes;
    payment:debit_cards=yes; self_service=yes; source:addr=Maa-amet
    2012; id=way/26846010</desc>
  </wpt>
  <wpt lat="59.4273551" lon="24.66077512847712">
    <ele>10.0</ele>
    <name>Neste</name>
    <desc>addr:city=Tallinn; addr:country=EE; addr:housenumber=98;
    addr:postcode=13522; addr:street=Paldiski mnt; alt_name=Neste
    Rocca al Mare; amenity=fuel; brand=Neste;
    brand:wikidata=Q616376; brand:wikipedia=en:Neste;
    building=roof; capacity=4; check_date=2024-05-24;
    compressed_air=no; description=Screen wash is also available;
    email=neste.eesti@neste.com; food=yes; fuel:diesel=yes;
    fuel:octane_95=yes; fuel:octane_98=yes;
    maaamet:orig_tunnus=78406:607:0870; name=Neste;
    opening_hours=24/7; operator=Neste Eesti AS;
    payment:mastercard=yes; payment:visa=yes; phone=+372 630 4165;
    self_service=yes; source:addr=Maa-amet 2012; toilets=yes;
    website=https://www.neste.ee; id=way/26846137</desc>
    <link href="https://www.neste.ee"></link>
  </wpt>
  <wpt lat="59.4248253" lon="24.64984806728784">
    <ele>13.0</ele>
    <name>Alexela</name>
    <desc>addr:city=Tallinn; addr:country=EE; addr:housenumber=102;
    addr:street=Paldiski mnt; amenity=fuel; brand=Alexela;
    brand:wikidata=Q20529782; brand:wikipedia=et:Alexela Oil;
    building=roof; check_date=2025-04-12; maaamet:ETAK=482920;
    name=Alexela; opening_hours=24/7; payment:credit_cards=yes;
    payment:debit_cards=yes; source:addr=Maa-amet 2013;
    id=way/26847542</desc>
  </wpt>
  <wpt lat="59.422876450000004" lon="24.699318350000006">
    <ele>10.0</ele>
    <name>Neste</name>
    <desc>addr:city=Tallinn; addr:housenumber=39;
    addr:postcode=10619; addr:street=Mustamäe tee; alt_name=Neste
    Marja; amenity=fuel; brand=Neste; brand:wikidata=Q616376;
    brand:wikipedia=en:Neste; building=roof; capacity=4;
    check_date=2023-11-03; compressed_air=no;
    email=neste.eesti@neste.com; fuel:diesel=yes;
    fuel:octane_95=yes; fuel:octane_98=yes; name=Neste;
    opening_hours=24/7; operator=Neste Eesti AS; phone=+372 630
    4165; shop=no; toilets=yes; website=https://www.neste.ee;
    id=way/26848117</desc>
    <link href="https://www.neste.ee"></link>
  </wpt>
  <wpt lat="59.4199514" lon="24.64603376279383">
    <ele>13.0</ele>
    <name>Olerex</name>
    <desc>addr:city=Tallinn; addr:housenumber=155a;
    addr:street=Õismäe tee; amenity=fuel; brand=Olerex;
    brand:wikidata=Q16931205; building=roof; building:levels=1;
    check_date=2024-05-06; compressed_air=yes; fuel:diesel=yes;
    fuel:octane_95=yes; fuel:octane_98=yes; name=Olerex;
    opening_hours=24/7; operator=Olerex AS; payment:mastercard=yes;
    payment:visa=yes; wheelchair=yes; id=way/26848643</desc>
  </wpt>
  <wpt lat="59.41870265" lon="24.6935554">
    <ele>11.0</ele>
    <name>Neste</name>
    <desc>addr:city=Tallinn; addr:country=EE; addr:housenumber=22;
    addr:postcode=10621; addr:street=Mustamäe tee; alt_name=Neste
    Mustamäe tee; amenity=fuel; brand=Neste;
    brand:wikidata=Q616376; brand:wikipedia=en:Neste;
    building=roof; capacity=4; check_date=2022-03-29;
    email=neste.eesti@neste.com; food=yes; fuel:diesel=yes;
    fuel:octane_95=yes; fuel:octane_98=yes; name=Neste;
    operator=Neste Eesti AS; phone=+372 630 4165; toilets=yes;
    website=https://www.neste.ee; id=way/26849056</desc>
    <link href="https://www.neste.ee"></link>
  </wpt>
  <wpt lat="59.414553999999995" lon="24.658923510958545">
    <ele>14.0</ele>
    <name>Alexela</name>
    <desc>addr:city=Tallinn; addr:country=EE;
    addr:housenumber=114c; addr:street=Ehitajate tee; amenity=fuel;
    brand=Alexela; brand:wikidata=Q20529782;
    brand:wikipedia=et:Alexela Oil; building=roof;
    building:levels=1; check_date=2024-05-24; compressed_air=no;
    fuel:diesel=yes; fuel:lpg=yes; fuel:octane_95=yes;
    fuel:octane_98=yes; layer=1; name=Alexela; opening_hours=24/7;
    operator=AS Alexela; payment:mastercard=yes; payment:visa=yes;
    roof:shape=flat; self_service=yes; id=way/26850143</desc>
  </wpt>
  <wpt lat="59.41190245" lon="24.66160932236435">
    <ele>14.0</ele>
    <name>Alexela</name>
    <desc>addr:city=Tallinn; addr:country=EE; addr:housenumber=101;
    addr:postcode=12618; addr:street=Ehitajate tee; amenity=fuel;
    brand=Alexela; brand:wikidata=Q20529782; building=yes;
    building:levels=1; check_date=2024-05-24; compressed_air=yes;
    fuel:diesel=yes; fuel:octane_95=yes; fuel:octane_98=yes;
    height=6; maaamet:ETAK=597670; name=Alexela;
    old_addr:housenumber=62a; old_addr:street=Kadaka tee;
    operator=Alexela; payment:mastercard=yes; payment:visa=yes;
    source:addr=Maa- ja Ruumiamet 2025; id=way/26850273</desc>
  </wpt>
  <wpt lat="59.4114713" lon="24.664569131798554">
    <ele>17.0</ele>
    <name>Neste</name>
    <desc>addr:city=Tallinn; addr:housenumber=60;
    addr:postcode=12915; addr:street=Kadaka tee; alt_name=Neste
    Kadaka; amenity=fuel; brand=Neste; brand:wikidata=Q616376;
    brand:wikipedia=en:Neste; building=roof; capacity=6;
    car_wash=yes; check_date=2024-12-04; compressed_air=no;
    description=Screen wash is also available;
    email=neste.eesti@neste.com; food=yes; fuel:diesel=yes;
    fuel:octane_95=yes; fuel:octane_98=yes; name=Neste;
    opening_hours=24/7; operator=Neste Eesti AS;
    payment:mastercard=yes; payment:visa=yes; phone=+372 630 4165;
    self_service=yes; toilets=yes; website=https://www.neste.ee;
    id=way/26850317</desc>
    <link href="https://www.neste.ee"></link>
  </wpt>
  <wpt lat="59.41287475" lon="24.651958246811596">
    <ele>16.0</ele>
    <name>Circle K Õismäe automaat</name>
    <desc>addr:housenumber=10a; addr:street=Õismäe tee;
    amenity=fuel; brand=Circle K; brand:wikidata=Q3268010;
    building=roof; building:levels=1; check_date=2024-05-24;
    fuel:diesel=yes; fuel:octane_95=yes; fuel:octane_98=yes;
    internet_access=no; name=Circle K Õismäe automaat;
    name:et=Circle K Õismäe automaat; opening_hours=24/7;
    operator=Circle K Eesti AS; payment:mastercard=yes;
    payment:visa=yes; shop=no; id=way/26850413</desc>
  </wpt>
  <wpt lat="59.429529349999996" lon="24.700294596556887">
    <ele>11.0</ele>
    <name>Neste</name>
    <desc>addr:city=Tallinn; addr:country=EE; addr:housenumber=54;
    addr:postcode=10614; addr:street=Paldiski mnt; alt_name=Neste
    Merimetsa; amenity=fuel; brand=Neste; brand:wikidata=Q616376;
    brand:wikipedia=en:Neste; building=roof; capacity=2;
    car_wash=yes; check_date=2025-04-08; compressed_air=no;
    email=neste.eesti@neste.com; food=yes; fuel:diesel=yes;
    fuel:octane_95=yes; fuel:octane_98=yes; name=Neste;
    opening_hours=24/7; operator=Neste Eesti AS; payment:app=yes;
    payment:cash=yes; payment:credit_cards=yes;
    payment:debit_cards=yes; phone=+372 630 4165; self_service=yes;
    website=https://www.neste.ee; id=way/26855944</desc>
    <link href="https://www.neste.ee"></link>
  </wpt>
  <wpt lat="59.50524925" lon="24.82943185680456">
    <ele>13.0</ele>
    <name>Neste</name>
    <desc>addr:city=Viimsi alevik; addr:country=EE;
    addr:housenumber=24; addr:postcode=74001; addr:street=Pargi
    tee; alt_name=Neste Viimsi; amenity=fuel; brand=Neste;
    brand:wikidata=Q616376; brand:wikipedia=en:Neste;
    building=roof; capacity=2; description=Screen wash is also
    available; fuel:diesel=yes; fuel:octane_95=yes;
    fuel:octane_98=yes; layer=1; name=Neste; operator=Neste;
    phone=+372 630 4165; source:addr=Maa-amet 2012;
    id=way/26858133</desc>
  </wpt>
  <wpt lat="59.5056994" lon="24.827208099999993">
    <ele>15.0</ele>
    <name>Alexela Viimsi</name>
    <desc>addr:city=Haabneeme alevik; addr:country=EE;
    addr:housenumber=9a; addr:street=Randvere tee; amenity=fuel;
    brand=Alexela; brand:wikidata=Q20529782;
    brand:wikipedia=et:Alexela Oil; building=yes;
    check_date=2024-05-27; fuel:cng=yes; fuel:diesel=yes;
    fuel:octane_95=yes; fuel:octane_98=yes; name=Alexela Viimsi;
    opening_hours=24/7; operator=Alexela; self_service=yes;
    source:addr=Maa-amet 2012; id=way/26858147</desc>
  </wpt>
  <wpt lat="59.42414255" lon="24.64667355884745">
    <ele>14.0</ele>
    <name>Circle K Haabersti</name>
    <desc>addr:housenumber=106; addr:street=Paldiski mnt;
    amenity=fuel; brand=Circle K; brand:wikidata=Q3268010;
    building=roof; check_date=2024-05-24; compressed_air=yes;
    internet_access=wlan; layer=1; name=Circle K Haabersti;
    opening_hours=24/7; operator=Circle K Eesti AS;
    id=way/26866715</desc>
  </wpt>
  <wpt lat="59.3811355" lon="24.663527778688525">
    <ele>58.0</ele>
    <name>Krooning Hiiu tankla</name>
    <desc>addr:city=Tallinn; addr:housenumber=327a;
    addr:street=Pärnu mnt; amenity=fuel; brand=Krooning;
    building=roof; compressed_air=yes; fuel:diesel=yes;
    fuel:octane_95=yes; fuel:octane_98=yes;
    fuel:taxfree_diesel=yes; name=Krooning Hiiu tankla;
    opening_hours=24/7; operator=AS Krooning; self_service=yes;
    wheelchair=yes; id=way/26868170</desc>
  </wpt>
  <wpt lat="59.462529700000005" lon="24.826486975454536">
    <ele>11.0</ele>
    <name>Neste</name>
    <desc>addr:city=Tallinn; addr:housenumber=2;
    addr:postcode=11911; addr:street=Rummu tee; alt_name=Neste
    Pirita; amenity=fuel; brand=Neste; brand:wikidata=Q616376;
    brand:wikipedia=en:Neste; building=roof; capacity=4;
    description=Screen wash is also available;
    email=neste.eesti@neste.com; fuel:diesel=yes;
    fuel:octane_95=yes; fuel:octane_98=yes; name=Neste;
    opening_hours=24/7; operator=Neste Eesti AS; phone=+372 630
    4165; toilets=yes; website=https://www.neste.ee;
    id=way/26869321</desc>
    <link href="https://www.neste.ee"></link>
  </wpt>
  <wpt lat="59.4668575" lon="24.82258698468379">
    <ele>3.0</ele>
    <name>Alexela Pirita jahisadam</name>
    <desc>amenity=fuel; brand=Alexela; brand:wikidata=Q20529782;
    building=yes; fuel:diesel=yes; fuel:octane_95=yes;
    fuel:octane_98=yes; name=Alexela Pirita jahisadam;
    operator=Alexela; id=way/26869556</desc>
  </wpt>
  <wpt lat="59.4008725" lon="24.69575845989305">
    <ele>24.0</ele>
    <name>Circle K Sütiste tankla</name>
    <desc>addr:city=Tallinn; addr:country=EE; addr:housenumber=1;
    addr:street=Juhan Sütiste tee; amenity=fuel; brand=Circle K;
    brand:wikidata=Q3268010; brand:wikipedia=en:Circle K;
    building=roof; building:levels=1; compressed_air=yes;
    fuel:diesel=yes; fuel:octane_95=yes; fuel:octane_98=yes;
    internet_access=wlan; name=Circle K Sütiste tankla;
    name:en=Circle K Sütiste petrol station; opening_hours=24/7;
    operator=Circle K; roof:shape=flat;
    website=https://www.circlek.ee/; wheelchair=yes;
    id=way/26871674</desc>
    <link href="https://www.circlek.ee/"></link>
  </wpt>
  <wpt lat="59.45081145" lon="24.861102842420756">
    <ele>47.0</ele>
    <name>Neste</name>
    <desc>addr:city=Tallinn; addr:housenumber=2b;
    addr:postcode=13913; addr:street=Läänemere tee; alt_name=Neste
    Läänemere; amenity=fuel; brand=Neste; brand:wikidata=Q616376;
    brand:wikipedia=en:Neste; building=roof; capacity=4;
    fuel:diesel=yes; fuel:octane_95=yes; fuel:octane_98=yes;
    internet_access=wlan; layer=1; name=Neste; name:et=Neste;
    opening_hours=24/7; operator=Neste Eesti AS; phone=+372 630
    4165; self_service=yes; website=https://www.neste.ee/;
    id=way/26871901</desc>
    <link href="https://www.neste.ee/"></link>
  </wpt>
  <wpt lat="59.3978069" lon="24.676975591257">
    <ele>27.0</ele>
    <name>Olerex-Tallinn Sõpruse pst tankla</name>
    <desc>addr:city=Tallinn; addr:country=EE; addr:housenumber=261;
    addr:street=Sõpruse pst; amenity=fuel; brand=Olerex;
    brand:wikidata=Q16931205; brand:wikipedia=et:AS Olerex;
    building=retail; building:levels=1; building:material=metal;
    compressed_air=yes; maaamet:orig_tunnus=78405:501:0450;
    name=Olerex-Tallinn Sõpruse pst tankla; opening_hours=24/7;
    operator=Olerex; payment:mastercard=yes; payment:visa=yes;
    roof:shape=flat; source=ADS 2011-04; source:addr=Maa-amet 2012;
    wheelchair=yes; id=way/26876036</desc>
  </wpt>
  <wpt lat="59.3126848" lon="24.562580699999998">
    <ele>48.0</ele>
    <name>Olerex Saue tankla</name>
    <desc>addr:city=Saue; addr:country=EE; addr:housenumber=51;
    addr:postcode=76506; addr:street=Tule; amenity=fuel;
    brand=Olerex; brand:wikidata=Q16931205; brand:wikipedia=et:AS
    Olerex; building=roof; check_date=2023-05-13;
    compressed_air=yes; food=cafe; fuel:adblue=yes;
    fuel:diesel=yes; fuel:octane_95=yes; fuel:octane_98=yes;
    fuel:taxfree_diesel=yes; maaamet:ETAK=613606; name=Olerex Saue
    tankla; opening_hours=24/7; operator=Olerex AS; phone=+372
    56973514; self_service=yes; source:addr=Maa-amet 2012;
    wheelchair=yes; id=way/26877195</desc>
  </wpt>
  <wpt lat="59.4260357" lon="24.810728909696138">
    <ele>49.0</ele>
    <name>Olerex Peterburi tee</name>
    <desc>addr:city=Tallinn; addr:country=EE;
    addr:housenumber=38/4; addr:street=Peterburi tee; amenity=fuel;
    brand=Olerex; brand:wikidata=Q16931205; brand:wikipedia=et:AS
    Olerex; building:levels=1; check_date=2024-09-07;
    compressed_air=no; fuel:cng=yes; fuel:diesel=yes; fuel:lpg=yes;
    fuel:octane_95=yes; fuel:octane_98=yes;
    maaamet:orig_tunnus=78403:315:1910; name=Olerex Peterburi tee;
    opening_hours=24/7; operator=Olerex; payment:cash=yes;
    payment:credit_cards=yes; payment:debit_cards=yes; phone=+372
    53365650; self_service=yes; source:addr=Maa-amet 2012;
    website=https://www.olerex.ee/; wheelchair=yes;
    id=way/26877324</desc>
    <link href="https://www.olerex.ee/"></link>
  </wpt>
  <wpt lat="59.426778799999994" lon="24.822962699999998">
    <ele>57.0</ele>
    <name>Neste</name>
    <desc>addr:city=Tallinn; addr:country=EE; addr:housenumber=52;
    addr:postcode=11415; addr:street=Peterburi tee; alt_name=Neste
    Vesse; amenity=fuel; brand=Neste; brand:wikidata=Q616376;
    brand:wikipedia=en:Neste; building=roof; capacity=4;
    compressed_air=yes; description=Screen wash is also available;
    food=yes; fuel:adblue=yes; fuel:diesel=yes; fuel:octane_95=yes;
    fuel:octane_98=yes; layer=1;
    maaamet:orig_tunnus=78403:315:2070; name=Neste;
    opening_hours=24/7; phone=+372 630 4165; self_service=yes;
    source:addr=Maa-amet 2013; toilets=yes; id=way/26877432</desc>
  </wpt>
  <wpt lat="59.432122250000006" lon="24.849867958423943">
    <ele>47.0</ele>
    <name>Alexela Peterburi tee</name>
    <desc>addr:city=Tallinn; addr:country=EE; addr:housenumber=77;
    addr:street=Peterburi tee; amenity=fuel; brand=Alexela;
    brand:wikidata=Q20529782; building=retail; compressed_air=yes;
    fuel:cng=yes; fuel:diesel=yes; fuel:octane_95=yes;
    fuel:octane_98=yes; name=Alexela Peterburi tee;
    opening_hours=24/7; operator=Alexela Oil AS; self_service=yes;
    id=way/26878320</desc>
  </wpt>
  <wpt lat="59.3119147" lon="24.6814965243583">
    <ele>54.0</ele>
    <name>Alexela Saku tankla</name>
    <desc>addr:city=Tammemäe küla; addr:housename=Tammemäe tankla;
    addr:housenumber=146; addr:postcode=75509; addr:street=Männiku
    tee; amenity=fuel; brand=Alexela; brand:wikidata=Q20529782;
    building=roof; fuel:diesel=yes; fuel:lpg=yes;
    fuel:octane_95=yes; fuel:octane_98=yes; name=Alexela Saku
    tankla; opening_hours=24/7; phone=+372 57 807 848;
    self_service=yes;
    website=https://www.alexela.ee/et/elektrilaadijad-nutihaagise-rendipunkt-tanklad-mugavuspoed-balloonigaasi-muugipunktid/saku-tankla#collapse-primary-service;
    id=way/26882005</desc>
    <link href="https://www.alexela.ee/et/elektrilaadijad-nutihaagise-rendipunkt-tanklad-mugavuspoed-balloonigaasi-muugipunktid/saku-tankla#collapse-primary-service">
    </link>
  </wpt>
  <wpt lat="59.436247300000005" lon="24.809308894083983">
    <ele>42.0</ele>
    <name>Olerex Laagna tankla</name>
    <desc>addr:city=Tallinn; addr:country=EE; addr:housenumber=13;
    addr:street=Laagna tee; amenity=fuel; brand=Olerex;
    brand:wikidata=Q16931205; building=yes; cash_withdrawal=yes;
    cash_withdrawal:type=checkout; check_date=2024-12-30;
    compressed_air=no; fuel:diesel=yes; fuel:octane_95=yes;
    fuel:octane_98=yes; internet_access=wlan;
    maaamet:orig_tunnus=78403:303:0004; name=Olerex Laagna tankla;
    opening_hours=24/7; operator=Olerex; phone=+372 56952925;
    shop=yes; source:addr=Maa-amet 2012;
    website=https://www.olerex.ee/; id=way/26883178</desc>
    <link href="https://www.olerex.ee/"></link>
  </wpt>
  <wpt lat="59.3227131" lon="24.567083504313096">
    <ele>39.0</ele>
    <name>Alexela</name>
    <desc>addr:city=Saue; addr:country=EE; addr:full=Sooja 2A;
    addr:housenumber=2A; addr:postcode=76505; addr:street=Sooja;
    amenity=fuel; brand=Alexela; brand:wikidata=Q20529782;
    building=roof; fuel:adblue=yes; fuel:diesel=yes;
    fuel:octane_95=yes; fuel:octane_98=yes; layer=1; name=Alexela;
    opening_hours=24/7; operator=Alexela; self_service=yes;
    source=alexelaoil.ee; id=way/26884199</desc>
    <link href="alexelaoil.ee"></link>
  </wpt>
  <wpt lat="59.4444742" lon="24.743595149999997">
    <ele>20.0</ele>
    <name>Neste</name>
    <desc>addr:city=Tallinn; addr:country=EE; addr:housenumber=17;
    addr:postcode=10414; addr:street=Põhja pst; alt_name=Neste
    Põhja pst; amenity=fuel; brand=Neste; brand:wikidata=Q616376;
    building=roof; building:levels=0; capacity=2;
    compressed_air=no; description=Screen wash is also available;
    fuel:1_25=no; fuel:1_50=no; fuel:GTL_diesel=no;
    fuel:HGV_diesel=no; fuel:biodiesel=no; fuel:biogas=no;
    fuel:cng=no; fuel:diesel=yes; fuel:e10=no; fuel:e85=no;
    fuel:electricity=no; fuel:lpg=no; fuel:octane_100=no;
    fuel:octane_91=no; fuel:octane_95=yes; fuel:octane_98=yes;
    layer=1; name=Neste; opening_hours=24/7; operator=Neste Eesti
    AS; phone=+372 630 4165; roof:levels=1; roof:shape=flat;
    self_service=yes; wheelchair=yes; id=way/26885785</desc>
  </wpt>
  <wpt lat="59.44236765" lon="24.875399293666383">
    <ele>45.0</ele>
    <name>Circle K</name>
    <desc>addr:city=Tallinn; addr:country=EE;
    addr:housenumber=29/1; addr:postcode=13811; addr:street=Mahtra;
    alt_name=Circle K Mustakivi; amenity=fuel; atm=separate;
    brand=Circle K; brand:wikidata=Q3268010; building=retail;
    car_wash=separate; check_date=2024-07-28;
    email=eesti@circlekeurope.com; food=yes; fuel:diesel=yes;
    fuel:octane_95=yes; fuel:octane_98=yes; internet_access=wlan;
    name=Circle K; opening_hours=24/7; operator=Circle K Eesti AS;
    payment:app=yes; phone=+372 634 4593; toilets=yes;
    vacuum_cleaner=yes; website=https://www.circlek.ee;
    id=way/26886948</desc>
    <link href="https://www.circlek.ee"></link>
  </wpt>
  <wpt lat="59.3600359" lon="24.630833464295254">
    <ele>46.0</ele>
    <name>Neste</name>
    <desc>addr:city=Tallinn; addr:country=EE;
    addr:housenumber=453e; addr:postcode=10916; addr:street=Pärnu
    mnt; alt_name=Neste Pääsküla; amenity=fuel; brand=Neste;
    brand:wikidata=Q616376; brand:wikipedia=en:Neste;
    building=roof; capacity=8; car_wash=yes; check_date=2024-03-30;
    description=Screen wash is also available;
    email=neste.eesti@neste.com; food=yes; fuel:HGV_diesel=yes;
    fuel:diesel=yes; fuel:octane_95=yes; fuel:octane_98=yes;
    name=Neste; opening_hours=24/7; operator=Neste Eesti AS;
    payment:cash=yes; payment:contactless=yes;
    payment:credit_cards=yes; payment:debit_cards=yes; phone=+372
    630 4165; self_service=yes; toilets=yes;
    website=https://www.neste.ee; id=way/26886994</desc>
    <link href="https://www.neste.ee"></link>
  </wpt>
  <wpt lat="59.4372277" lon="24.874286910890493">
    <ele>45.0</ele>
    <name>Neste</name>
    <desc>addr:city=Tallinn; addr:country=EE; addr:housenumber=99;
    addr:postcode=13812; addr:street=Peterburi tee; alt_name=Neste
    Peterburi tee; amenity=fuel; brand=Neste;
    brand:wikidata=Q616376; brand:wikipedia=en:Neste;
    building=roof; building:levels=1; capacity=6;
    compressed_air=no; description=Screen wash is also available;
    fuel:adblue=yes; fuel:diesel=yes; fuel:octane_95=yes;
    fuel:octane_98=yes; layer=1; name=Neste; opening_hours=24/7;
    operator=Neste Eesti AS; payment:cash=yes;
    payment:credit_cards=yes; payment:debit_cards=yes; phone=+372
    630 4165; roof:shape=flat; self_service=yes;
    id=way/26887366</desc>
  </wpt>
  <wpt lat="59.392797200000004" lon="24.72287409367728">
    <ele>46.0</ele>
    <name>Circle K</name>
    <desc>addr:housenumber=236; addr:street=Pärnu mnt;
    amenity=fuel; brand=Circle K; brand:wikidata=Q3268010;
    building=roof; compressed_air=no; fuel:diesel=yes;
    fuel:octane_95=yes; name=Circle K; opening_hours=24/7;
    operator=Circle K Eesti AS; source=Maaamet ADS 12.2010;
    id=way/26888434</desc>
  </wpt>
  <wpt lat="59.39184615" lon="24.721587168402067">
    <ele>49.0</ele>
    <name>Circle K Nõmme</name>
    <desc>addr:city=Tallinn; addr:country=EE; addr:housenumber=151;
    addr:street=Pärnu mnt; amenity=fuel; brand=Circle K;
    brand:wikidata=Q3268010; check_date=2025-07-30;
    compressed_air=yes; fuel:diesel=yes; fuel:octane_95=yes;
    fuel:octane_98=yes; layer=1; name=Circle K Nõmme;
    opening_hours=24/7; operator=Circle K Eesti AS;
    payment:mastercard=yes; payment:visa=yes; self_service=yes;
    source=Maaamet ADS 12.2010; wheelchair=yes;
    id=way/26888650</desc>
  </wpt>
  <wpt lat="59.42817465" lon="24.731480098922592">
    <ele>17.0</ele>
    <name>Neste</name>
    <desc>addr2:housenumber=49; addr2:street=Suur-Ameerika;
    addr:city=Tallinn; addr:country=EE; addr:housenumber=47;
    addr:postcode=10122; addr:street=Koidu; alt_name=Neste
    Suur-Ameerika; amenity=fuel; brand=Neste;
    brand:wikidata=Q616376; brand:wikipedia=en:Neste;
    building=roof; capacity=4; check_date=2024-11-09;
    compressed_air=no; fuel:diesel=yes; fuel:octane_95=yes;
    fuel:octane_98=yes; layer=1; name=Neste; opening_hours=24/7;
    operator=Neste; phone=+372 630 4165; shop=no;
    id=way/26888836</desc>
  </wpt>
  <wpt lat="59.4273286" lon="24.77060769692779">
    <ele>25.0</ele>
    <name>Neste</name>
    <desc>addr:city=Tallinn; addr:country=EE; addr:housenumber=37;
    addr:postcode=10144; addr:street=Juhkentali; alt_name=Neste
    Juhkentali; amenity=fuel; brand=Neste; brand:wikidata=Q616376;
    brand:wikipedia=en:Neste; building=roof; building:levels=1;
    capacity=4; check_date=2025-06-22;
    check_date:compressed_air=2025-06-22; compressed_air=no;
    fuel:diesel=yes; fuel:octane_95=yes; fuel:octane_98=yes;
    layer=1; name=Neste; opening_hours=24/7;
    payment:mastercard=yes; payment:visa=yes; phone=+372 630 4165;
    roof:shape=flat; self_service=yes;
    website=https://www.neste.ee; id=way/26888850</desc>
    <link href="https://www.neste.ee"></link>
  </wpt>
  <wpt lat="59.440433" lon="24.776541201641137">
    <ele>4.0</ele>
    <name>Circle K</name>
    <desc>addr:city=Tallinn; addr:country=EE; addr:housenumber=4;
    addr:postcode=10120; addr:street=Petrooleumi; amenity=fuel;
    brand=Circle K; brand:wikidata=Q3268010; building=yes;
    building:levels=1; height=6; maaamet:ETAK=533091; name=Circle
    K; operator=Circle K; source:addr=Maa- ja Ruumiamet 2025;
    id=way/26889012</desc>
  </wpt>
  <wpt lat="59.4027041" lon="24.712756739285716">
    <ele>29.0</ele>
    <name>Neste</name>
    <desc>addr:city=Tallinn; addr:housenumber=64a;
    addr:postcode=11316; addr:street=A. H. Tammsaare tee;
    alt_name=Neste Tondi; amenity=fuel; brand=Neste;
    brand:wikidata=Q616376; brand:wikipedia=en:Neste;
    building=roof; building:levels=2; capacity=4; car_wash=yes;
    check_date=2025-04-29; compressed_air=no; description=Screen
    wash is also available; email=neste.eesti@neste.com;
    fuel:diesel=yes; fuel:octane_95=yes; fuel:octane_98=yes;
    name=Neste; opening_hours=24/7; operator=Neste Eesti AS;
    payment:app=yes; payment:debit_cards=yes;
    payment:mastercard=yes; payment:visa=yes; phone=+372 630 4165;
    roof:levels=0; roof:shape=flat; self_service=yes;
    website=https://www.neste.ee; wheelchair=yes;
    id=way/26889218</desc>
    <link href="https://www.neste.ee"></link>
  </wpt>
  <wpt lat="59.4024833" lon="24.728702270439197">
    <ele>38.0</ele>
    <name>Circle K</name>
    <desc>addr:city=Tallinn; addr:floor=1; addr:housenumber=180b;
    addr:state=Harjumaa; addr:street=Pärnu mnt; amenity=fuel;
    brand=Circle K; brand:wikidata=Q3268010;
    brand:wikipedia=en:Circle K; check_date=2025-02-11;
    compressed_air=yes; fuel:diesel=yes; fuel:octane_95=yes;
    fuel:octane_98=yes; internet_access=no; level=0; name=Circle K;
    opening_hours=24/7; operator=Circle K; payment:cash=yes;
    payment:credit_cards=yes; payment:debit_cards=yes;
    payment:maestro=yes; payment:mastercard=yes; payment:visa=yes;
    self_service=yes; shop=convenience; source=Maaamet ADS 12.2010;
    toilets:wheelchair=yes; wheelchair=yes; id=way/26889220</desc>
  </wpt>
  <wpt lat="59.412231500000004" lon="24.707661100000003">
    <ele>13.0</ele>
    <name>Neste</name>
    <desc>addr:city=Tallinn; addr:housenumber=155a;
    addr:postcode=13417; addr:street=Sõpruse pst; alt_name=Neste
    Sõpruse; amenity=fuel; brand=Neste; brand:wikidata=Q616376;
    brand:wikipedia=en:Neste; building=roof; capacity=2;
    check_date=2025-06-27; compressed_air=no;
    email=neste.eesti@neste.com; food=yes; fuel:diesel=yes;
    fuel:octane_95=yes; fuel:octane_98=yes; name=Neste;
    name:en=Neste; name:et=Neste; opening_hours=24/7;
    operator=Neste Eesti AS; payment:app=yes; payment:cash=yes;
    payment:credit_cards=yes; payment:debit_cards=yes; phone=+372
    630 4165; website=https://www.neste.ee; wheelchair=yes;
    id=way/26891168</desc>
    <link href="https://www.neste.ee"></link>
  </wpt>
  <wpt lat="59.412869549999996" lon="24.70882605414962">
    <ele>12.0</ele>
    <name>Olerex</name>
    <desc>addr:city=Tallinn; addr:housenumber=64; addr:street=Linnu
    tee; amenity=fuel; brand=Olerex; brand:wikidata=Q16931205;
    brand:wikipedia=et:AS Olerex; check_date=2025-06-27;
    compressed_air=yes; fuel:diesel=yes; fuel:octane_95=yes;
    fuel:octane_98=yes; name=Olerex; opening_hours=24/7;
    operator=AS Olerex; payment:cash=yes; payment:credit_cards=yes;
    payment:debit_cards=yes; website=https://olerex.ee;
    wheelchair=yes; id=way/26891219</desc>
    <link href="https://olerex.ee"></link>
  </wpt>
  <wpt lat="59.420754349999996" lon="24.79140345000001">
    <ele>42.0</ele>
    <name>Neste</name>
    <desc>addr:city=Tallinn; addr:housenumber=4;
    addr:street=Suur-Sõjamäe; alt_name=Neste Ülemiste;
    amenity=fuel; brand=Neste; brand:wikidata=Q616376;
    brand:wikipedia=en:Neste; building=roof; capacity=2;
    car_wash=yes; compressed_air=no; description=Screen wash is
    also available; fuel:diesel=yes; fuel:octane_95=yes;
    fuel:octane_98=yes; layer=1; name=Neste; opening_hours=24/7;
    phone=+372 630 4165; self_service=yes; wheelchair=yes;
    id=way/26892405</desc>
  </wpt>
  <wpt lat="59.42009165" lon="24.742461009921158">
    <ele>28.0</ele>
    <name>Alexela</name>
    <desc>addr:city=Tallinn; addr:country=EE; addr:housenumber=30;
    addr:postcode=10134; addr:street=Vana-Lõuna; amenity=fuel;
    brand=Alexela; brand:wikidata=Q20529782; building=roof;
    check_date=2025-06-30; compressed_air=no; name=Alexela;
    opening_hours=24/7; roof:shape=flat; source:addr=Maa-amet 2019;
    wheelchair=yes; id=way/26892751</desc>
  </wpt>
  <wpt lat="59.42432035" lon="24.784130392496053">
    <ele>38.0</ele>
    <name>Circle K</name>
    <desc>addr:city=Tallinn; addr:country=EE; addr:housenumber=86;
    addr:postcode=10112; addr:street=Tartu mnt; alt_name=Circle K
    Sikupilli; amenity=fuel; brand=Circle K;
    brand:wikidata=Q3268010; building=retail; building:levels=1;
    capacity=8; car_wash=separate; changing_table=yes;
    compressed_air=yes; email=eesti@circlekeurope.com; food=yes;
    fuel:diesel=yes; fuel:octane_95=yes; fuel:octane_98=yes;
    internet_access=wlan; maaamet:ETAK=573967; name=Circle K;
    opening_hours=24/7; operator=Circle K Eesti AS;
    payment:app=yes; phone=+372 605 7480; roof:shape=flat;
    self_service=yes; source:addr=Maa-amet 2012; toilets=yes;
    toilets:wheelchair=yes; vacuum_cleaner=yes;
    website=https://www.circlek.ee; wheelchair=yes;
    id=way/26894399</desc>
    <link href="https://www.circlek.ee"></link>
  </wpt>
  <wpt lat="59.425320049999996" lon="24.784048725780117">
    <ele>40.0</ele>
    <name>CNG</name>
    <desc>addr:city=Tallinn; addr:country=EE; addr:housenumber=87b;
    addr:street=Tartu mnt; amenity=fuel; brand=Alexela;
    compressed_air=no; fuel:cng=yes; name=CNG; opening_hours=24/7;
    self_service=yes; wheelchair=yes; id=way/26894775</desc>
  </wpt>
  <wpt lat="59.42603105" lon="24.722963918035543">
    <ele>15.0</ele>
    <name>Alexela</name>
    <desc>amenity=fuel; brand=Alexela; brand:wikidata=Q20529782;
    building=roof; building:levels=2; check_date=2022-04-17;
    compressed_air=no; fuel:diesel=yes; fuel:octane_95=yes;
    fuel:octane_98=yes; name=Alexela; opening_hours=24/7;
    roof:levels=0; roof:shape=flat; shop=no; id=way/26895083</desc>
  </wpt>
  <wpt lat="59.42276005" lon="24.786546171464174">
    <ele>43.0</ele>
    <name>Circle K</name>
    <desc>addr:city=Tallinn; addr:country=EE; addr:housenumber=2;
    addr:postcode=10132; addr:street=Järvevana tee; alt_name=Circle
    K Järvevana; amenity=fuel; atm=separate; brand=Circle K;
    brand:wikidata=Q3268010; brand:wikipedia=en:Circle K;
    building=retail; building:levels=1; capacity=10;
    capacity:hgv=2; car_wash=yes; changing_table=yes;
    compressed_air=yes; email=eesti@circlekeurope.com; food=yes;
    fuel:HGV_diesel=yes; fuel:diesel=yes; fuel:octane_95=yes;
    fuel:octane_98=yes; internet_access=wlan; maaamet:ETAK=571101;
    name=Circle K; opening_hours=24/7; operator=Circle K Eesti AS;
    payment:app=yes; phone=+372 602 2648; roof:levels=0;
    roof:shape=many; source:addr=Maa-amet 2012; toilets=yes;
    toilets:wheelchair=yes; vacuum_cleaner=yes;
    website=https://www.circlek.ee; wheelchair=yes;
    id=way/26895926</desc>
    <link href="https://www.circlek.ee"></link>
  </wpt>
  <wpt lat="59.427913000000004" lon="24.71939091824167">
    <ele>12.0</ele>
    <name>Circle K</name>
    <desc>addr:city=Tallinn; addr:housenumber=52;
    addr:street=Endla; alt_name=Endla Circle K tankla;
    alt_name_1=Circle K Endla; amenity=fuel; brand=Circle K;
    brand:wikidata=Q3268010; brand:wikipedia=en:Circle K;
    check_date=2024-12-15; compressed_air=yes; food=cafe;
    fuel:diesel=yes; fuel:octane_95=yes; fuel:octane_98=yes;
    internet_access=wlan; name=Circle K; opening_hours=24/7;
    payment:mastercard=yes; payment:visa=yes; self_service=yes;
    wheelchair=yes; id=way/26897917</desc>
  </wpt>
  <wpt lat="59.439710700000006" lon="24.759624700000003">
    <ele>6.0</ele>
    <name>Olerex Ahtri tankla</name>
    <desc>addr:city=Tallinn; addr:country=EE; addr:housenumber=6b;
    addr:street=Ahtri; amenity=fuel; brand=Olerex;
    brand:wikidata=Q16931205; brand:wikipedia=et:AS Olerex;
    compressed_air=no; fuel:diesel=yes; fuel:octane_95=yes;
    fuel:octane_98=yes; maaamet:orig_tunnus=78401:114:1320;
    name=Olerex Ahtri tankla; opening_hours=24/7; operator=Olerex;
    phone=+372 6100 131; self_service=yes; source:addr=Maa-amet
    2012; website=https://www.olerex.ee/; wheelchair=yes;
    id=way/26902501</desc>
    <link href="https://www.olerex.ee/"></link>
  </wpt>
  <wpt lat="59.4385052" lon="24.70791388307822">
    <ele>10.0</ele>
    <name>Alexela</name>
    <desc>addr:city=Tallinn; addr:country=EE; addr:housenumber=27a;
    addr:street=Sõle; amenity=fuel; brand=Alexela;
    brand:wikidata=Q20529782; brand:wikipedia=et:Alexela Oil;
    building=roof; building:levels=1; compressed_air=no;
    name=Alexela; opening_hours=24/7; roof:shape=flat;
    id=way/26903146</desc>
  </wpt>
  <wpt lat="59.4441867" lon="24.75239587205042">
    <ele>6.0</ele>
    <name>Circle K</name>
    <desc>addr:city=Tallinn; addr:country=EE; addr:housenumber=33;
    addr:street=Põhja pst; amenity=fuel; brand=Circle K;
    brand:wikidata=Q3268010; brand:wikipedia=en:Circle K;
    building=yes; check_date=2024-05-22; compressed_air=yes;
    maaamet:ETAK=486044; name=Circle K; opening_hours=PH,Mo-Su
    00:00-24:00; source:addr=Maa-amet 2012; toilets:wheelchair=yes;
    wheelchair=yes; id=way/26905312</desc>
  </wpt>
  <wpt lat="59.36055665" lon="24.869544143132465">
    <ele>55.0</ele>
    <name>Terminal Oil Jüri</name>
    <desc>addr:city=Lehmja küla; addr:country=EE;
    addr:housenumber=200; addr:postcode=75306; addr:street=Tartu
    mnt; amenity=fuel; brand=Terminal Oil; building=yes;
    compressed_air=yes; contact:phone=+372 639 0000; food=cafe;
    fuel:adblue=yes; fuel:diesel=yes; fuel:octane_95=yes;
    fuel:octane_98=yes; height=6; internet_access=wlan;
    maaamet:ETAK=558839; name=Terminal Oil Jüri; note=Address
    According to Maa-amet (28.10.2020): Tartu mnt 200;
    old_addr:street=Tallinn — Tartu — Võru — Luhamaa;
    old_name=Assaku tankla; opening_hours=24/7; operator=Tartu
    Terminal AS; self_service=yes; shop=kiosk; source:addr=Maa- ja
    Ruumiamet 2025; toilets=yes; id=way/26906467</desc>
  </wpt>
  <wpt lat="59.3754262" lon="24.7183396">
    <ele>47.0</ele>
    <name>Neste</name>
    <desc>addr:city=Tallinn; addr:housenumber=99;
    addr:postcode=11213; addr:street=Männiku tee; alt_name=Neste
    Männiku; amenity=fuel; brand=Neste; brand:wikidata=Q616376;
    building=roof; capacity=4; check_date=2023-08-18;
    compressed_air=no; description=Screen wash is also available;
    email=neste.eesti@neste.com; fuel:diesel=yes;
    fuel:octane_95=yes; fuel:octane_98=yes; name=Neste;
    opening_hours=24/7; operator=Neste Eesti AS;
    payment:mastercard=yes; payment:visa=yes; phone=+372 630 4165;
    self_service=yes; website=https://www.neste.ee;
    id=way/26910651</desc>
    <link href="https://www.neste.ee"></link>
  </wpt>
  <wpt lat="59.408499500000005" lon="24.68648019245282">
    <ele>18.0</ele>
    <name>Circle K Tammsaare tankla</name>
    <desc>addr:city=Tallinn; addr:country=EE; addr:housenumber=112;
    addr:postcode=12918; addr:street=A. H. Tammsaare tee;
    amenity=fuel; brand=Circle K; brand:wikidata=Q3268010;
    brand:wikipedia=en:Circle K; building=retail;
    building:levels=1; check_date=2023-11-05; compressed_air=yes;
    fuel:diesel=yes; fuel:e10=yes; fuel:octane_95=yes;
    fuel:octane_98=yes; height=7; internet_access=wlan;
    maaamet:ETAK=590529; name=Circle K Tammsaare tankla;
    name:en=Circle K Tammsaare petrol station; opening_hours=24/7;
    operator=Circle K; payment:credit_cards=yes;
    payment:debit_cards=yes; phone=+3726543244; roof:levels=1;
    roof:shape=flat; source=Maaamet ADS 12.2010; source:addr=Maa-
    ja Ruumiamet 2025; website=https://www.circlek.ee/;
    wheelchair=yes; id=way/26919091</desc>
    <link href="https://www.circlek.ee/"></link>
  </wpt>
  <wpt lat="59.4044475" lon="24.654532399999994">
    <ele>19.0</ele>
    <name>Olerex</name>
    <desc>addr:housenumber=37; addr:street=Akadeemia tee;
    amenity=fuel; brand=Olerex; brand:wikidata=Q16931205;
    brand:wikipedia=et:AS Olerex; building=roof;
    check_date=2024-04-13; compressed_air=no; fuel:diesel=yes;
    fuel:octane_95=yes; fuel:octane_98=yes; internet_access=no;
    name=Olerex; opening_hours=24/7; operator=Olerex;
    payment:cash=yes; payment:contactless=yes;
    payment:credit_cards=yes; payment:debit_cards=yes;
    payment:mastercard=yes; payment:visa=yes; self_service=yes;
    wheelchair=yes; id=way/26920597</desc>
  </wpt>
  <wpt lat="59.4091847" lon="24.661170679778433">
    <ele>15.0</ele>
    <name>Olerex</name>
    <desc>addr:city=Tallinn; addr:country=EE; addr:housenumber=66b;
    addr:postcode=12615; addr:street=Kadaka tee; amenity=fuel;
    brand=Olerex; brand:wikidata=Q16931205; brand:wikipedia=et:AS
    Olerex; building=retail; building:levels=1; compressed_air=yes;
    fuel:diesel=yes; fuel:octane_95=yes; fuel:octane_98=yes;
    height=4; internet_access=wlan; maaamet:ETAK=5703460;
    name=Olerex; opening_hours=Mo-Su 10:00-22:00; operator=Olerex;
    roof:shape=flat; source:addr=Maa- ja Ruumiamet 2025;
    id=way/26921219</desc>
  </wpt>
  <wpt lat="59.4072606" lon="24.620309256856807">
    <ele>8.0</ele>
    <name>Krooning</name>
    <desc>addr:city=Tallinn; addr:housenumber=229c;
    addr:street=Paldiski mnt; alt_name=Krooning Õismäe tankla;
    amenity=fuel; brand=Krooning; building=roof; compressed_air=no;
    fuel:diesel=yes; fuel:octane_95=yes; fuel:octane_98=yes;
    name=Krooning; opening_hours=24/7; operator=AS Krooning;
    self_service=yes; id=way/26921530</desc>
  </wpt>
  <wpt lat="58.3681092" lon="25.599735358625242">
    <ele>87.0</ele>
    <name>Alexela</name>
    <desc>amenity=fuel; brand=Alexela; brand:wikidata=Q20529782;
    building=roof; layer=1; name=Alexela; id=way/27465702</desc>
  </wpt>
  <wpt lat="58.384767350000004" lon="26.69121119041028">
    <ele>54.0</ele>
    <name>Alexela</name>
    <desc>addr:city=Tartu; addr:country=EE; addr:housenumber=19;
    addr:postcode=51015; addr:street=Friedebert Tuglase;
    amenity=fuel; brand=Alexela; brand:wikidata=Q20529782;
    brand:wikipedia=et:Alexela Oil; building=yes; fuel:diesel=yes;
    fuel:e85=yes; fuel:octane_95=yes; fuel:octane_98=yes;
    name=Alexela; self_service=yes; source=Tartu City Government;
    id=way/30221691</desc>
  </wpt>
  <wpt lat="58.398677" lon="26.70949248677686">
    <ele>52.0</ele>
    <name>Olerex</name>
    <desc>addr:city=Tartu; addr:country=EE; addr:housenumber=1;
    addr:postcode=51017; addr:street=Aruküla tee; amenity=fuel;
    brand=Olerex; brand:wikidata=Q16931205; brand:wikipedia=et:AS
    Olerex; fuel:diesel=yes; fuel:octane_95=yes;
    fuel:octane_98=yes; layer=1; maaamet:ETAK=8060722; name=Olerex;
    opening_hours=24/7; operator=Olerex; self_service=yes;
    source=Tartu City Government; source:addr=Maa-amet 2019;
    id=way/30221885</desc>
  </wpt>
  <wpt lat="58.368078499999996" lon="26.767845128915088">
    <ele>36.0</ele>
    <name>Terminal Oil Annelinna</name>
    <desc>addr:city=Tartu; addr:country=EE; addr:housenumber=43b;
    addr:street=Kalda tee; amenity=fuel; brand=Terminal Oil;
    building=roof; fuel:diesel=yes; fuel:octane_95=yes;
    fuel:octane_98=yes; name=Terminal Oil Annelinna; old_name=Tartu
    Terminali Annelinna automaattankla; opening_hours=24/7;
    operator=Tartu Terminal AS; payment:cash=yes;
    payment:credit_cards=yes; payment:debit_cards=yes;
    self_service=yes; source=Tartu City Government;
    website=https://terminaloil.ee/petrol-station/13_t06/;
    id=way/30222511</desc>
    <link href="https://terminaloil.ee/petrol-station/13_t06/">
    </link>
  </wpt>
  <wpt lat="58.3844845" lon="26.726779469425775">
    <ele>38.0</ele>
    <name>Neste</name>
    <desc>addr:city=Tartu; addr:country=EE; addr:full=Narva mnt 29;
    addr:housenumber=29; addr:postcode=51009; addr:street=Narva
    mnt; alt_name=Neste Narva mnt; amenity=fuel; brand=Neste;
    brand:wikidata=Q616376; brand:wikipedia=en:Neste;
    building=roof; capacity=2; email=neste.eesti@neste.com;
    fuel:diesel=yes; fuel:octane_95=yes; name=Neste; operator=Neste
    Eesti AS; phone=+372 630 4165; source=Tartu City Government;
    website=https://www.neste.ee; id=way/30222844</desc>
    <link href="https://www.neste.ee"></link>
  </wpt>
  <wpt lat="58.3893745" lon="26.678937298190082">
    <ele>53.0</ele>
    <name>Circle K</name>
    <desc>addr:city=Tartu; addr:country=EE; amenity=fuel;
    brand=Circle K; brand:wikidata=Q3268010; building=yes;
    compressed_air=no; name=Circle K; opening_hours=24/7;
    operator=Circle K; source=Tartu City Government;
    id=way/30223803</desc>
  </wpt>
  <wpt lat="58.354012350000005" lon="26.68622845">
    <ele>78.0</ele>
    <name>Olerex</name>
    <desc>addr:city=Tartu; addr:country=EE; amenity=fuel;
    brand=Olerex; brand:wikidata=Q16931205; brand:wikipedia=et:AS
    Olerex; building=roof; compressed_air=yes; fuel:diesel=yes;
    fuel:lpg=yes; fuel:octane_95=yes; fuel:octane_98=yes;
    name=Olerex; opening_hours=24/7; source=Tartu City Government;
    id=way/30226115</desc>
  </wpt>
  <wpt lat="58.37514685" lon="26.67856055">
    <ele>63.0</ele>
    <name>Neste</name>
    <desc>addr:city=Tartu; addr:country=EE; addr:housenumber=14;
    addr:street=Lääneringtee; alt_name=Neste Ringtee; amenity=fuel;
    brand=Neste; brand:wikidata=Q616376; brand:wikipedia=en:Neste;
    building=roof; capacity=6; capacity:hgv=2; description=Screen
    wash is also available; email=neste.eesti@neste.com; food=yes;
    fuel:adblue=yes; fuel:diesel=yes; fuel:octane_95=yes;
    fuel:octane_98=yes; name=Neste; opening_hours=24/7;
    operator=Neste Eesti AS; phone=+372 630 4165; self_service=yes;
    source=Tartu City Government; toilets=yes;
    website=https://www.neste.ee; id=way/30226870</desc>
    <link href="https://www.neste.ee"></link>
  </wpt>
  <wpt lat="58.35586945" lon="26.72122182449091">
    <ele>58.0</ele>
    <name>Circle K</name>
    <desc>addr:city=Tartu; addr:country=EE; addr:full=Võru 81;
    addr:housenumber=81; addr:street=Võru; amenity=fuel;
    brand=Circle K; brand:wikidata=Q3268010;
    brand:wikipedia=en:Circle K; building=roof;
    check_date=2024-07-02; fuel:diesel=yes; fuel:octane_95=yes;
    fuel:octane_98=yes; name=Circle K; opening_hours=24/7;
    payment:cash=yes; payment:credit_cards=yes;
    payment:debit_cards=yes; source=Tartu City Government;
    id=way/30227038</desc>
  </wpt>
  <wpt lat="58.3720795" lon="26.761943157894738">
    <ele>40.0</ele>
    <name>Alexela</name>
    <desc>addr:city=Tartu; addr:country=EE; addr:full=Kalda tee
    24B; addr:housenumber=24B; addr:street=Kalda tee; amenity=fuel;
    brand=Alexela; brand:wikidata=Q20529782; building=yes;
    name=Alexela; source=Tartu City Government;
    id=way/30231845</desc>
  </wpt>
  <wpt lat="58.3505845" lon="26.74032095348837">
    <ele>39.0</ele>
    <name>Circle K Automaat</name>
    <desc>addr:city=Tartu; addr:country=EE; amenity=fuel;
    brand=Circle K; brand:wikidata=Q3268010; building=yes;
    name=Circle K Automaat; operator=Circle K; source=Tartu City
    Government; id=way/30232166</desc>
  </wpt>
  <wpt lat="58.3811465" lon="26.754385467977215">
    <ele>48.0</ele>
    <name>Olerex</name>
    <desc>addr:city=Tartu; addr:country=EE; addr:full=Jaama 82;
    addr:housenumber=82; addr:street=Jaama; amenity=fuel;
    brand=Olerex; brand:wikidata=Q16931205; brand:wikipedia=et:AS
    Olerex; building=yes; fuel:diesel=yes; fuel:octane_95=yes;
    fuel:octane_98=yes; name=Olerex; opening_hours=24/7;
    operator=Olerex; source=Tartu City Government;
    id=way/30234124</desc>
  </wpt>
  <wpt lat="58.342889" lon="26.71484599342105">
    <ele>59.0</ele>
    <name>Circle K</name>
    <desc>addr:city=Tartu; addr:country=EE; addr:full=Võru 250;
    addr:housenumber=250; addr:street=Võru; amenity=fuel;
    brand=Circle K; brand:wikidata=Q3268010;
    brand:wikipedia=en:Circle K; building=yes; compressed_air=yes;
    name=Circle K; source=Tartu City Government;
    id=way/30234769</desc>
  </wpt>
  <wpt lat="58.3551565" lon="26.712977549999998">
    <ele>63.0</ele>
    <name>Olerex</name>
    <desc>addr:city=Tartu; addr:country=EE; addr:full=Aardla 27B;
    addr:housenumber=27B; addr:street=Aardla; amenity=fuel;
    brand=Olerex; brand:wikidata=Q16931205; brand:wikipedia=et:AS
    Olerex; building=yes; compressed_air=no; fuel:diesel=yes;
    fuel:octane_95=yes; name=Olerex; opening_hours=24/7;
    operator=Olerex AS; source=Tartu City Government;
    id=way/30236650</desc>
  </wpt>
  <wpt lat="58.3558055" lon="26.722258745540692">
    <ele>58.0</ele>
    <name>Neste</name>
    <desc>addr:city=Tartu; addr:country=EE; addr:full=Võru 172;
    addr:housenumber=172; addr:postcode=50112; addr:street=Võru;
    alt_name=Neste Aardla; amenity=fuel; brand=Neste;
    brand:wikidata=Q616376; brand:wikipedia=en:Neste;
    building=roof; capacity=4; check_date=2024-07-02;
    email=neste.eesti@neste.com; fuel:diesel=yes;
    fuel:octane_95=yes; fuel:octane_98=yes; name=Neste;
    opening_hours=24/7; operator=Neste Eesti AS; payment:cash=yes;
    payment:credit_cards=yes; payment:debit_cards=yes; phone=+372
    630 4165; self_service=yes; source=Tartu City Government;
    website=https://www.neste.ee; id=way/30237716</desc>
    <link href="https://www.neste.ee"></link>
  </wpt>
  <wpt lat="58.37777655" lon="26.75414062717391">
    <ele>37.0</ele>
    <name>Alexela</name>
    <desc>addr:city=Tartu; addr:country=EE; amenity=fuel;
    building=yes; fuel:diesel=yes; fuel:lpg=yes;
    fuel:octane_95=yes; layer=1; name=Alexela; operator=Alexela;
    source=Tartu City Government; id=way/30237737</desc>
  </wpt>
  <wpt lat="58.37712675" lon="26.73172894955323">
    <ele>37.0</ele>
    <name>Circle K</name>
    <desc>addr:city=Tartu; addr:country=EE; addr:housenumber=6;
    addr:postcode=51004; addr:street=Turu; amenity=fuel;
    brand=Circle K; brand:wikidata=Q3268010;
    brand:wikipedia=en:Circle K; building=yes; building:levels=1;
    compressed_air=yes; fuel:diesel=yes; fuel:octane_95=yes;
    fuel:octane_98=yes; height=7; maaamet:ETAK=719102; name=Circle
    K; old_name=Statoil; opening_hours=24/7; roof:shape=mansard;
    shop=yes; source=Tartu City Government; source:addr=Maa- ja
    Ruumiamet 2025; website=https://www.circlek.ee/;
    wheelchair=yes; id=way/30237951</desc>
    <link href="https://www.circlek.ee/"></link>
  </wpt>
  <wpt lat="58.3739626" lon="26.74968405255145">
    <ele>34.0</ele>
    <name>Neste</name>
    <desc>addr:city=Tartu; addr:country=EE; addr:full=Kalda tee 1B;
    addr:housenumber=1b; addr:postcode=50703; addr:street=Kalda
    tee; alt_name=Neste Anne; amenity=fuel; brand=Neste;
    brand:wikidata=Q616376; brand:wikipedia=en:Neste;
    building=roof; capacity=4; email=neste.eesti@neste.com;
    food=yes; fuel:diesel=yes; fuel:octane_95=yes;
    fuel:octane_98=yes; name=Neste; operator=Neste Eesti AS;
    phone=+372 630 4165; source=Tartu City Government; toilets=yes;
    website=https://www.neste.ee; wheelchair=yes;
    id=way/30237957</desc>
    <link href="https://www.neste.ee"></link>
  </wpt>
  <wpt lat="58.38194475" lon="26.72843803209874">
    <ele>39.0</ele>
    <name>Circle K</name>
    <desc>addr:city=Tartu; addr:country=EE; amenity=fuel;
    brand=Circle K; brand:wikidata=Q3268010;
    brand:wikipedia=en:Circle K; building=roof; name=Circle K;
    source=Tartu City Government; id=way/30238404</desc>
  </wpt>
  <wpt lat="58.37278675" lon="26.753929160607893">
    <ele>36.0</ele>
    <name>Circle K</name>
    <desc>addr:city=Tartu; addr:country=EE; addr:full=Kalda tee 1;
    addr:housenumber=1; addr:postcode=50703; addr:street=Kalda tee;
    amenity=fuel; brand=Circle K; brand:wikidata=Q3268010;
    brand:wikipedia=en:Circle K; building=yes; height=5;
    maaamet:ETAK=715926; name=Circle K; operator=Statoil;
    source=Tartu City Government; source:addr=Maa- ja Ruumiamet
    2025; wheelchair=yes; id=way/30238892</desc>
  </wpt>
  <wpt lat="59.4408107" lon="25.137462621568183">
    <ele>37.0</ele>
    <name>Jõelähtme tankla</name>
    <desc>addr:city=Jõelähtme küla; addr:country=EE;
    addr:housenumber=1; addr:postcode=74202; addr:street=Kivisilla
    tee; amenity=fuel; building=yes; compressed_air=yes;
    maaamet:ETAK=566767; name=Jõelähtme tankla; opening_hours=24/7;
    operator=Olerex; source:addr=Maa- ja Ruumiamet 2025;
    wheelchair=yes; id=way/34179126</desc>
  </wpt>
  <wpt lat="58.271128250000004" lon="26.52110781088885">
    <ele>69.0</ele>
    <name>way/37300837</name>
    <desc>amenity=fuel; id=way/37300837</desc>
  </wpt>
  <wpt lat="59.35503305" lon="26.388160950006583">
    <ele>80.0</ele>
    <name>Circle K</name>
    <desc>addr:city=Rakvere; addr:country=EE; addr:housenumber=18a;
    addr:street=Kütuse; amenity=fuel; brand=Circle K;
    brand:wikidata=Q3268010; brand:wikipedia=en:Circle K;
    building=yes; compressed_air=yes; maaamet:ETAK=292862;
    name=Circle K; opening_hours=24/7; source:addr=Maa-amet 2012;
    id=way/40947262</desc>
  </wpt>
  <wpt lat="59.35487425" lon="26.390156719498695">
    <ele>77.0</ele>
    <name>Alexela Näpi tankla</name>
    <desc>addr:city=Rakvere; addr:country=EE; addr:housenumber=18;
    addr:postcode=44311; addr:street=Kütuse; amenity=fuel;
    brand=Alexela; brand:wikidata=Q20529782; building=roof;
    compressed_air=no; fuel:diesel=yes; fuel:octane_95=yes;
    height=4; maaamet:ETAK=4305077; name=Alexela Näpi tankla;
    old_name=Euro Oil; opening_hours=24/7; self_service=yes;
    source:addr=Maa- ja Ruumiamet 2025;
    website=https://www.alexela.ee/en/tanklad/kutuse-tn-18-rakvere-linn-44311/rakvere-napi-tankla;
    id=way/40947263</desc>
    <link href="https://www.alexela.ee/en/tanklad/kutuse-tn-18-rakvere-linn-44311/rakvere-napi-tankla">
    </link>
  </wpt>
  <wpt lat="59.3619934" lon="26.334690255672207">
    <ele>79.0</ele>
    <name>Olerex</name>
    <desc>addr:city=Tõrremäe küla; addr:country=EE;
    addr:housenumber=17; addr:postcode=44415; addr:street=Haljala
    tee; amenity=fuel; brand=Olerex; brand:wikidata=Q16931205;
    brand:wikipedia=et:AS Olerex; building=retail; fuel:diesel=yes;
    fuel:lpg=yes; fuel:octane_95=yes; fuel:octane_98=yes; layer=1;
    maaamet:ETAK=8566793; name=Olerex; opening_hours=24/7;
    source:addr=Maa- ja Ruumiamet 2025; id=way/40947672</desc>
  </wpt>
  <wpt lat="59.43879885" lon="26.80831030357799">
    <ele>62.0</ele>
    <name>Olerex Koogu tankla</name>
    <desc>addr:city=Koogu küla; addr:country=EE;
    addr:housename=Tankla; addr:postcode=43404; amenity=fuel;
    brand=Olerex; brand:wikidata=Q16931205; building=yes;
    check_date=2024-10-12; fuel:diesel=yes; fuel:octane_95=yes;
    fuel:octane_98=yes; height=6; maaamet:ETAK=295678; name=Olerex
    Koogu tankla; opening_hours=24/7; operator=Olerex AS;
    payment:cash=yes; payment:credit_cards=yes;
    payment:debit_cards=yes; self_service=yes; source:addr=Maa- ja
    Ruumiamet 2025; wheelchair=yes; id=way/45542718</desc>
  </wpt>
  <wpt lat="59.443496249999995" lon="24.87477970773404">
    <ele>46.0</ele>
    <name>Olerex Kivila tankla</name>
    <desc>addr:city=Tallinn; addr:country=EE; addr:housenumber=28;
    addr:street=Kivila; amenity=fuel; building=yes;
    fuel:diesel=yes; fuel:octane_95=yes; fuel:octane_98=yes;
    name=Olerex Kivila tankla; opening_hours=24/7; operator=Olerex;
    phone=+372 53331298; website=https://www.olerex.ee/;
    id=way/48372046</desc>
    <link href="https://www.olerex.ee/"></link>
  </wpt>
  <wpt lat="59.45246365" lon="25.38497104547018">
    <ele>40.0</ele>
    <name>Terminal Oil Kiiu</name>
    <desc>addr:city=Kiiu alevik; addr:country=EE;
    addr:housenumber=7; addr:postcode=74604; addr:street=Vana-Narva
    mnt; amenity=fuel; brand=Terminal Oil; building=yes; food=cafe;
    fuel:adblue=yes; fuel:diesel=yes; fuel:diesel_G2=yes;
    fuel:octane_95=yes; fuel:octane_98=yes;
    fuel:taxfree_diesel=yes; height=5; maaamet:ETAK=527182;
    name=Terminal Oil Kiiu; old_name=Tektoon-A; opening_hours=24/7;
    opening_hours:food=00:60-23:00; opening_hours:shop=00:60-23:00;
    opening_hours:toilets=00:60-23:00; operator=Tartu Terminal AS;
    self_service=yes; shop=convenience; source:addr=Maa- ja
    Ruumiamet 2025; toilets=yes;
    website=https://terminaloil.ee/petrol-station/16_t18/;
    id=way/51035123</desc>
    <link href="https://terminaloil.ee/petrol-station/16_t18/">
    </link>
  </wpt>
  <wpt lat="59.3511891" lon="27.408035446874983">
    <ele>65.0</ele>
    <name>Circle K Jõhvi Tartu mnt</name>
    <desc>addr:city=Jõhvi; addr:country=EE; addr:housenumber=26;
    addr:postcode=41538; addr:street=Tartu mnt; amenity=fuel;
    brand=Circle K; brand:wikidata=Q3268010;
    brand:wikipedia=en:Circle K; building=yes; fuel:adblue=yes;
    fuel:diesel=yes; fuel:lpg=yes; fuel:octane_95=yes;
    fuel:octane_98=yes; height=5; maaamet:ETAK=4293702; name=Circle
    K Jõhvi Tartu mnt; opening_hours=24/7; operator=Circle K;
    source:addr=Maa- ja Ruumiamet 2025; id=way/52698788</desc>
  </wpt>