<?xml version="1.0" encoding="utf-8"?>
<gpx xmlns="http://www.topografix.com/GPX/1/1"
xmlns:xsi="http://www.w3.org/2001/XMLSchema-instance"
xsi:schemaLocation="http://www.topografix.com/GPX/1/1 http://www.topografix.com/GPX/1/1/gpx.xsd"
version="1.1" creator="togpx">
  <metadata>
    <copyright>
      <license>"osm3s": { "timestamp_osm_base":
      "2025-08-01T09:47:36Z", "timestamp_areas_base":
      "2025-08-01T08:00:16Z", "copyright": "The data included in
      this document is from www.openstreetmap.org. The data is made
      available under ODbL." } // SRTM: { Elevation data missing in
      OSM was added by the NASA Shuttle Radar Topography Mission as
      public release version, if available there. } // { Check for
      latest version of this file on:
      https://github.com/GpxFeed/campgrounds }</license>
    </copyright>
  </metadata>
  <wpt lat="62.223877" lon="-6.5771176">
    <name>node/6036969552</name>
    <desc>tourism=caravan_site; wheelchair=limited;
    id=node/6036969552</desc>
  </wpt>
  <wpt lat="62.2415787" lon="-6.8157462">
    <name>
    https://camping.fo/locations/location/76/fuglafjordur</name>
    <desc>tourism=caravan_site;
    website=https://camping.fo/locations/location/76/fuglafjordur;
    id=node/10769464036</desc>
    <link href="https://camping.fo/locations/location/76/fuglafjordur">
    </link>
  </wpt>
  <wpt lat="62.2183451" lon="-6.8108372">
    <name>node/10769464037</name>
    <desc>tourism=caravan_site; id=node/10769464037</desc>
  </wpt>
  <wpt lat="62.01729685" lon="-6.755084103782739">
    <name>Tórshavn Camping</name>
    <desc>name=Tórshavn Camping; tourism=caravan_site;
    id=way/45421143</desc>
  </wpt>
  <wpt lat="62.3234193" lon="-6.941943289456363">
    <name>Flatnagarður Camping</name>
    <desc>capacity=25; email=info@gjaargardur.fo; fax=+298 423505;
    internet_access=no; name=Flatnagarður Camping; phone=+298
    423171; power_supply=yes; tourism=caravan_site;
    website=http://www.gjaargardur.fo/; id=way/288216448</desc>
    <link href="http://www.gjaargardur.fo/"></link>
  </wpt>
  <wpt lat="62.153080149999994" lon="-7.147787917576533">
    <name>Vestmanna Camping</name>
    <desc>capacity=100; fee=yes; internet_access=wlan;
    internet_access:fee=no; name=Vestmanna Camping; name:fr=Camping
    de Vestmanna; phone=+298 212245; power_supply=yes;
    tourism=caravan_site;
    website=https://www.vestmannacamping.com/;
    id=way/499145181</desc>
    <link href="https://www.vestmannacamping.com/"></link>
  </wpt>
  <wpt lat="62.28230565" lon="-6.9112003550116885">
    <name>way/1185130298</name>
    <desc>power_supply=yes; tents=yes; tourism=caravan_site;
    id=way/1185130298</desc>
  </wpt>
</gpx>
