<?xml version="1.0" encoding="utf-8"?>
<gpx xmlns="http://www.topografix.com/GPX/1/1"
xmlns:xsi="http://www.w3.org/2001/XMLSchema-instance"
xsi:schemaLocation="http://www.topografix.com/GPX/1/1 http://www.topografix.com/GPX/1/1/gpx.xsd"
version="1.1" creator="togpx">
  <metadata>
    <copyright>
      <license>"osm3s": { "timestamp_osm_base":
      "2025-09-09T08:04:29Z", "timestamp_areas_base":
      "2025-09-09T06:27:01Z", "copyright": "The data included in
      this document is from www.openstreetmap.org. The data is made
      available under ODbL." } // SRTM: { Elevation data missing in
      OSM was added by the NASA Shuttle Radar Topography Mission as
      public release version, if available there. } // { Check for
      latest version of this file on:
      https://github.com/GpxFeed/campgrounds }</license>
    </copyright>
  </metadata>
  <wpt lat="63.2846781" lon="29.482455">
    <name>node/254320949</name>
    <desc>created_by=Potlatch 0.8; tourism=camp_site;
    id=node/254320949</desc>
  </wpt>
  <wpt lat="62.3937807" lon="21.2354386">
    <name>Mariestrandens Camping</name>
    <desc>name=Mariestrandens Camping; tourism=camp_site;
    id=node/280097598; ; id=way/1053686630</desc>
  </wpt>
  <wpt lat="67.066141" lon="27.2272587">
    <name>Pyhätunturin Kotakylä / Lomakeskus Lapin Orava</name>
    <desc>access=yes; addr:city=Pelkosenniemi; addr:housenumber=15;
    addr:postcode=98530; addr:street=Oravanranta; cabins=yes;
    caravans=yes; fee=yes; name=Pyhätunturin Kotakylä / Lomakeskus
    Lapin Orava; phone=+358 40 0892374; sauna=yes; tents=yes;
    tourism=camp_site;
    website=https://camping.fi/leirintaalueet-ja-lomakylat/pyhatunturin-kotakyla-lomakeskus-lapin-orava/;
    id=node/282605606</desc>
    <link href="https://camping.fi/leirintaalueet-ja-lomakylat/pyhatunturin-kotakyla-lomakeskus-lapin-orava/">
    </link>
  </wpt>
  <wpt lat="61.560059" lon="28.0077001">
    <name>Pistohiekka</name>
    <desc>backcountry=yes; name=Pistohiekka; note:fi=Suljettu
    ainakin kesällä 2011. Suomen Matkailuliitto omisti
    leirintäalueen Puumalan Ulkoilukeskus Oy:n kautta - meni
    konkurssiin vuonna 2001.; tourism=camp_site;
    was:tourism=camp_site; id=node/299611754</desc>
  </wpt>
  <wpt lat="60.3123717" lon="24.4852606">
    <ele>96.0</ele>
    <name>Iso-Holman telttailualue</name>
    <desc>caravans=no; drinking_water=no; name=Iso-Holman
    telttailualue; power_supply=no; shower=no; tents=yes;
    toilets=no; tourism=camp_site; id=node/303078535</desc>
  </wpt>
  <wpt lat="60.6376496" lon="24.6755674">
    <name>node/304536516</name>
    <desc>created_by=Potlatch 0.10e; tourism=camp_site;
    id=node/304536516</desc>
  </wpt>
  <wpt lat="63.0136181" lon="29.9246991">
    <name>Lakkala telttailualue</name>
    <desc>access=yes; backcountry=yes; capacity=6; fee=no;
    internet_access=no; name=Lakkala telttailualue;
    operator=Metsähallitus; tourism=camp_site;
    id=node/308298305</desc>
  </wpt>
  <wpt lat="60.7018251" lon="23.8715023">
    <name>Kaksvetisen kota</name>
    <desc>name=Kaksvetisen kota; openfire=yes; tents=yes;
    tourism=camp_site; id=node/316073029</desc>
  </wpt>
  <wpt lat="60.6990949" lon="23.8915177">
    <name>Peukalolammin laavu</name>
    <desc>amenity=shelter; name=Peukalolammin laavu; openfire=yes;
    shelter_type=lean_to; tents=yes; tourism=camp_site;
    id=node/316073105</desc>
  </wpt>
  <wpt lat="61.1705613" lon="26.8500423">
    <name>Katajajärvi</name>
    <desc>access=yes; backcountry=yes; capacity=4;
    drinking_water=no; fee=no; internet_access=no; maxtents=4;
    name=Katajajärvi; openfire=yes; operator=Metsähallitus;
    tents=yes; toilets=yes; toilets:disposal=pitlatrine;
    tourism=camp_site; id=node/326032558</desc>
  </wpt>
  <wpt lat="60.3009794" lon="24.6220313">
    <ele>69.0</ele>
    <name>Kattilaniemen leirikeskus</name>
    <desc>description=Kaupungin leirikeskus yhdistyksille ym.;
    ele=69; name=Kattilaniemen leirikeskus; tourism=camp_site;
    url=http://www.espoo.fi/fi-FI/Nuoret/Vuokrattavia_tiloja_ja_avustuksia/Vuokrattavat_tilat/Vuokrattavat_tilat(70559);
    id=node/332552941</desc>
    <link href="http://www.espoo.fi/fi-FI/Nuoret/Vuokrattavia_tiloja_ja_avustuksia/Vuokrattavat_tilat/Vuokrattavat_tilat(70559)">
    </link>
  </wpt>
  <wpt lat="60.3115491" lon="24.4887678">
    <ele>99.0</ele>
    <name>Iso-Holman pieni telttailualue</name>
    <desc>backcountry=yes; caravans=no; drinking_water=no;
    name=Iso-Holman pieni telttailualue; openfire=yes;
    power_supply=no; shower=no; tents=yes; toilets=no;
    tourism=camp_site; id=node/336582800</desc>
  </wpt>
  <wpt lat="60.6756552" lon="23.8617731">
    <name>Savilahti</name>
    <desc>fireplace=yes; name=Savilahti; openfire=yes; toilets=yes;
    tourism=camp_site; id=node/359082781</desc>
  </wpt>
  <wpt lat="60.5806701" lon="27.7692593">
    <name>Vaalimaa camping</name>
    <desc>addr:city=Virolahti; addr:housenumber=153;
    addr:postcode=49900; addr:street=Hämeenkyläntie;
    contact:phone=+358443571451; name=Vaalimaa camping;
    tourism=camp_site; website=https://www.vaalimaacamping.fi/;
    id=node/377756291</desc>
    <link href="https://www.vaalimaacamping.fi/"></link>
  </wpt>
  <wpt lat="63.704678" lon="22.7299802">
    <name>Svanen Camping</name>
    <desc>addr:city=Jakobstad; addr:housenumber=50;
    addr:postcode=68600; addr:street=Larsmovägen; caravans=yes;
    email=svanen@cou.fi; fax=+358 6 781 0008; name=Svanen Camping;
    name:fi=Leirintäalue Joutsen; name:sv=Svanen Camping;
    phone=+358 6 723 0660; shower=yes; tents=yes; toilets=yes;
    tourism=camp_site; website=https://www.svanen.fi/;
    id=node/387993366</desc>
    <link href="https://www.svanen.fi/"></link>
  </wpt>
  <wpt lat="60.0941374" lon="24.7502474">
    <ele>13.0</ele>
    <name>node/440723608</name>
    <desc>openfire=no; tents=yes; tourism=camp_site;
    id=node/440723608</desc>
  </wpt>
  <wpt lat="63.5449066" lon="23.6864758">
    <name>node/442591433</name>
    <desc>tourism=camp_site; id=node/442591433</desc>
  </wpt>
  <wpt lat="63.7179417" lon="22.7559577">
    <name>Strandis</name>
    <desc>addr:city=Larsmo; addr:housenumber=1;
    addr:postcode=68570; addr:street=Assarskärsvägen; cabins=yes;
    motorhome=yes; name=Strandis; phone=+358 6 7888 900;
    tourism=camp_site; website=https://www.strandis.fi/;
    id=node/445986915</desc>
    <link href="https://www.strandis.fi/"></link>
  </wpt>
  <wpt lat="59.9393437" lon="20.8830136">
    <ele>1.0</ele>
    <name>Sandvik</name>
    <desc>caravans=yes; drinking_water=yes; name=Sandvik;
    power_supply=yes; shower=yes; tents=yes; tourism=camp_site;
    id=node/461189571</desc>
  </wpt>
  <wpt lat="62.5876048" lon="22.4156123">
    <name>Pitkämönranta</name>
    <desc>name=Pitkämönranta; tourism=camp_site;
    id=node/466091986</desc>
  </wpt>
  <wpt lat="60.5353055" lon="21.540753">
    <name>Camping Mussalo</name>
    <desc>addr:housenumber=356; addr:street=Mussalontie;
    caravans=yes; fee=yes; name=Camping Mussalo; operator=SFC
    Mussalo; power_supply=yes; tents=yes; tourism=camp_site;
    id=node/481161589; ; id=way/997932617</desc>
  </wpt>
  <wpt lat="61.9219146" lon="23.3957851">
    <name>Haukilammen telttailualue</name>
    <desc>fireplace=yes; name=Haukilammen telttailualue;
    tourism=camp_site; id=node/523614505</desc>
  </wpt>
  <wpt lat="61.5963522" lon="24.1149286">
    <name>Norojärven laavu</name>
    <desc>amenity=shelter; description=Norojärven laavu voi yöpyä
    Norojärven laavu voi yöpyä puita on milla voi tehdä nuotion
    (tien alussa puomi joka on yleensä kiinni siitä kävelyä n
    800-900m) tien päästä vasemalla kaarinanpolku tästä matkaa
    vielä n 100m.ov2-Siitama; fireplace=yes; name=Norojärven laavu;
    note=Laavu, nuotiopaikka, huussi, polttopuita, kirves;
    shelter_type=lean_to;
    source_ref=http://www.gps-waypoints.net/gps/; toilets=yes;
    tourism=camp_site; wikidata=Q118901554;
    id=node/534951613</desc>
  </wpt>
  <wpt lat="62.8828839" lon="22.3859513">
    <name>Orisbergin kristillinen leirintäalue</name>
    <desc>name=Orisbergin kristillinen leirintäalue;
    tourism=camp_site; id=node/540237488</desc>
  </wpt>
  <wpt lat="61.6849447" lon="25.0199012">
    <name>Metsähallitus</name>
    <desc>backcountry=yes; capacity=5; fee=no; internet_access=no;
    operator=Metsähallitus; tourism=camp_site;
    id=node/550710029</desc>
  </wpt>
  <wpt lat="61.1453699" lon="21.7308329">
    <name>Posionkallio</name>
    <desc>backcountry=yes; name=Posionkallio; operator=Rauman
    Partiotytöt, Tasalam Bojat; scout=yes; tourism=camp_site;
    id=node/564720687</desc>
  </wpt>
  <wpt lat="63.2901768" lon="22.368845">
    <name>Camping</name>
    <desc>addr:city=Oravais; addr:housenumber=119;
    addr:postcode=66800; addr:street=Vasavägen; fixme=Nimi/Name;
    name=Camping; phone=+358 6 385 0366; tourism=camp_site;
    website=http://www.netikka.net/kahvitupa/;
    id=node/603385559</desc>
    <link href="http://www.netikka.net/kahvitupa/"></link>
  </wpt>
  <wpt lat="61.220805" lon="25.1146569">
    <name>Valkea Mustajärvi</name>
    <desc>access=yes; backcountry=yes; capacity=10; caravans=no;
    drinking_water=no; fee=no; name=Valkea Mustajärvi;
    openfire=yes; operator=Metsähallitus; tents=yes; toilets=yes;
    tourism=camp_site; id=node/672604058</desc>
  </wpt>
  <wpt lat="60.1934318" lon="19.6210614">
    <ele>26.0</ele>
    <name>node/681669515</name>
    <desc>tourism=camp_site; id=node/681669515</desc>
  </wpt>
  <wpt lat="61.9237449" lon="25.9952019">
    <name>Lintuniemi</name>
    <desc>access=yes; backcountry=yes; capacity=5;
    capacity:tents=5; caravans=no; drinking_water=no; fee=no;
    name=Lintuniemi; openfire=yes; operator=Metsähallitus;
    shower=no; static_caravans=no; tents=yes; toilets=yes;
    tourism=camp_site; id=node/694059305</desc>
  </wpt>
  <wpt lat="61.2154322" lon="28.2876178">
    <name>Ilkonsaaret</name>
    <desc>backcountry=yes; fee=no; name=Ilkonsaaret;
    tourism=camp_site; id=node/768065633</desc>
  </wpt>
  <wpt lat="61.4906877" lon="28.1617939">
    <name>Kotkatsaari</name>
    <desc>access=yes; backcountry=yes; capacity=3; fee=no;
    name=Kotkatsaari; tourism=camp_site; id=node/768077912</desc>
  </wpt>
  <wpt lat="61.4191157" lon="28.0445377">
    <name>Lintusalo</name>
    <desc>backcountry=yes; fee=no; name=Lintusalo;
    tourism=camp_site; id=node/768092070</desc>
  </wpt>
  <wpt lat="60.3492747" lon="27.4549197">
    <ele>10.0</ele>
    <name>Ulko-Tammio Länsilahti telttailualue</name>
    <desc>access=yes; backcountry=yes; bbq=yes; camp_site=basic;
    capacity=5; caravans=no; drinking_water=yes; fee=no;
    fireplace=yes; internet_access=no; name=Ulko-Tammio Länsilahti
    telttailualue; openfire=no; operator=Metsähallitus;
    static_caravans=no; tents=yes; tourism=camp_site;
    id=node/772289549</desc>
  </wpt>
  <wpt lat="60.3472685" lon="27.4572655">
    <ele>15.0</ele>
    <name>Ulko-Tammio eteläinen telttailualue</name>
    <desc>access=yes; backcountry=yes; bbq=yes; camp_site=basic;
    capacity=5; capacity:tents=8; caravans=no; drinking_water=yes;
    fee=no; fireplace=yes; internet_access=no; name=Ulko-Tammio
    eteläinen telttailualue; openfire=no; operator=Metsähallitus;
    static_caravans=no; tents=yes; tourism=camp_site;
    id=node/772289600</desc>
  </wpt>
  <wpt lat="66.2654554" lon="29.3856304">
    <name>Jyrävän Leirintä</name>
    <desc>caravans=yes; fee=yes; leisure=sauna; name=Jyrävän
    Leirintä; operator=https://stellapolaris.fi/jyravan-leirinta/;
    tents=yes; tourism=camp_site; id=node/773736922</desc>
  </wpt>
  <wpt lat="60.763757" lon="21.4233358">
    <name>Rairanta SF-Caravan</name>
    <desc>name=Rairanta SF-Caravan; tourism=camp_site;
    id=node/793493658</desc>
  </wpt>
  <wpt lat="60.268263" lon="20.3924696">
    <ele>14.0</ele>
    <name>Sandösunds Camping</name>
    <desc>cabins=yes; caravans=yes; drinking_water=yes; fee=yes;
    kitchen=yes; name=Sandösunds Camping; payment:cash=yes;
    payment:credit_cards=yes; power_supply=yes;
    sanitary_dump_station=no; shower=yes; static_caravans=yes;
    tents=yes; toilets=yes; tourism=camp_site; wheelchair=limited;
    id=node/842278651</desc>
  </wpt>
  <wpt lat="62.0228186" lon="23.7817329">
    <name>node/844947658</name>
    <desc>leisure=firepit; tourism=camp_site;
    id=node/844947658</desc>
  </wpt>
  <wpt lat="61.823826" lon="28.1423511">
    <name>Sulkavan Oravanpesät</name>
    <desc>access=yes; addr:city=Sulkava; addr:country=FI;
    addr:housenumber=13; addr:postcode=58700;
    addr:street=Kalajärventie; bbq=yes; cabins=yes;
    camp_site=serviced; caravans=yes; dog=leashed;
    drinking_water=yes; email=pasi.vironen@oravanpesat.fi; fee=yes;
    kitchen=yes; name=Sulkavan Oravanpesät; phone=+358 400 938 076;
    power_supply=yes; sauna=yes; tents=yes; toilets=yes;
    tourism=camp_site; website=https://www.oravanpesat.fi/;
    id=node/851283351</desc>
    <link href="https://www.oravanpesat.fi/"></link>
  </wpt>
  <wpt lat="60.3758438" lon="24.2392526">
    <name>Pääkslahti Caravan</name>
    <desc>addr:city=Vihti; addr:housenumber=649;
    addr:postcode=03400; addr:street=Irjalantie; name=Pääkslahti
    Caravan; tourism=camp_site; website=https://www.paakslahti.fi/;
    id=node/852886276; ; name=Pääkslahden leirintäalue;
    id=way/660046026</desc>
    <link href="https://www.paakslahti.fi/"></link>
  </wpt>
  <wpt lat="61.3761929" lon="27.9313191">
    <name>Haapasaari</name>
    <desc>access=yes; backcountry=yes; fee=no; name=Haapasaari;
    openfire=yes; source=survey; tents=yes; tourism=camp_site;
    id=node/863798067</desc>
  </wpt>
  <wpt lat="61.4991592" lon="27.6347236">
    <name>Tynnörsaari</name>
    <desc>access=yes; amenity=firewood; backcountry=yes;
    name=Tynnörsaari; openfire=yes; source=survey; tents=yes;
    tourism=camp_site; id=node/863824875</desc>
  </wpt>
  <wpt lat="61.6278547" lon="27.7574504">
    <name>node/863824885</name>
    <desc>access=yes; backcountry=yes; capacity=5; comment=Tent
    sites up the hill a bit difficult to climb, easier sites at the
    bay area; fee=no; openfire=yes; shelter=yes; source=survey;
    tents=yes; tourism=camp_site; id=node/863824885</desc>
  </wpt>
  <wpt lat="61.5235451" lon="27.9705098">
    <name>Yksköytinen</name>
    <desc>amenity=firewood; backcountry=yes; fee=no; hazard=ants;
    name=Yksköytinen; openfire=yes; source=survey;
    tourism=camp_site; id=node/863824890</desc>
  </wpt>
  <wpt lat="61.634269" lon="27.8969605">
    <name>Hopeahiekka</name>
    <desc>access=yes; amenity=firewood; backcountry=yes; fee=no;
    name=Hopeahiekka; openfire=yes; source=survey; tents=yes;
    tourism=camp_site; id=node/863824900</desc>
  </wpt>
  <wpt lat="69.671805" lon="26.9504689">
    <name>Guoikgáhritája</name>
    <desc>access=yes; backcountry=yes; capacity=6;
    drinking_water=yes; fee=no; fireplace=yes; name=Guoikgáhritája;
    name:fi=Koskikairapuro telttailualue; openfire=yes;
    operator=Metsähallitus; source=survey; tents=yes; toilets=yes;
    tourism=camp_site; id=node/864908260</desc>
  </wpt>
  <wpt lat="69.6436966" lon="26.9126286">
    <name>Gaskkamuš Njaggaljávri</name>
    <desc>access=yes; backcountry=yes; capacity=5; dog=leashed;
    drinking_water=boil; fee=no; fireplace=yes; name=Gaskkamuš
    Njaggaljávri; openfire=yes; operator=Metsähallitus;
    source=survey; tents=yes; toilets=yes; tourism=camp_site;
    id=node/864908548</desc>
  </wpt>
  <wpt lat="69.6749064" lon="27.0226151">
    <name>Silkeája</name>
    <desc>access=yes; backcountry=yes; capacity=5; dog=leashed;
    drinking_water=no; fee=no; fireplace=yes; name=Silkeája;
    openfire=yes; operator=Metsähallitus; source=survey; tents=yes;
    toilets=yes; tourism=camp_site; id=node/864908672</desc>
  </wpt>
  <wpt lat="69.6588855" lon="26.921095">
    <name>Beahcelávojávrrit</name>
    <desc>access=yes; backcountry=yes; capacity=4; dog=leashed;
    drinking_water=boil; fee=no; fireplace=yes;
    name=Beahcelávojávrrit; openfire=yes; operator=Metsähallitus;
    source=survey; tents=yes; toilets=yes; tourism=camp_site;
    id=node/864909011</desc>
  </wpt>
  <wpt lat="69.6039785" lon="26.8073266">
    <name>Gamajotnsuohpášája</name>
    <desc>access=yes; backcountry=yes; capacity=5; fee=no;
    fireplace=yes; name=Gamajotnsuohpášája; openfire=yes;
    operator=Metsähallitus; source=survey; toilets=yes;
    tourism=camp_site; id=node/864909222</desc>
  </wpt>
  <wpt lat="69.6384928" lon="26.9046108">
    <name>Njaggaljávri</name>
    <desc>access=yes; backcountry=yes; capacity=5; dog=leashed;
    drinking_water=boil; fee=no; fireplace=yes; name=Njaggaljávri;
    openfire=yes; operator=Metsähallitus; source=survey; tents=yes;
    toilets=yes; tourism=camp_site; id=node/864909271</desc>
  </wpt>
  <wpt lat="69.5735905" lon="26.772939">
    <name>Roajášjávri</name>
    <desc>access=yes; backcountry=yes; capacity=5;
    capacity:tents=10; caravans=no; drinking_water=yes; fee=no;
    fireplace=yes; name=Roajášjávri; openfire=yes;
    operator=Metsähallitus; source=survey; static_caravans=no;
    tents=yes; toilets=yes; tourism=camp_site;
    id=node/865008893</desc>
  </wpt>
  <wpt lat="69.5861983" lon="26.578033">
    <name>node/865009052</name>
    <desc>backcountry=yes; fee=no; fireplace=yes; source=survey;
    tourism=camp_site; id=node/865009052</desc>
  </wpt>
  <wpt lat="62.6506917" lon="30.9178388">
    <name>Anssilan maatila</name>
    <desc>name=Anssilan maatila; tourism=camp_site;
    website=https://anssila.fi/; id=node/873822772</desc>
    <link href="https://anssila.fi/"></link>
  </wpt>
  <wpt lat="63.0317592" lon="31.0622436">
    <name>Maatilamajoitus Hirvola</name>
    <desc>addr:city=Naarva; addr:housenumber=346b;
    addr:postcode=81470; addr:street=Naarvantie; backcountry=no;
    name=Maatilamajoitus Hirvola; phone=+358 40 737 7131;
    tourism=camp_site; id=node/873823251</desc>
  </wpt>
  <wpt lat="63.5317332" lon="29.1999382">
    <name>node/873846214</name>
    <desc>backcountry=no; impromptu=no; tourism=camp_site;
    id=node/873846214</desc>
  </wpt>
  <wpt lat="60.3209549" lon="24.4547896">
    <ele>100.0</ele>
    <name>Saarilammen telttailualue</name>
    <desc>backcountry=yes; name=Saarilammen telttailualue;
    tourism=camp_site; id=node/915621349</desc>
  </wpt>
  <wpt lat="61.3488934" lon="22.921355">
    <name>Tervakallio</name>
    <desc>addr:city=Sastamala; addr:housenumber=26;
    addr:street=Uittomiehenkatu; camp_site=serviced; caravans=yes;
    drinking_water=yes; email=info@tervakallio.com; fee=yes;
    name=Tervakallio; phone=+358 3 5142 720; picnic_table=yes;
    sanitary_dump_station=yes; shower=yes; static_caravans=yes;
    tents=yes; toilets=yes; tourism=camp_site;
    website=https://tervakallio.com; id=node/980288241</desc>
    <link href="https://tervakallio.com"></link>
  </wpt>
  <wpt lat="62.1015447" lon="28.5168239">
    <name>Sammakkoniemi leirintäalue</name>
    <desc>access=yes; addr:city=Savonlinna; addr:postcode=58130;
    bbq=yes; cabins=yes; cafe=yes; camp_site=basic; capacity=10;
    caravans=no; charge=10€; drinking_water=yes; fee=yes;
    name=Sammakkoniemi leirintäalue; openfire=yes;
    operator=SaimaaHoliday Oravi; picnic_table=yes; sauna=yes;
    stars=1; tents=yes; toilets=yes; tourism=camp_site;
    website=http://oravivillage.com/fi/Linnansaari/Leirintaalue,-satama-ja-sauna;
    id=node/1079956180</desc>
    <link href="http://oravivillage.com/fi/Linnansaari/Leirintaalue,-satama-ja-sauna">
    </link>
  </wpt>
  <wpt lat="62.2388837" lon="28.8142383">
    <name>Syväniemi telttailualue</name>
    <desc>access=yes; backcountry=yes; capacity=5;
    drinking_water=no; fee=no; name=Syväniemi telttailualue;
    openfire=yes; operator=Metsähallitus; tents=yes; toilets=yes;
    tourism=camp_site; id=node/1125438903</desc>
  </wpt>
  <wpt lat="62.2085551" lon="28.9202545">
    <name>Lohilahti itä telttailualue</name>
    <desc>access=yes; backcountry=yes; camp_site=basic;
    drinking_water=no; fee=no; name=Lohilahti itä telttailualue;
    openfire=yes; operator=Metsähallitus; tents=yes; toilets=yes;
    tourism=camp_site; id=node/1125438904</desc>
  </wpt>
  <wpt lat="62.2085673" lon="28.904536">
    <name>Vaajasalo</name>
    <desc>access=yes; backcountry=yes; camp_site=basic;
    drinking_water=no; fee=no; name=Vaajasalo; openfire=yes;
    operator=Metsähallitus; tents=yes; toilets=yes;
    tourism=camp_site; id=node/1125438916</desc>
  </wpt>
  <wpt lat="62.2725144" lon="28.8138747">
    <name>Lapinniemi telttailualue</name>
    <desc>access=yes; backcountry=yes; capacity=5;
    drinking_water=no; fee=no; name=Lapinniemi telttailualue;
    openfire=yes; operator=Metsähallitus; tents=yes; toilets=yes;
    tourism=camp_site; id=node/1125438917</desc>
  </wpt>
  <wpt lat="62.2748696" lon="28.7441982">
    <name>Pyylinoja telttailualue</name>
    <desc>access=yes; backcountry=yes; capacity=5; description=Tent
    site with 3 platforms, shelter, fire place and wood for fire.;
    drinking_water=no; fee=no; name=Pyylinoja telttailualue;
    openfire=yes; operator=Metsähallitus; power_supply=no;
    shower=no; tents=yes; toilets=yes; tourism=camp_site;
    id=node/1125438918</desc>
  </wpt>
  <wpt lat="62.2609712" lon="28.8580775">
    <name>Laajakaarre telttailualue</name>
    <desc>access=yes; backcountry=yes; camp_site=basic; capacity=5;
    drinking_water=no; name=Laajakaarre telttailualue;
    openfire=yes; operator=Metsähallitus; tents=yes; toilets=yes;
    tourism=camp_site; id=node/1125438928</desc>
  </wpt>
  <wpt lat="62.2220846" lon="28.9037721">
    <name>Hirviniemi</name>
    <desc>access=yes; backcountry=yes; camp_site=basic; capacity=3;
    drinking_water=no; fee=no; mapillary=4018838024874925;
    name=Hirviniemi; openfire=yes; operator=Metsähallitus;
    toilets=yes; tourism=camp_site; id=node/1125443162</desc>
  </wpt>
  <wpt lat="62.0857865" lon="28.5553542">
    <name>Petäikköluoto telttailualue</name>
    <desc>access=yes; backcountry=yes; capacity=2;
    drinking_water=no; fee=no; name=Petäikköluoto telttailualue;
    openfire=yes; operator=Metsähallitus; tents=yes; toilets=yes;
    tourism=camp_site; id=node/1125460597</desc>
  </wpt>
  <wpt lat="62.0600393" lon="28.5865108">
    <name>Iso-Tuunas telttailualue</name>
    <desc>access=yes; backcountry=yes; capacity=5;
    drinking_water=yes; fee=no; name=Iso-Tuunas telttailualue;
    openfire=yes; operator=Metsähallitus; tents=yes; toilets=yes;
    tourism=camp_site; id=node/1125465954</desc>
  </wpt>
  <wpt lat="62.0787914" lon="28.6058266">
    <name>Louhisaaret telttailualue</name>
    <desc>access=yes; backcountry=yes; capacity=5;
    drinking_water=no; fee=no; name=Louhisaaret telttailualue;
    openfire=yes; operator=Metsähallitus; tents=yes; toilets=yes;
    tourism=camp_site; id=node/1125465955</desc>
  </wpt>
  <wpt lat="62.8037755" lon="29.968121">
    <name>node/1154352777</name>
    <desc>backcountry=yes; description=nuotiopaikka;
    tourism=camp_site; id=node/1154352777</desc>
  </wpt>
  <wpt lat="60.3237994" lon="24.5764452">
    <ele>94.0</ele>
    <name>Valkealammen telttailualue</name>
    <desc>backcountry=yes; fireplace=no; name=Valkealammen
    telttailualue; tourism=camp_site; id=node/1167723425</desc>
  </wpt>
  <wpt lat="60.3020247" lon="24.4906159">
    <ele>105.0</ele>
    <name>Holma-Saarijärven läntinen telttailualue</name>
    <desc>access=yes; backcountry=yes; camp_site=basic;
    caravans=no; fee=no; name=Holma-Saarijärven läntinen
    telttailualue; static_caravans=no; tents=yes;
    tourism=camp_site; id=node/1167723437</desc>
  </wpt>
  <wpt lat="60.3088462" lon="24.6228563">
    <ele>78.0</ele>
    <name>Vääräjärven telttailualue</name>
    <desc>backcountry=yes; drinking_water=no; name=Vääräjärven
    telttailualue; power_supply=no; shower=no; toilets=yes;
    tourism=camp_site; id=node/1167723519</desc>
  </wpt>
  <wpt lat="60.295382" lon="24.5141527">
    <ele>97.0</ele>
    <name>Kolmoislammen varaustelttailualue ja
    -tulentekopaikka</name>
    <desc>addr:city=Espoo; addr:postcode=02860;
    addr:street=Kolmoislammentie; backcountry=yes;
    name=Kolmoislammen varaustelttailualue ja -tulentekopaikka;
    name:fi=Kolmoislammen varaustelttailualue ja -tulentekopaikka;
    tourism=camp_site;
    website=https://www.eraluvat.fi/kohteet/kolmoislampi-varaustelttapaikka-1220;
    id=node/1167723568</desc>
    <link href="https://www.eraluvat.fi/kohteet/kolmoislampi-varaustelttapaikka-1220">
    </link>
  </wpt>
  <wpt lat="60.3060661" lon="24.512361">
    <ele>96.0</ele>
    <name>Mustalammen itäpuolen telttailualue</name>
    <desc>backcountry=yes; name=Mustalammen itäpuolen
    telttailualue; tourism=camp_site; id=node/1167723590</desc>
  </wpt>
  <wpt lat="60.2955153" lon="24.60072">
    <ele>90.0</ele>
    <name>Valkialammen telttailualue</name>
    <desc>backcountry=yes; name=Valkialammen telttailualue;
    tents=yes; tourism=camp_site; id=node/1167723657</desc>
  </wpt>
  <wpt lat="60.2969223" lon="24.594374">
    <ele>80.0</ele>
    <name>Urjan telttailualue</name>
    <desc>backcountry=yes; name=Urjan telttailualue;
    tourism=camp_site; id=node/1167723720</desc>
  </wpt>
  <wpt lat="60.3098315" lon="24.5072377">
    <ele>85.0</ele>
    <name>Haukanholman telttailualue</name>
    <desc>name=Haukanholman telttailualue; tourism=camp_site;
    id=node/1167723729</desc>
  </wpt>
  <wpt lat="60.3206014" lon="24.5832724">
    <ele>93.0</ele>
    <name>Pöksynhaaran telttailualue</name>
    <desc>access=yes; backcountry=yes; caravans=no; fee=no;
    fireplace=no; name=Pöksynhaaran telttailualue;
    tourism=camp_site; id=node/1167723987</desc>
  </wpt>
  <wpt lat="60.3059829" lon="24.5095749">
    <ele>100.0</ele>
    <name>Mustalammen länsipuolen telttailualue</name>
    <desc>backcountry=yes; name=Mustalammen länsipuolen
    telttailualue; tourism=camp_site; id=node/1167723996</desc>
  </wpt>
  <wpt lat="68.2180633" lon="23.9426871">
    <name>Hannukuru telttailualue</name>
    <desc>access=yes; backcountry=yes; capacity=8; fee=no;
    internet_access=no; name=Hannukuru telttailualue;
    operator=Parks &amp; Wildlife Finland; tourism=camp_site;
    website=https://nationalparks.fi/pallas-yllastunturi;
    id=node/1167792104</desc>
    <link href="https://nationalparks.fi/pallas-yllastunturi">
    </link>
  </wpt>
  <wpt lat="63.3130071" lon="28.0147126">
    <name>Hiekko</name>
    <desc>access=yes; backcountry=yes; bbq=yes; capacity:tents=3;
    caravans=no; fee=no; name=Hiekko; place=locality; tents=yes;
    toilets=yes; tourism=camp_site; id=node/1169742309</desc>
  </wpt>
  <wpt lat="60.9635436" lon="22.6564804">
    <name>Eräveikkojen maja</name>
    <desc>name=Eräveikkojen maja; tourism=camp_site;
    id=node/1311499919</desc>
  </wpt>
  <wpt lat="60.9797959" lon="22.5984049">
    <name>Rajalaavu</name>
    <desc>amenity=shelter; name=Rajalaavu; shelter_type=lean_to;
    tourism=camp_site; id=node/1311499996</desc>
  </wpt>
  <wpt lat="60.9901777" lon="22.6110109">
    <name>Vampulan ulkoilumaja</name>
    <desc>name=Vampulan ulkoilumaja; tourism=camp_site;
    id=node/1311500489</desc>
  </wpt>
  <wpt lat="60.0900402" lon="24.6868427">
    <ele>16.0</ele>
    <name>node/1313234347</name>
    <desc>tourism=camp_site; id=node/1313234347</desc>
  </wpt>
  <wpt lat="60.085064" lon="24.6648469">
    <ele>22.0</ele>
    <name>node/1313234365</name>
    <desc>tourism=camp_site; id=node/1313234365</desc>
  </wpt>
  <wpt lat="60.0602034" lon="20.5101302">
    <ele>7.0</ele>
    <name>CC Camping</name>
    <desc>name=CC Camping; tourism=camp_site;
    website=https://www.aland.travel/foglo-en/accommodation/cc-camping.html;
    id=node/1326652387</desc>
    <link href="https://www.aland.travel/foglo-en/accommodation/cc-camping.html">
    </link>
  </wpt>
  <wpt lat="61.8638849" lon="28.806428">
    <name>Vuohimäki</name>
    <desc>addr:city=Savonlinna; addr:housenumber=60;
    addr:postcode=57600; addr:street=Vuohimäentie; caravans=yes;
    drinking_water=yes; email=savonlinna@suncamping.fi;
    impromptu=no; name=Vuohimäki; phone=+358 15 537353, +358
    452550073; power_supply=yes; sanitary_dump_station=yes;
    shower=yes; stars=4; tents=yes; toilets=yes; tourism=camp_site;
    website=www.suncamping.fi; id=node/1326930695</desc>
    <link href="www.suncamping.fi"></link>
  </wpt>
  <wpt lat="61.6284065" lon="24.3395165">
    <name>Säynäniemen leirintä</name>
    <desc>name=Säynäniemen leirintä; operator=Oriveden kaupunki;
    tourism=camp_site; id=node/1329842217</desc>
  </wpt>
  <wpt lat="61.3854836" lon="25.4521895">
    <name>Isohieta</name>
    <desc>access=yes; backcountry=yes; fee=no; fireplace=yes;
    name=Isohieta; openfire=yes; tourism=camp_site; wheelchair=no;
    id=node/1329859455</desc>
  </wpt>
  <wpt lat="61.3784951" lon="25.4551433">
    <name>Karhunkämmen</name>
    <desc>backcountry=yes; fireplace=yes; name=Karhunkämmen;
    toilets=yes; tourism=camp_site; id=node/1329859460</desc>
  </wpt>
  <wpt lat="61.3722524" lon="25.4525292">
    <name>Koukkulahti</name>
    <desc>backcountry=yes; name=Koukkulahti; toilets=yes;
    tourism=camp_site; id=node/1329859471</desc>
  </wpt>
  <wpt lat="61.3645952" lon="25.4524256">
    <name>Nimetönlahti</name>
    <desc>backcountry=yes; fee=no; fireplace=yes;
    name=Nimetönlahti; toilets=yes; tourism=camp_site;
    id=node/1329859474</desc>
  </wpt>
  <wpt lat="63.040032" lon="29.7126324">
    <name>Koli Freetime</name>
    <desc>addr:city=Ahmovaara; addr:country=FI;
    addr:housenumber=27; addr:postcode=83950;
    addr:street=Kopravaarantie; cabins=yes; caravans=yes;
    email=koli@kolifreetime.fi; impromptu=no; name=Koli Freetime;
    phone=+358 10 322 3040; power_supply=yes;
    sanitary_dump_station=yes; sauna=yes; tents=yes;
    tourism=camp_site; website=https://kolifreetime.fi;
    id=node/1332186853</desc>
    <link href="https://kolifreetime.fi"></link>
  </wpt>
  <wpt lat="63.6672799" lon="28.2650413">
    <name>Koseva telttailualue</name>
    <desc>access=yes; backcountry=yes; capacity=6;
    drinking_water=no; fee=no; fireplace=yes; internet_access=no;
    name=Koseva telttailualue; operator=Metsähallitus;
    power_supply=no; shower=no; toilets=no; tourism=camp_site;
    id=node/1345513297</desc>
  </wpt>
  <wpt lat="63.648178" lon="28.302417">
    <name>Venäjänhiekka telttailualue</name>
    <desc>backcountry=yes; capacity=10; fee=no; fireplace=yes;
    internet_access=no; name=Venäjänhiekka telttailualue;
    operator=Metsähallitus; tourism=camp_site;
    website=https://www.luontoon.fi/tiilikkajarvi/palvelut;
    id=node/1345513433</desc>
    <link href="https://www.luontoon.fi/tiilikkajarvi/palvelut">
    </link>
  </wpt>
  <wpt lat="61.1763953" lon="26.8960941">
    <name>Lojukoski</name>
    <desc>access=yes; backcountry=yes; bbq=yes; capacity=6;
    capacity:persons=10; capacity:tents=5; caravans=no;
    dog=leashed; drinking_water=yes; fee=no; internet_access=no;
    maxtents=5; name=Lojukoski; openfire=yes;
    operator=Metsähallitus; static_caravans=no; tents=yes;
    toilets=yes; tourism=camp_site; id=node/1350040126</desc>
  </wpt>
  <wpt lat="61.2835777" lon="28.1165027">
    <name>Rastinniemi</name>
    <desc>backcountry=yes; camp_site=basic; fee=no;
    name=Rastinniemi; static_caravans=no; tourism=camp_site;
    id=node/1359418932</desc>
  </wpt>
  <wpt lat="61.8388132" lon="26.438501">
    <name>node/1375171778</name>
    <desc>comment=tenting allowed here; source=survey;
    tourism=camp_site; id=node/1375171778</desc>
  </wpt>
  <wpt lat="62.6485409" lon="23.8450286">
    <name>Sepänniemen leirintäalue</name>
    <desc>name=Sepänniemen leirintäalue; tourism=camp_site;
    id=node/1378780283</desc>
  </wpt>
  <wpt lat="61.5049504" lon="28.1448093">
    <name>Veneretkisaari</name>
    <desc>access=yes; backcountry=yes; capacity=3; fee=no;
    name=Veneretkisaari; tourism=camp_site;
    id=node/1383185050</desc>
  </wpt>
  <wpt lat="60.3807127" lon="23.7186127">
    <name>yksityinen leirintäalue</name>
    <desc>access=private; addr:city=Salo; addr:country=FI;
    addr:housenumber=52; addr:street=Varesjärventie; building=yes;
    name=yksityinen leirintäalue; name:en=private camp site;
    name:fi=yksityinen leirintäalue; operator=Nokia; source=survey;
    tourism=camp_site; id=node/1397745420</desc>
  </wpt>
  <wpt lat="60.237872" lon="19.5431627">
    <ele>12.0</ele>
    <name>Käringsund</name>
    <desc>name=Käringsund; tourism=camp_site;
    id=node/1398837226</desc>
  </wpt>
  <wpt lat="62.4414443" lon="21.2213775">
    <name>Tjärlax stugby</name>
    <desc>name=Tjärlax stugby; tourism=camp_site;
    id=node/1408864632</desc>
  </wpt>
  <wpt lat="63.4789518" lon="22.2615708">
    <name>Klippan</name>
    <desc>contact:website=http://www.slef.fi/klippan/; fixme=Not
    actually a camp site; name=Klippan; tourism=camp_site;
    wheelchair=limited; id=node/1457754533</desc>
    <link href="http://www.slef.fi/klippan/"></link>
  </wpt>
  <wpt lat="60.8098264" lon="21.397949">
    <name>Santtioranta Camping</name>
    <desc>backcountry=no; caravans=yes; drinking_water=yes;
    email=camping@uusikaupunki.fi; group_only=no;
    internet_access=wlan; internet_access:fee=no; name=Santtioranta
    Camping; opening_hours=Apr 26-May 30 08:00-20:00, May 31-Aug 31
    08:00-22:00, Sep 01-Sep 31 08:00-20:00; phone=+358 2 8423862;
    power_supply=yes; shower=yes; smoking=yes; stars=3; tents=yes;
    toilets=yes; tourism=camp_site;
    website=https://santtioranta.sportum.info/stable/tuotteet.jsp?teema_id=1387;
    id=node/1464338047</desc>
    <link href="https://santtioranta.sportum.info/stable/tuotteet.jsp?teema_id=1387">
    </link>
  </wpt>
  <wpt lat="60.3177875" lon="20.9951558">
    <ele>8.0</ele>
    <name>node/1689137341</name>
    <desc>note=Contact harbour authority; tourism=camp_site;
    id=node/1689137341</desc>
  </wpt>
  <wpt lat="62.8893937" lon="24.3710391">
    <name>Hankajärven leirintäalue</name>
    <desc>name=Hankajärven leirintäalue; tourism=camp_site;
    id=node/1757442440</desc>
  </wpt>
  <wpt lat="60.3433367" lon="25.2070456">
    <ele>48.0</ele>
    <name>Ängesbölen telttapaikka</name>
    <desc>name=Ängesbölen telttapaikka; source=Survey;
    tourism=camp_site; id=node/1770565869</desc>
  </wpt>
  <wpt lat="62.2363529" lon="28.8935676">
    <name>Kirkkoranta</name>
    <desc>access=yes; backcountry=yes; camp_site=basic; capacity=6;
    drinking_water=no; fee=no; internet_access=no;
    name=Kirkkoranta; openfire=yes; operator=Metsähallitus;
    tents=yes; toilets=yes; tourism=camp_site; wheelchair=no;
    id=node/1788395381</desc>
  </wpt>
  <wpt lat="61.9900141" lon="25.699443">
    <name>Livansaari, virkistysalue</name>
    <desc>access=yes; backcountry=yes; drinking_water=no; fee=no;
    name=Livansaari, virkistysalue; openfire=yes; tents=yes;
    tourism=camp_site; id=node/1791847242</desc>
  </wpt>
  <wpt lat="61.7844565" lon="25.5268958">
    <name>Vuorisalo leirikeskus</name>
    <desc>access=private; backcountry=yes; group_only=yes;
    name=Vuorisalo leirikeskus; tourism=camp_site;
    id=node/1791942366</desc>
  </wpt>
  <wpt lat="61.888622" lon="26.0087486">
    <name>Harjujärvi telttailualue</name>
    <desc>access=yes; backcountry=yes; capacity:tents=5;
    caravans=no; drinking_water=no; fee=no; name=Harjujärvi
    telttailualue; openfire=yes; operator=Metsähallitus;
    parking=surface; static_caravans=no; tents=yes; toilets=no;
    tourism=camp_site; id=node/1801058991</desc>
  </wpt>
  <wpt lat="61.1848089" lon="26.8391882">
    <name>Olhava</name>
    <desc>access=yes; backcountry=yes; capacity=10; caravans=no;
    dog=leashed; drinking_water=yes; fee=no; internet_access=no;
    name=Olhava; openfire=no; operator=Metsähallitus;
    power_supply=no; shower=no; smoking=yes; toilets=yes;
    tourism=camp_site; id=node/1804987416</desc>
  </wpt>
  <wpt lat="61.6190871" lon="21.4217336">
    <name>Siikaranta Camping</name>
    <desc>caravans=yes; drinking_water=yes;
    email=info@siikarantacamping.fi; name=Siikaranta Camping;
    phone=+358 2 6384 120; shower=yes; tents=yes; toilets=yes;
    tourism=camp_site; website=https://www.siikarantacamping.fi/;
    id=node/1824746531</desc>
    <link href="https://www.siikarantacamping.fi/"></link>
  </wpt>
  <wpt lat="68.1826651" lon="24.0873436">
    <name>Varkhanmukka</name>
    <desc>access=customers; backcountry=yes; fee=yes; fixme=is this
    really here ??; group_only=yes; name=Varkhanmukka;
    operator=Suomen Retkeilyliitto ry; static_caravans=no;
    tents=yes; tourism=camp_site; id=node/1850413084</desc>
  </wpt>
  <wpt lat="60.6812973" lon="27.6857687">
    <name>node/1900288294</name>
    <desc>tourism=camp_site; id=node/1900288294</desc>
  </wpt>
  <wpt lat="60.9756745" lon="22.4032156">
    <name>Kekkosplassi</name>
    <desc>name=Kekkosplassi; tourism=camp_site;
    id=node/1911401626</desc>
  </wpt>
  <wpt lat="61.9406477" lon="25.6116311">
    <name>Kumina</name>
    <desc>access=yes; backcountry=yes; drinking_water=no; fee=no;
    name=Kumina; tents=yes; toilets=no; tourism=camp_site;
    id=node/1914267257</desc>
  </wpt>
  <wpt lat="61.1866971" lon="26.8570541">
    <name>Valkjärven varausleirialue</name>
    <desc>access=customers; bbq=yes; camp_site=standard;
    capacity=100; caravans=no; description=Varausleirialueeseen
    kuuluu noin 1,5 hehtaarin alue, jossa leirituvan, kaksi
    tulentekopaikkaa, maakellari, ruuanlaitto- ja
    astioidenpesukatos, kaivo, kuivakäymälät ja lukittu
    puuliiteri.; drinking_water=yes; email=info@tervarumpu.fi;
    fee=yes; group_only=yes; internet_access=no; kitchen=yes;
    name=Valkjärven varausleirialue; openfire=yes;
    operator=Metsähallitus; payment:credit_cards=yes; phone=+358
    400 718 248; picnic_table=yes; reservation=required; tents=yes;
    toilets=yes; tourism=camp_site;
    website=https://www.repovedenkansallispuisto.fi/fi_FI/categories/4-valkjarvi/products/33-repovesi-valkjarven-varausleirialue;
    id=node/2134901806</desc>
    <link href="https://www.repovedenkansallispuisto.fi/fi_FI/categories/4-valkjarvi/products/33-repovesi-valkjarven-varausleirialue">
    </link>
  </wpt>
  <wpt lat="61.1629669" lon="26.843571">
    <name>Kapiavesi</name>
    <desc>access=yes; backcountry=yes; capacity=3; dog=leashed;
    drinking_water=no; fee=no; maxtents=2; name=Kapiavesi;
    openfire=yes; operator=Metsähallitus; picnic_table=yes;
    tents=yes; toilets=yes; tourism=camp_site;
    id=node/2134901808</desc>
  </wpt>
  <wpt lat="61.1919061" lon="26.8659345">
    <name>Sukeltajaniemi</name>
    <desc>access=yes; addr:street=Kuismantie; backcountry=yes;
    capacity=4; drinking_water=no; fee=no; internet_access=no;
    name=Sukeltajaniemi; openfire=yes; operator=Metsähallitus;
    toilets=yes; tourism=camp_site; id=node/2134901809</desc>
  </wpt>
  <wpt lat="61.165147" lon="26.8367912">
    <name>Lapinsalmi</name>
    <desc>access=yes; backcountry=yes; capacity=8;
    drinking_water=no; fee=no; internet_access=no; maxtents=8;
    name=Lapinsalmi; openfire=yes; operator=Metsähallitus;
    tents=yes; toilets=yes; tourism=camp_site;
    id=node/2134901810</desc>
  </wpt>
  <wpt lat="61.1591015" lon="26.877807">
    <name>Talas</name>
    <desc>access=yes; backcountry=yes; capacity=3; dog=leashed;
    drinking_water=no; fee=no; fireplace=campfire;
    internet_access=no; name=Talas; openfire=yes;
    operator=Metsähallitus; toilets=yes; tourism=camp_site;
    id=node/2134901811</desc>
  </wpt>
  <wpt lat="61.7294858" lon="25.3002814">
    <name>Karijärvi Camping</name>
    <desc>addr:city=Jämsä; addr:housenumber=90;
    addr:postcode=42100; addr:street=Karijärventie; caravans=yes;
    name=Karijärvi Camping; phone=+358 500 241 727; tents=no;
    tourism=camp_site; website=http://www.nettilinja.fi/~jnuppula/;
    id=node/2170936015</desc>
    <link href="http://www.nettilinja.fi/~jnuppula/"></link>
  </wpt>
  <wpt lat="61.7790371" lon="23.0446061">
    <name>node/2171109915</name>
    <desc>tourism=camp_site; id=node/2171109915</desc>
  </wpt>
  <wpt lat="61.1845916" lon="26.8248603">
    <name>Karhulahti</name>
    <desc>access=yes; backcountry=yes; capacity=3; caravans=no;
    dog=leashed; drinking_water=yes; fee=no; internet_access=no;
    name=Karhulahti; openfire=yes; operator=Metsähallitus;
    picnic_table=yes; toilets=yes; tourism=camp_site;
    id=node/2185582997</desc>
  </wpt>
  <wpt lat="61.1835716" lon="26.8796034">
    <name>Kirnukangas</name>
    <desc>access=yes; backcountry=yes; bbq=yes; capacity=5; fee=no;
    maxtents=5; name=Kirnukangas; openfire=yes;
    operator=Metsähallitus; tents=yes; toilets=yes;
    tourism=camp_site; id=node/2185582998</desc>
  </wpt>
  <wpt lat="61.1570612" lon="26.8576434">
    <name>Määkijä</name>
    <desc>access=yes; backcountry=yes; capacity=2;
    capacity:persons=10; capacity:tents=4; caravans=no;
    dog=leashed; drinking_water=yes; drinking_water:type=hand_pump;
    fee=no; internet_access=no; maxtents=2; name=Määkijä;
    openfire=yes; operator=Metsähallitus; picnic_table=yes;
    static_caravans=no; tents=yes; toilets=yes; tourism=camp_site;
    id=node/2185582999</desc>
  </wpt>
  <wpt lat="61.1740575" lon="26.8665526">
    <name>Kuutinkanava</name>
    <desc>access=yes; backcountry=yes; capacity=5;
    drinking_water=yes; fee=no; internet_access=no; maxtents=5;
    name=Kuutinkanava; openfire=yes; operator=Metsähallitus;
    tents=yes; toilets=yes; tourism=camp_site;
    id=node/2185583000</desc>
  </wpt>
  <wpt lat="61.3429444" lon="27.0376613">
    <name>Mäntysaari</name>
    <desc>addr:city=Mäntyharju; backcountry=yes; capacity=6;
    fee=no; internet_access=no; name=Mäntysaari; tourism=camp_site;
    id=node/2222341358</desc>
  </wpt>
  <wpt lat="63.6362358" lon="28.4510405">
    <name>node/2286672348</name>
    <desc>backcountry=yes; fixme=is this real?; tourism=camp_site;
    id=node/2286672348</desc>
  </wpt>
  <wpt lat="61.9923698" lon="23.8934952">
    <name>Ruokejärvet</name>
    <desc>backcountry=yes; leisure=firepit; name=Ruokejärvet;
    tourism=camp_site; id=node/2312895980</desc>
  </wpt>
  <wpt lat="61.3561062" lon="24.9419675">
    <name>Telaranta</name>
    <desc>addr:city=Padasjoki; addr:housenumber=176;
    addr:postcode=17630; addr:street=Porasantie; cabins=yes;
    capacity:caravans=70; caravans=yes; contact:phone=+358 40
    0711819; contact:website=https://www.telaranta.fi/;
    name=Telaranta; shower=yes; toilets=yes; tourism=camp_site;
    id=node/2323457489</desc>
    <link href="https://www.telaranta.fi/"></link>
  </wpt>
  <wpt lat="62.7419461" lon="28.9192355">
    <name>Kolmikannan leirikeskus</name>
    <desc>addr:housenumber=51; addr:street=Rikkarannantie; fee=yes;
    group_only=yes; name=Kolmikannan leirikeskus; phone=+358 44
    7559 223; reservation=required; tourism=camp_site;
    id=node/2340214502</desc>
  </wpt>
  <wpt lat="60.67189" lon="25.9065823">
    <name>Syväjärvi</name>
    <desc>access=yes; backcountry=yes; cabins=no; capacity=2;
    caravans=no; dog=yes; fee=no; name=Syväjärvi; shower=no;
    tents=yes; toilets=yes; tourism=camp_site; unofficial=yes;
    id=node/2361912817</desc>
  </wpt>
  <wpt lat="60.362347" lon="26.7792344">
    <ele>23.0</ele>
    <name>Kaunissaari</name>
    <desc>access=yes; backcountry=yes; capacity=10; caravans=no;
    fee=no; name=Kaunissaari; openfire=yes; operator=Pyhtään kunta;
    power_supply=no; sanitary_dump_station=no; tents=yes;
    toilets=yes; tourism=camp_site; id=node/2367880131</desc>
  </wpt>
  <wpt lat="60.3315196" lon="21.8967219">
    <ele>19.0</ele>
    <name>node/2377502021</name>
    <desc>tourism=camp_site; id=node/2377502021</desc>
  </wpt>
  <wpt lat="60.4957357" lon="27.7353908">
    <name>Hurpun tila camping</name>
    <desc>caravans=yes; email=varaukset@hurpuntila.fi; name=Hurpun
    tila camping; operator=Markku Koskinen; phone=+358407018056;
    tourism=camp_site; website=https://www.hurpuntila.fi/;
    id=node/2384289057</desc>
    <link href="https://www.hurpuntila.fi/"></link>
  </wpt>
  <wpt lat="68.4808643" lon="22.2033762">
    <name>Vikkurin leirintäalue</name>
    <desc>access=yes; cabins=yes; caravans=yes;
    email=info@vikkurikoskenleirinta.fi; fee=yes; name=Vikkurin
    leirintäalue; power_supply=yes; reservation=yes; sauna=yes;
    shower=yes; static_caravans=no; tents=yes; toilets=yes;
    tourism=camp_site;
    website=https://www.vikkurikoskenleirinta.fi/;
    id=node/2402892975</desc>
    <link href="https://www.vikkurikoskenleirinta.fi/"></link>
  </wpt>
  <wpt lat="68.4889158" lon="22.2944516">
    <name>Lätäsenon majat</name>
    <desc>access=yes; addr:city=Enontekiö; addr:housenumber=4665;
    addr:postcode=99400; addr:street=Käsivarrentie; cabins=yes;
    drinking_water=yes; fee=yes; internet_access=wlan;
    internet_access:fee=no; name=Lätäsenon majat; openfire=yes;
    picnic_table=yes; playground=yes; static_caravans=no;
    toilets=yes; tourism=camp_site; id=node/2405577909</desc>
  </wpt>
  <wpt lat="61.3628381" lon="26.9345808">
    <name>Tainan laavu</name>
    <desc>backcountry=yes; capacity=3; fee=no; internet_access=no;
    name=Tainan laavu; tourism=camp_site; wheelchair=no;
    id=node/2407153476</desc>
  </wpt>
  <wpt lat="61.2441075" lon="25.2471437">
    <name>node/2411480497</name>
    <desc>backcountry=yes; impromptu=yes; tents=yes;
    tourism=camp_site; id=node/2411480497</desc>
  </wpt>
  <wpt lat="62.3073505" lon="28.7474625">
    <name>Pitkäsaari etelä telttailualue</name>
    <desc>access=yes; backcountry=yes; camp_site=basic; capacity=3;
    drinking_water=no; fee=no; name=Pitkäsaari etelä telttailualue;
    openfire=yes; operator=Metsähallitus; power_supply=no;
    shower=no; tents=yes; toilets=no; tourism=camp_site;
    id=node/2430034175</desc>
  </wpt>
  <wpt lat="67.2708903" lon="25.5352092">
    <name>node/2633535410</name>
    <desc>tourism=camp_site; id=node/2633535410</desc>
  </wpt>
  <wpt lat="60.8175559" lon="21.2734555">
    <name>Ihalan leirintäalue</name>
    <desc>addr:housenumber=825; addr:street=Lepäistentie;
    name=Ihalan leirintäalue; start_date=1964; tourism=camp_site;
    website=https://www.ihalacamping.com/;
    id=node/2686472345</desc>
    <link href="https://www.ihalacamping.com/"></link>
  </wpt>
  <wpt lat="62.5950519" lon="23.8060009">
    <name>Tuuri resorts teltta-alue</name>
    <desc>name=Tuuri resorts teltta-alue; tourism=camp_site;
    id=node/2921983303</desc>
  </wpt>
  <wpt lat="69.5092746" lon="28.5886753">
    <name>Peuralammen camping</name>
    <desc>addr:city=Ivalo; addr:housenumber=9081;
    addr:postcode=99800; addr:street=Sevettijärventie;
    capacity:caravans=6; caravans=yes; drinking_water=yes; fee=yes;
    name=Peuralammen camping; operator=Peuralammen camping;
    tents=yes; tourism=camp_site;
    website=http://www.peuralammencamping.fi/;
    id=node/2940307723</desc>
    <link href="http://www.peuralammencamping.fi/"></link>
  </wpt>
  <wpt lat="69.0923039" lon="27.1804779">
    <name>Jokitörmä</name>
    <desc>access=yes; fee=yes; name=Jokitörmä; phone=+358405205963;
    tourism=camp_site; id=node/2940356445</desc>
  </wpt>
  <wpt lat="69.1860429" lon="27.9034188">
    <name>Matkapaikka Jounila</name>
    <desc>access=yes; addr:city=Partakko; addr:housenumber=11;
    addr:street=Käyräniementie; cabins=yes; fee=yes;
    name=Matkapaikka Jounila; tourism=camp_site;
    website=http://www.jounila.fi/; id=node/2940456110</desc>
    <link href="http://www.jounila.fi/"></link>
  </wpt>
  <wpt lat="67.9060853" lon="25.0796341">
    <name>node/2940478991</name>
    <desc>tourism=camp_site; id=node/2940478991</desc>
  </wpt>
  <wpt lat="68.1567315" lon="25.7579109">
    <name>https://tieva-baari.fi</name>
    <desc>addr:city=Pokka; addr:postcode=99195;
    addr:street=Inarintie; caravans=yes; tents=yes;
    tourism=camp_site; website=https://tieva-baari.fi;
    id=node/2940485024</desc>
    <link href="https://tieva-baari.fi"></link>
  </wpt>
  <wpt lat="60.1714696" lon="19.5900375">
    <ele>19.0</ele>
    <name>Söderhagen Camping</name>
    <desc>email=s.eklund@aland.net; name=Söderhagen Camping;
    phone=+358 18 38596; tents=yes; tourism=camp_site;
    website=https://soderhagen.ax/; id=node/2951404189</desc>
    <link href="https://soderhagen.ax/"></link>
  </wpt>
  <wpt lat="60.2974952" lon="22.8665327">
    <ele>9.0</ele>
    <name>Marjaniemen leiri- ja virkistysalue</name>
    <desc>addr:housenumber=64; addr:street=Marjaniementie;
    name=Marjaniemen leiri- ja virkistysalue; tourism=camp_site;
    website=https://www.sauvo.fi/fi/palvelut/matkailu-ja-vapaa-aika/liikunta-ja-ulkoilu/marjaniemen-leiri-ja-virkistysalue/;
    id=node/2971120165</desc>
    <link href="https://www.sauvo.fi/fi/palvelut/matkailu-ja-vapaa-aika/liikunta-ja-ulkoilu/marjaniemen-leiri-ja-virkistysalue/">
    </link>
  </wpt>
  <wpt lat="60.9280189" lon="26.9146264">
    <name>Jaakonniemi</name>
    <desc>access=yes; addr:city=Utti; addr:street=Haukanmäentie;
    backcountry=yes; bbq=yes; capacity=5; caravans=no; fee=no;
    internet_access=no; name=Jaakonniemi; openfire=yes;
    operator=Kymenlaakson virkistysalueyhdistys ry; tents=yes;
    toilets=yes; tourism=camp_site;
    website=https://kyvi.fi/kohteet/kouvola/valivayla/jaakonniemi/;
    id=node/3040867531</desc>
    <link href="https://kyvi.fi/kohteet/kouvola/valivayla/jaakonniemi/">
    </link>
  </wpt>
  <wpt lat="63.2863548" lon="29.4813068">
    <name>Paalasmaa Camping</name>
    <desc>fee=yes; name=Paalasmaa Camping; tourism=camp_site;
    id=node/3056246701</desc>
  </wpt>
  <wpt lat="60.8317173" lon="24.8189774">
    <name>SFC Vantaan Talli</name>
    <desc>addr:city=Turkhauta; addr:housenumber=146;
    addr:postcode=12350; addr:street=Heinäjoentie; name=SFC Vantaan
    Talli; operator=SF-Caravan Vantaa ry; phone=+358 50 522 3902;
    source=http://www.sfc-vantaa.fi/index.html; tourism=camp_site;
    website=http://www.sfc-vantaa.fi/index.html;
    id=node/3119212381</desc>
    <link href="http://www.sfc-vantaa.fi/index.html"></link>
  </wpt>
  <wpt lat="68.1105453" lon="27.4412075">
    <name>Sompiojärven leirintäalue</name>
    <desc>access=yes; backcountry=yes; capacity=10;
    drinking_water=no; fee=no; internet_access=no;
    name=Sompiojärven leirintäalue; openfire=yes;
    operator=Metsähallitus; toilets=yes; tourism=camp_site;
    id=node/3215343884</desc>
  </wpt>
  <wpt lat="68.2562963" lon="28.2570252">
    <name>Muorravaarakka</name>
    <desc>access=yes; backcountry=yes; capacity=10;
    capacity:tents=10; drinking_water=yes; fee=no;
    name=Muorravaarakka; openfire=yes; opening_hours=24/7;
    operator=Metsähallitus; picnic_table=yes; tents=yes;
    toilets=yes; tourism=camp_site; wheelchair=no;
    id=node/3227963661</desc>
  </wpt>
  <wpt lat="68.2101679" lon="28.0241709">
    <name>Luirojärvi</name>
    <desc>access=yes; backcountry=yes; cabins=yes; capacity=10;
    capacity:persons=20; capacity:tents=10; drinking_water=boil;
    fee=no; name=Luirojärvi; openfire=yes; operator=Metsähallitus;
    sauna=yes; tents=yes; toilets=yes; tourism=camp_site;
    id=node/3228017119</desc>
  </wpt>
  <wpt lat="68.2125835" lon="27.8434261">
    <name>Tuiskukuru</name>
    <desc>access=yes; addr:city=Sodankylä; backcountry=yes;
    capacity=5; drinking_water=yes; fee=no; name=Tuiskukuru;
    openfire=yes; operator=Metsähallitus; tents=yes; toilets=yes;
    tourism=camp_site; wheelchair=no; id=node/3229357631</desc>
  </wpt>
  <wpt lat="68.3844559" lon="28.2506534">
    <name>Jyrkkävaara</name>
    <desc>access=yes; addr:city=Sodankylä; backcountry=yes;
    capacity=5; capacity:tents=5; drinking_water=boil; fee=no;
    name=Jyrkkävaara; openfire=yes; operator=Metsähallitus;
    tents=yes; toilets=yes; tourism=camp_site;
    id=node/3229656620</desc>
  </wpt>
  <wpt lat="68.0504331" lon="28.973726">
    <name>Mantoselkä</name>
    <desc>access=yes; backcountry=yes; capacity=5;
    drinking_water=yes; fee=no; name=Mantoselkä; openfire=yes;
    operator=Metsähallitus; tents=yes; toilets=yes;
    tourism=camp_site; id=node/3235950814</desc>
  </wpt>
  <wpt lat="66.6356635" lon="23.8750693">
    <name>Tolpinranta</name>
    <desc>chalets=yes; name=Tolpinranta; tourism=camp_site;
    id=node/3304905548</desc>
  </wpt>
  <wpt lat="60.7829914" lon="27.7901462">
    <name>node/3471237318</name>
    <desc>tourism=camp_site; id=node/3471237318</desc>
  </wpt>
  <wpt lat="63.2770679" lon="24.6758938">
    <name>Sysilampi</name>
    <desc>backcountry=yes; bbq=yes; cabins=yes; caravans=no;
    drinking_water=yes; motor_vehicle=no; motorhome=no;
    name=Sysilampi; openfire=yes; phone=0205 64 5270;
    reservation=no; tents=yes; toilets=yes; toilets:wheelchair=yes;
    tourism=camp_site;
    url=http://www.luontoon.fi/sysilampiautiotupa;
    id=node/3581078153</desc>
    <link href="http://www.luontoon.fi/sysilampiautiotupa"></link>
  </wpt>
  <wpt lat="60.2838234" lon="19.6010292">
    <ele>12.0</ele>
    <name>Eckerö Camping &amp; Stugor</name>
    <desc>access=yes; addr:city=Eckerö; addr:housenumber=24;
    addr:postcode=22270; addr:street=Skaguddsvägen;
    email=info@eckerocamping.ax; name=Eckerö Camping &amp; Stugor;
    phone=+358 457 3453329; tourism=camp_site;
    website=https://www.eckerocamping.ax/;
    id=node/3628965443</desc>
    <link href="https://www.eckerocamping.ax/"></link>
  </wpt>
  <wpt lat="60.187085" lon="21.4363737">
    <ele>11.0</ele>
    <name>Kittuis camping &amp; caravan</name>
    <desc>addr:housenumber=6; addr:postcode=21760;
    addr:street=Houtskärsvägen; caravans=yes; drinking_water=yes;
    internet_access=wlan; name=Kittuis camping &amp; caravan;
    phone=+358 500 534 100; power_supply=yes;
    sanitary_dump_station=yes; shower=yes; tents=yes; toilets=yes;
    tourism=camp_site;
    website=https://visithoutskar.fi/en/service/kittuis-camping-caravan/;
    id=node/3635092842</desc>
    <link href="https://visithoutskar.fi/en/service/kittuis-camping-caravan/">
    </link>
  </wpt>
  <wpt lat="63.6974647" lon="23.5262231">
    <name>Seljes Camping</name>
    <desc>addr:city=Alaveteli; addr:housenumber=204;
    addr:postcode=68410; addr:street=Seljesharju; capacity=40;
    email=info@seljes.fi; name=Seljes Camping; phone=+358 40 969
    2524; tourism=camp_site; website=https://www.seljes.fi/;
    id=node/3639956656</desc>
    <link href="https://www.seljes.fi/"></link>
  </wpt>
  <wpt lat="61.1880075" lon="28.7804585">
    <name>Vuoksen kalastuspuisto</name>
    <desc>access=yes; addr:city=Imatra; addr:housenumber=4;
    addr:postcode=55120; addr:street=Kotipolku; bbq=yes;
    cabins=yes; capacity=20; caravans=yes; drinking_water=yes;
    email=vuoksi.kalastuspuisto@co.inet.fi; fee=yes; impromptu=no;
    kitchen=yes; name=Vuoksen kalastuspuisto; openfire=no;
    operator=Vuoksen Lautturi Oy; phone=+358 5 432 3123;
    power_supply=yes; restaurant=yes; sanitary_dump_station=yes;
    sauna=yes; shower=yes; tents=yes; toilets=yes;
    tourism=camp_site; wheelchair=yes; id=node/3663841720</desc>
  </wpt>
  <wpt lat="60.1422994" lon="24.8344844">
    <ele>21.0</ele>
    <name>Käärmesaaren keittokatos</name>
    <desc>fee=no; name=Käärmesaaren keittokatos; tourism=camp_site;
    id=node/3678562714</desc>
  </wpt>
  <wpt lat="60.1451023" lon="24.8483161">
    <ele>7.0</ele>
    <name>node/3678562715</name>
    <desc>fee=no; tourism=camp_site; id=node/3678562715</desc>
  </wpt>
  <wpt lat="60.1075867" lon="24.7877518">
    <ele>6.0</ele>
    <name>node/3678562721</name>
    <desc>fee=no; tourism=camp_site; id=node/3678562721</desc>
  </wpt>
  <wpt lat="60.739539" lon="26.0940716">
    <name>Pyykkinokka</name>
    <desc>access=yes; addr:city=Artjärvi; addr:street=Porlammintie;
    backcountry=yes; capacity=3; dog=yes; fee=no; name=Pyykkinokka;
    openfire=yes; toilets=yes; tourism=camp_site;
    id=node/3773975321</desc>
  </wpt>
  <wpt lat="63.9176737" lon="23.1335317">
    <name>Hällskarin laavu</name>
    <desc>amenity=shelter; description=Laavu, jossa kolme henkilöä
    mahtuu yöpymään. Vieressä nuotiopaikka. Polttopuita ja saha
    löytyy. Lähellä pöytä ja penkit. Ei huussia.; fireplace=yes;
    floor:material=wood; name=Hällskarin laavu;
    shelter_type=lean_to; tourism=camp_site;
    id=node/3841794848</desc>
  </wpt>
  <wpt lat="60.2172265" lon="26.0083175">
    <ele>8.0</ele>
    <name>node/3955630888</name>
    <desc>tourism=camp_site; id=node/3955630888</desc>
  </wpt>
  <wpt lat="59.8721863" lon="22.2116132">
    <ele>10.0</ele>
    <name>node/3995570151</name>
    <desc>note=Authorized wild camping place; tourism=camp_site;
    id=node/3995570151</desc>
  </wpt>
  <wpt lat="60.0364702" lon="22.3304137">
    <ele>9.0</ele>
    <name>node/3996468357</name>
    <desc>note=Authorized Wild camping; tourism=camp_site;
    id=node/3996468357</desc>
  </wpt>
  <wpt lat="60.1122846" lon="21.6463346">
    <ele>11.0</ele>
    <name>Rumarstrand</name>
    <desc>addr:city=Korppoo; addr:housenumber=694;
    addr:postcode=21710; addr:street=Rumarintie;
    capacity:persons=28; caravans=yes; email=info@rumarstrand.fi;
    fee=yes; name=Rumarstrand; phone=+358 401486868; tents=yes;
    tourism=camp_site; website=https://rumarstrand.fi/;
    id=node/3996475757</desc>
    <link href="https://rumarstrand.fi/"></link>
  </wpt>
  <wpt lat="67.6475008" lon="24.9356908">
    <name>Kittilän lomamökit</name>
    <desc>addr:city=Kittilä; addr:housenumber=65;
    addr:postcode=99100; addr:street=Sodankyläntie;
    camp_site=serviced; caravans=yes; drinking_water=yes; fee=yes;
    name=Kittilän lomamökit; phone=+358 40 7368800;
    sanitary_dump_station=yes; tents=yes; tourism=camp_site;
    website=http://www.kittilanlomamokit.fi/;
    id=node/4111374984</desc>
    <link href="http://www.kittilanlomamokit.fi/"></link>
  </wpt>
  <wpt lat="65.8886597" lon="29.7025375">
    <name>node/4159830721</name>
    <desc>access=yes; backcountry=yes; fee=no; tents=yes;
    tourism=camp_site; id=node/4159830721</desc>
  </wpt>
  <wpt lat="67.1244992" lon="24.3576321">
    <name>Leirikeskus</name>
    <desc>name=Leirikeskus; tourism=camp_site;
    id=node/4161278873</desc>
  </wpt>
  <wpt lat="67.6176351" lon="23.5595833">
    <name>node/4162038680</name>
    <desc>tourism=camp_site; id=node/4162038680</desc>
  </wpt>
  <wpt lat="63.0572015" lon="29.8344579">
    <name>myllynpuro</name>
    <desc>access=yes; backcountry=yes; caravans=no;
    drinking_water=no; fee=no; name=myllynpuro; openfire=yes;
    operator=Metsähallitus; tents=yes; tourism=camp_site;
    id=node/4167691190</desc>
  </wpt>
  <wpt lat="68.4902209" lon="25.887532">
    <name>Sallivaara</name>
    <desc>access=yes; backcountry=yes; capacity=10;
    drinking_water=no; fee=no; name=Sallivaara; openfire=yes;
    operator=Metsähallitus; toilets=yes; tourism=camp_site;
    id=node/4176685868</desc>
  </wpt>
  <wpt lat="60.2973878" lon="21.0487874">
    <ele>4.0</ele>
    <name>node/4255016910</name>
    <desc>backcountry=yes; tourism=camp_site;
    id=node/4255016910</desc>
  </wpt>
  <wpt lat="61.5645547" lon="29.5608776">
    <name>Siikajärvi</name>
    <desc>access=yes; backcountry=yes; fee=no; name=Siikajärvi;
    tents=yes; tourism=camp_site; id=node/4259442937</desc>
  </wpt>
  <wpt lat="69.4050625" lon="26.1454375">
    <name>Luopmošjohka</name>
    <desc>access=yes; backcountry=yes; capacity=5;
    drinking_water=yes; fee=no; fireplace=yes; name=Luopmošjohka;
    name:fi=Luomusjoki; openfire=yes; operator=Metsähallitus;
    tents=yes; toilets=yes; tourism=camp_site;
    id=node/4269698461</desc>
  </wpt>
  <wpt lat="69.3505305" lon="26.5159797">
    <name>node/4272328125</name>
    <desc>access=yes; fee=yes; tourism=camp_site;
    id=node/4272328125</desc>
  </wpt>
  <wpt lat="61.2843189" lon="27.6732034">
    <name>Hiekkalahti</name>
    <desc>backcountry=yes; fee=no; impromptu=yes; name=Hiekkalahti;
    tourism=camp_site; id=node/4303470824</desc>
  </wpt>
  <wpt lat="61.6242892" lon="27.9133809">
    <name>node/4303472041</name>
    <desc>backcountry=yes; capacity=1; tourism=camp_site;
    id=node/4303472041</desc>
  </wpt>
  <wpt lat="61.2055372" lon="25.1228275">
    <name>Evon leirialue</name>
    <desc>access=customers; addr:city=Evo; addr:postcode=16970;
    addr:street=Saukonojantie; bbq=yes; cabins=no; camp_site=basic;
    capacity=17000; capacity:persons=10000; caravans=no;
    drinking_water=yes; fee=yes; group_only=yes; hot_water=no;
    name=Evon leirialue; note=Kajo Finnjamboree 15-23.07.2022;
    https://kajo2022.fi; openfire=yes; operator=Metsähallitus;
    picnic_table=yes; power_supply=no; reservation=required;
    sanitary_dump_station=no; scout=yes; shower=no;
    static_caravans=no; tents=yes; toilets=yes; tourism=camp_site;
    website=https://www.luontoon.fi/evo/palvelut/evonleirialue;
    wikidata=Q11859214; wikipedia=fi:Evon nuorisoleirikeskus;
    id=node/4313088220</desc>
    <link href="https://www.luontoon.fi/evo/palvelut/evonleirialue">
    </link>
  </wpt>
  <wpt lat="60.4246115" lon="21.0450395">
    <name>Brändö Stugby</name>
    <desc>addr:postcode=22920; addr:street=Byvägen; name=Brändö
    Stugby; name:fi=Brändö Stugby; name:ru=Кемпинг Brändö;
    name:sv=Brändö Stugby; operator=Margaretha o Lars Pettersson;
    phone=+3581856221; tourism=camp_site; id=node/4369536592</desc>
  </wpt>
  <wpt lat="67.9757507" lon="29.0650086">
    <name>Naltiojoki</name>
    <desc>access=yes; backcountry=yes; capacity=6;
    drinking_water=yes; fee=no; name=Naltiojoki; openfire=yes;
    operator=Metsähallitus; tents=yes; toilets=yes;
    tourism=camp_site; id=node/4375854262</desc>
  </wpt>
  <wpt lat="68.1260074" lon="28.562182">
    <name>Tahvontupa</name>
    <desc>access=yes; addr:city=Savukoski; backcountry=yes;
    capacity=5; capacity:tents=5; drinking_water=yes; fee=no;
    name=Tahvontupa; openfire=yes; operator=Metsähallitus;
    sauna=yes; tents=yes; toilets=yes; tourism=camp_site;
    id=node/4376217057</desc>
  </wpt>
  <wpt lat="67.8973052" lon="29.2622326">
    <name>Hirvashauta</name>
    <desc>access=yes; backcountry=yes; capacity=5;
    drinking_water=yes; fee=no; name=Hirvashauta; openfire=yes;
    operator=Metsähallitus; toilets=yes; tourism=camp_site;
    id=node/4377551719</desc>
  </wpt>
  <wpt lat="67.9151462" lon="29.2251418">
    <name>Karhuoja</name>
    <desc>access=yes; backcountry=yes; capacity=5;
    drinking_water=yes; fee=no; name=Karhuoja; openfire=yes;
    operator=Metsähallitus; sauna=yes; tents=yes; toilets=yes;
    tourism=camp_site; id=node/4377585769</desc>
  </wpt>
  <wpt lat="67.9669613" lon="29.4368728">
    <name>Saiho</name>
    <desc>access=yes; backcountry=yes; capacity=5;
    drinking_water=yes; fee=no; name=Saiho; openfire=yes;
    operator=Metsähallitus; tents=yes; toilets=yes;
    tourism=camp_site; id=node/4377665011</desc>
  </wpt>
  <wpt lat="65.7764482" lon="27.7010798">
    <name>Rytitupa</name>
    <desc>backcountry=yes; capacity=5; fee=no; name=Rytitupa;
    name:fi=Rytitupa; operator=Metsähallitus; tourism=camp_site;
    id=node/4377874089</desc>
  </wpt>
  <wpt lat="67.0955416" lon="29.1119133">
    <name>Naruskan lomamökit</name>
    <desc>access=yes; addr:city=Salla; addr:housenumber=103;
    addr:street=Naruskantie; bbq=yes; cabins=yes; caravans=yes;
    fee=yes; name=Naruskan lomamökit; power_supply=yes;
    reservation=yes; sanitary_dump_station=no; sauna=yes;
    tents=yes; toilets=yes; tourism=camp_site;
    id=node/4378239825</desc>
  </wpt>
  <wpt lat="66.4097229" lon="29.1880662">
    <name>Taivalköngäs telttailualue</name>
    <desc>access=yes; backcountry=yes; bbq=yes; capacity=10;
    drinking_water=treated; fee=no; internet_access=no;
    name=Taivalköngäs telttailualue; openfire=yes;
    operator=Metsähallitus; reservation=no; toilets=yes;
    tourism=camp_site; id=node/4394670455</desc>
  </wpt>
  <wpt lat="61.6432295" lon="28.7120701">
    <name>node/4452252289</name>
    <desc>tourism=camp_site; id=node/4452252289</desc>
  </wpt>
  <wpt lat="63.1589337" lon="29.8347069">
    <name>Loma Koli</name>
    <desc>backcountry=no; name=Loma Koli; phone=+358 45 270 9100;
    tourism=camp_site; website=http://www.lomakoli.fi/;
    id=node/4542691623</desc>
    <link href="http://www.lomakoli.fi/"></link>
  </wpt>
  <wpt lat="60.5822533" lon="24.0750524">
    <name>Metsäcamping</name>
    <desc>fee=yes; name=Metsäcamping; operator=Vähäveden tila;
    source=https://www.vahavedentila.fi; tourism=camp_site;
    website=https://www.vahavedentila.fi/;
    id=node/4706010994</desc>
    <link href="https://www.vahavedentila.fi/"></link>
  </wpt>
  <wpt lat="68.8568599" lon="27.1262164">
    <name>node/4786846321</name>
    <desc>name:en=Parking lookout; tourism=camp_site;
    id=node/4786846321</desc>
  </wpt>
  <wpt lat="60.6720225" lon="24.3218395">
    <name>Luutasuon reitit</name>
    <desc>name=Luutasuon reitit; name:fi=Luutasuon reitit;
    tourism=camp_site; id=node/4817827021</desc>
  </wpt>
  <wpt lat="59.9794365" lon="23.9113174">
    <ele>13.0</ele>
    <name>Elisaaren leirintäalue</name>
    <desc>name=Elisaaren leirintäalue; tourism=camp_site;
    id=node/4908026225</desc>
  </wpt>
  <wpt lat="60.1796206" lon="21.8725935">
    <ele>14.0</ele>
    <name>https://uttishome.com/en/home/</name>
    <desc>tourism=camp_site;
    website=https://uttishome.com/en/home/;
    id=node/4971060290</desc>
    <link href="https://uttishome.com/en/home/"></link>
  </wpt>
  <wpt lat="60.0372264" lon="24.4264048">
    <ele>20.0</ele>
    <name>Hilan Leirikeskus</name>
    <desc>addr:city=Kirkkonummi; addr:housenumber=50;
    addr:postcode=02480; addr:street=Saarentie; name=Hilan
    Leirikeskus; name:fi=Hilan leirikeskus; name:sv=Hila
    lägercentrum; tourism=camp_site; id=node/4993500583</desc>
  </wpt>
  <wpt lat="60.5586477" lon="25.2781672">
    <name>node/5022812924</name>
    <desc>backcountry=yes; capacity=2; fee=no; internet_access=no;
    tourism=camp_site; id=node/5022812924</desc>
  </wpt>
  <wpt lat="66.2043144" lon="29.1298546">
    <name>Viipuksen Leirintäalue</name>
    <desc>access=yes; addr:city=Kuusamo; addr:housenumber=1;
    addr:postcode=93999; addr:street=Viipusjärventie; bbq=yes;
    cabins=yes; caravans=yes; description=Seasonal camping and
    bungalows. Relatively cheap, with electricity, baths, sauna,
    cooking place.; fee=yes; kitchen=yes; name=Viipuksen
    Leirintäalue; operator=Tuomo Aikkila; phone=+358 40 586 6251;
    power_supply=yes; sauna=yes; shower=yes; tents=yes;
    toilets=yes; tourism=camp_site; website=http://www.viipus.fi/;
    id=node/5065174742</desc>
    <link href="http://www.viipus.fi/"></link>
  </wpt>
  <wpt lat="66.2474854" lon="24.9018724">
    <name>Wild Lapland</name>
    <desc>access=yes; addr:city=Tervola; addr:postcode=97140;
    addr:street=Kätkävaarantie; bbq=yes; camp_site=serviced;
    capacity:caravans=60; capacity:tents=20; caravans=yes; fee=yes;
    kitchen=yes; name=Wild Lapland; name:en=Wild Lappland;
    restaurant=yes; sauna=yes; shower=yes; tents=yes; toilets=yes;
    tourism=camp_site; washing_machine=yes;
    id=node/5071427221</desc>
  </wpt>
  <wpt lat="68.7242095" lon="26.0741727">
    <name>node/5109506800</name>
    <desc>backcountry=yes; fee=no; internet_access=no;
    tourism=camp_site; id=node/5109506800</desc>
  </wpt>
  <wpt lat="68.7252085" lon="26.073689">
    <name>node/5109552447</name>
    <desc>backcountry=yes; fee=no; internet_access=no;
    tourism=camp_site; id=node/5109552447</desc>
  </wpt>
  <wpt lat="68.7143289" lon="26.0346417">
    <name>Härkäjärvi</name>
    <desc>backcountry=yes; fee=no; internet_access=no;
    name=Härkäjärvi; tourism=camp_site; id=node/5109552492</desc>
  </wpt>
  <wpt lat="68.7020823" lon="25.9134678">
    <name>Ravadasniemi</name>
    <desc>access=yes; backcountry=yes; drinking_water=yes; fee=no;
    internet_access=no; name=Ravadasniemi; operator=Metsähallitus;
    tents=yes; toilets=yes; tourism=camp_site;
    id=node/5109552494</desc>
  </wpt>
  <wpt lat="68.7097549" lon="25.8465266">
    <name>Máttit Ravadas</name>
    <desc>access=yes; backcountry=yes; drinking_water=yes; fee=no;
    internet_access=no; name=Máttit Ravadas; openfire=yes;
    operator=Metsähallitus; tents=yes; tourism=camp_site;
    id=node/5109552495</desc>
  </wpt>
  <wpt lat="68.6511144" lon="25.8320166">
    <name>Kapsuoja</name>
    <desc>access=yes; backcountry=yes; drinking_water=yes; fee=no;
    internet_access=no; name=Kapsuoja; openfire=yes;
    operator=Metsähallitus; toilets=yes; tourism=camp_site;
    id=node/5109552511</desc>
  </wpt>
  <wpt lat="68.6622625" lon="25.9011844">
    <name>Morgamniva</name>
    <desc>access=yes; backcountry=yes; drinking_water=yes; fee=no;
    internet_access=no; name=Morgamniva; operator=Metsähallitus;
    toilets=yes; tourism=camp_site; id=node/5109552512</desc>
  </wpt>
  <wpt lat="63.1534283" lon="22.2691179">
    <name>Camping Norrvalla</name>
    <desc>addr:postcode=66600; caravans=yes; internet_access=wlan;
    motorhome=yes; name=Camping Norrvalla; operator=Husbilar och
    husvagnar; phone=+358 6 383 1012; shower=yes; tents=yes;
    toilets=yes; tourism=camp_site;
    website=https://www.folkhalsan.fi/en/kop-och-hyr/boende/overnattning/vora---camping/;
    id=node/5110638025</desc>
    <link href="https://www.folkhalsan.fi/en/kop-och-hyr/boende/overnattning/vora---camping/">
    </link>
  </wpt>
  <wpt lat="61.3950716" lon="25.4462137">
    <name>Likolahti</name>
    <desc>backcountry=yes; fireplace=yes; name=Likolahti;
    tourism=camp_site; id=node/5117207550</desc>
  </wpt>
  <wpt lat="62.731217" lon="21.176994">
    <name>Harrström Camping</name>
    <desc>backcountry=no; bar=no; caravans=yes; drinking_water=yes;
    group_only=no; internet_access=no; name=Harrström Camping;
    power_supply=yes; sanitary_dump_station=no; shower=yes;
    tents=yes; toilets=yes; tourism=camp_site; wheelchair=no;
    id=node/5126397560</desc>
  </wpt>
  <wpt lat="61.713869" lon="24.9665662">
    <name>Kalalahti telttailualue</name>
    <desc>backcountry=yes; capacity=5; fee=no; internet_access=no;
    name=Kalalahti telttailualue; operator=Metsähallitus;
    tourism=camp_site; id=node/5247285325</desc>
  </wpt>
  <wpt lat="61.7200165" lon="24.9700844">
    <name>Renusaari telttailualue</name>
    <desc>backcountry=yes; capacity=5; fee=no; internet_access=no;
    name=Renusaari telttailualue; operator=Metsähallitus;
    tourism=camp_site; id=node/5247285430</desc>
  </wpt>
  <wpt lat="61.7014742" lon="25.0106021">
    <name>Vahterjärvi telttailupaikka</name>
    <desc>backcountry=yes; capacity=5; fee=no; internet_access=no;
    name=Vahterjärvi telttailupaikka; operator=Metsähallitus;
    tourism=camp_site; id=node/5247285664</desc>
  </wpt>
  <wpt lat="60.2822457" lon="27.3126136">
    <ele>10.0</ele>
    <name>Kilpisaari telttailualue</name>
    <desc>access=yes; backcountry=yes; bbq=yes; camp_site=basic;
    capacity=5; capacity:tents=6; caravans=no; drinking_water=no;
    fee=no; internet_access=no; name=Kilpisaari telttailualue;
    openfire=no; operator=Metsähallitus; static_caravans=no;
    tents=yes; toilets=yes; tourism=camp_site;
    id=node/5247561871</desc>
  </wpt>
  <wpt lat="60.8320982" lon="27.3228766">
    <name>Ruislehdonmäen leirialue</name>
    <desc>access=customers; addr:city=Saaramaa;
    addr:housenumber=106; addr:postcode=46570;
    addr:street=Honkalankuja; backcountry=yes; bbq=yes;
    drinking_water=yes; internet_access=no; kitchen=yes;
    name=Ruislehdonmäen leirialue; openfire=yes;
    operator=Kymenlaakson Partiopiiri ry; power_supply=no;
    sanitary_dump_station=no; scout=yes; tents=only; toilets=yes;
    tourism=camp_site;
    website=http://kymenlaaksonpartiopiiri.fi/leirialue/;
    wheelchair=yes; id=node/5365928181</desc>
    <link href="http://kymenlaaksonpartiopiiri.fi/leirialue/">
    </link>
  </wpt>
  <wpt lat="61.1591824" lon="26.8371746">
    <name>Repovesi</name>
    <desc>access=yes; backcountry=yes; fee=no; internet_access=no;
    name=Repovesi; tourism=camp_site; id=node/5428135921</desc>
  </wpt>
  <wpt lat="67.7313819" lon="27.5788704">
    <name>Löytöaronniemi</name>
    <desc>backcountry=yes; capacity=5; fee=no; internet_access=no;
    name=Löytöaronniemi; tourism=camp_site;
    id=node/5522688093</desc>
  </wpt>
  <wpt lat="67.5966649" lon="27.2897698">
    <name>Voutavaarankoski</name>
    <desc>access=yes; backcountry=yes; capacity=5; fee=no;
    internet_access=no; name=Voutavaarankoski; tents=yes;
    tourism=camp_site; id=node/5528537605</desc>
  </wpt>
  <wpt lat="61.1704234" lon="28.3826476">
    <name>node/5636204388</name>
    <desc>backcountry=yes; impromptu=yes; tourism=camp_site;
    id=node/5636204388</desc>
  </wpt>
  <wpt lat="60.7402145" lon="22.4146608">
    <name>Metsähallitus</name>
    <desc>operator=Metsähallitus; tents=yes; tourism=camp_site;
    id=node/5810670822</desc>
  </wpt>
  <wpt lat="61.9298253" lon="23.4758135">
    <name>node/5821548708</name>
    <desc>tourism=camp_site; id=node/5821548708</desc>
  </wpt>
  <wpt lat="60.7431254" lon="22.3900795">
    <name>node/5825319333</name>
    <desc>source=survey,gps; tourism=camp_site;
    id=node/5825319333</desc>
  </wpt>
  <wpt lat="63.3501043" lon="22.0068825">
    <name>Sandskatan Campground</name>
    <desc>bin=yes; caravans=yes; fireplace=yes; internet_access=no;
    name=Sandskatan Campground; note=Voluntary payment;
    operator=Österö-Västerö Society; tents=yes; toilets=yes;
    tourism=camp_site; wheelchair=limited;
    id=node/5827927922</desc>
  </wpt>
  <wpt lat="62.1633717" lon="22.1372507">
    <name>node/5833521037</name>
    <desc>tourism=camp_site; id=node/5833521037</desc>
  </wpt>
  <wpt lat="61.9562643" lon="25.1495402">
    <name>Rasua Camping</name>
    <desc>access=permissive; addr:city=Jämsänkoski;
    addr:housenumber=383; addr:postcode=42300;
    addr:street=Koskenpääntie; caravans=yes; drinking_water=yes;
    email=iida@rasua.net; fee=yes; name=Rasua Camping;
    payment:cash=yes; payment:credit_cards=yes;
    payment:debit_cards=yes; phone=+358 40 0455514;
    power_supply=yes; sanitary_dump_station=yes; shower=yes;
    static_caravans=yes; tents=yes; toilets=yes; tourism=camp_site;
    website=https://www.facebook.com/rasuarelaxoy/;
    id=node/5853282989</desc>
    <link href="https://www.facebook.com/rasuarelaxoy/"></link>
  </wpt>
  <wpt lat="64.1330395" lon="25.3580813">
    <name>Kylpyläsaari Camping</name>
    <desc>addr:city=Haapavesi; addr:housenumber=61;
    addr:postcode=86600; addr:street=Nivalantie;
    email=kylpylasaari@outlook.com; name=Kylpyläsaari Camping;
    phone=+358 45 8028602; tourism=camp_site;
    id=node/5901310359</desc>
  </wpt>
  <wpt lat="63.150468" lon="29.8424238">
    <name>Holiday Koli Camping</name>
    <desc>addr:city=Lieksa; addr:country=FI; addr:housenumber=12;
    addr:postcode=83960; addr:street=Hiekkaniementie;
    email=camping@visitkoli.fi; impromptu=no; name=Holiday Koli
    Camping; phone=+358 207532300,+358 400818652;
    tourism=camp_site; website=https://www.visitkoli.fi/camping;
    id=node/5903776456</desc>
    <link href="https://www.visitkoli.fi/camping"></link>
  </wpt>
  <wpt lat="63.0357461" lon="29.9208395">
    <name>Ylä-Murhi</name>
    <desc>backcountry=yes; name=Ylä-Murhi; operator=Metsähallitus;
    tourism=camp_site; id=node/5933889805</desc>
  </wpt>
  <wpt lat="63.1485477" lon="30.7472312">
    <name>Lapinniemi telttailualue</name>
    <desc>access=yes; backcountry=yes; fee=no; internet_access=no;
    name=Lapinniemi telttailualue; openfire=yes;
    operator=Metsähallitus; toilets=yes; tourism=camp_site;
    id=node/5948350841</desc>
  </wpt>
  <wpt lat="60.3704246" lon="22.5128891">
    <name>
    http://www.visitkaarina.fi/enjoy/en_GB/recreation_camping/</name>
    <desc>camp_site=serviced; tourism=camp_site;
    website=http://www.visitkaarina.fi/enjoy/en_GB/recreation_camping/;
    id=node/5964998168</desc>
    <link href="http://www.visitkaarina.fi/enjoy/en_GB/recreation_camping/">
    </link>
  </wpt>
  <wpt lat="66.3908783" lon="29.2502048">
    <name>Runsulammen telttailualue</name>
    <desc>access=yes; backcountry=yes; capacity=5; fee=no;
    name=Runsulammen telttailualue; operator=Metsähallitus;
    tourism=camp_site; id=node/5971880078</desc>
  </wpt>
  <wpt lat="66.3691553" lon="29.3374717">
    <name>Kiutaköngäs telttailualue</name>
    <desc>access=yes; backcountry=yes; capacity=5; fee=no;
    name=Kiutaköngäs telttailualue; operator=Metsähallitus;
    tourism=camp_site; id=node/5972198551</desc>
  </wpt>
  <wpt lat="60.4049908" lon="26.5660701">
    <name>node/5978200864</name>
    <desc>backcountry=yes; tourism=camp_site;
    id=node/5978200864</desc>
  </wpt>
  <wpt lat="62.1150079" lon="28.6040425">
    <name>Oravi Caravan Camping</name>
    <desc>access=yes; addr:city=Oravi; addr:country=FI;
    addr:housenumber=27; addr:postcode=58130;
    addr:street=Kiramontie; camp_site=serviced; caravans=yes;
    dog=no; drinking_water=yes; dryer=yes;
    email=oravi@saimaaholiday.net; fee=yes; internet_access=wlan;
    internet_access:fee=no; kitchen=no; name=Oravi Caravan Camping;
    naturism=no; operator=SaimaaHoliday Oravi; payment:cash=no;
    payment:girocard=no; payment:mastercard=no; payment:visa=no;
    phone=+358 44 274 7078; power_supply=yes; restaurant=yes;
    sanitary_dump_station=no; sauna=yes; shower=yes; tents=yes;
    toilets=yes; tourism=camp_site; washing_machine=yes;
    waste_disposal=yes;
    website=https://www.oravivillage.com/en/Oravi/Caravan-camping;
    id=node/6163440157</desc>
    <link href="https://www.oravivillage.com/en/Oravi/Caravan-camping">
    </link>
  </wpt>
  <wpt lat="62.5789902" lon="31.1764225">
    <name>node/6168665198</name>
    <desc>fee=yes; internet_access=wlan; payment:cash=yes;
    payment:credit_cards=yes; tourism=camp_site;
    id=node/6168665198</desc>
  </wpt>
  <wpt lat="68.2539234" lon="27.6237167">
    <name>Suomunruoktu</name>
    <desc>access=yes; backcountry=yes; capacity=8; fee=no;
    name=Suomunruoktu; openfire=yes; operator=Metsähallitus;
    toilets=yes; tourism=camp_site; id=node/6295786074</desc>
  </wpt>
  <wpt lat="61.8566342" lon="27.9327583">
    <name>Haravaniemi telttailualue</name>
    <desc>access=yes; backcountry=yes; capacity=3;
    drinking_water=no; fee=no; name=Haravaniemi telttailualue;
    openfire=yes; toilets=yes; tourism=camp_site;
    id=node/6475795504</desc>
  </wpt>
  <wpt lat="61.8575503" lon="28.0016612">
    <name>Riemiö telttailualue</name>
    <desc>access=yes; backcountry=yes; capacity=5;
    drinking_water=no; fee=no; name=Riemiö telttailualue;
    openfire=yes; tents=yes; toilets=yes; tourism=camp_site;
    id=node/6475974764</desc>
  </wpt>
  <wpt lat="62.1165886" lon="28.4813795">
    <name>Perpulanluhta telttailualue</name>
    <desc>access=yes; backcountry=yes; capacity=5;
    drinking_water=no; fee=no; name=Perpulanluhta telttailualue;
    openfire=yes; operator=Metsähallitus; tents=yes; toilets=yes;
    tourism=camp_site; id=node/6531715056</desc>
  </wpt>
  <wpt lat="66.5126091" lon="27.2418311">
    <name>Matkatupa Camping</name>
    <desc>access=yes; addr:city=Luusua; addr:housenumber=2661;
    addr:postcode=98230; addr:street=Luusuantie; cabins=yes;
    cafe=yes; camp_site=standard; caravans=yes; charge=22€;
    email=matkatupa@pp.nic.fi; fee=yes; name=Matkatupa Camping;
    name:en=Matkatupa Camping; name:fi=Matkatupa Camping;
    operator=Matkatupa Kelloniemi Ay; phone=+358 40 578 8795;
    power_supply=yes; reservation=yes; sauna=yes; tents=yes;
    tourism=camp_site; was:website=http://www.matkatupa.fi;
    id=node/6538832387</desc>
    <link href="http://www.matkatupa.fi"></link>
  </wpt>
  <wpt lat="62.0954176" lon="28.4630792">
    <name>Mäntyluoto telttailualue</name>
    <desc>access=yes; addr:city=Rantasalmi; backcountry=yes;
    capacity:tents=2; drinking_water=no; fee=no; name=Mäntyluoto
    telttailualue; openfire=yes; opening_hours=24/7;
    operator=Metsähallitus; tents=yes; toilets=yes;
    tourism=camp_site; wheelchair=no; id=node/6541846752</desc>
  </wpt>
  <wpt lat="62.1146322" lon="28.3767282">
    <name>Pieni-Lappi telttailualue</name>
    <desc>access=yes; addr:city=Rantasalmi; backcountry=yes;
    capacity:tents=5; drinking_water=no; fee=no; name=Pieni-Lappi
    telttailualue; openfire=yes; operator=Metsähallitus; tents=yes;
    toilets=yes; tourism=camp_site; wheelchair=no;
    id=node/6541846758</desc>
  </wpt>
  <wpt lat="59.9466217" lon="21.7617217">
    <ele>13.0</ele>
    <name>Camping</name>
    <desc>name=Camping; tourism=camp_site;
    id=node/6569450985</desc>
  </wpt>
  <wpt lat="61.104363" lon="25.4921009">
    <name>Ranta</name>
    <desc>name=Ranta; tourism=camp_site; id=node/6634779886</desc>
  </wpt>
  <wpt lat="69.6666389" lon="29.1120042">
    <name>Näätämö Gateway</name>
    <desc>name=Näätämö Gateway; opening_hours=closed;
    tourism=camp_site; id=node/6689521385</desc>
  </wpt>
  <wpt lat="60.2331176" lon="19.8039937">
    <ele>9.0</ele>
    <name>Söderö Stugby</name>
    <desc>name=Söderö Stugby; tourism=camp_site;
    website=http://www.sodero.ax; id=node/6721299053</desc>
    <link href="http://www.sodero.ax"></link>
  </wpt>
  <wpt lat="61.6083033" lon="27.8955866">
    <name>node/6737812685</name>
    <desc>backcountry=yes; tourism=camp_site;
    id=node/6737812685</desc>
  </wpt>
  <wpt lat="61.5790279" lon="27.8537038">
    <name>node/6739027187</name>
    <desc>backcountry=yes; tourism=camp_site;
    id=node/6739027187</desc>
  </wpt>
  <wpt lat="60.382144" lon="27.505462">
    <name>Lanskeri telttailualue</name>
    <desc>access=yes; backcountry=yes; bbq=yes; capacity=5;
    drinking_water=no; fee=no; name=Lanskeri telttailualue;
    openfire=yes; operator=Metsähallitus; tents=yes; toilets=yes;
    tourism=camp_site; id=node/6895406597</desc>
  </wpt>
  <wpt lat="60.4495896" lon="27.6320852">
    <name>Suuri-Pisi telttailualue</name>
    <desc>access=yes; backcountry=yes; capacity=5; fee=no;
    name=Suuri-Pisi telttailualue; operator=Metsähallitus;
    tourism=camp_site; id=node/6895488375</desc>
  </wpt>
  <wpt lat="68.47496" lon="27.5694842">
    <name>Moitakuru</name>
    <desc>access=yes; backcountry=yes; capacity=5; fee=no;
    internet_access=no; name=Moitakuru; openfire=yes;
    operator=Metsähallitus; toilets=yes; tourism=camp_site;
    id=node/7001919019</desc>
  </wpt>
  <wpt lat="65.5142339" lon="29.4857701">
    <name>Teerirannan leirintä</name>
    <desc>access=yes; addr:city=Kuusamo; addr:housenumber=251;
    addr:street=Kurvisentie; fee=yes; fixme=is this here?;
    name=Teerirannan leirintä; tourism=camp_site;
    id=node/7095417122</desc>
  </wpt>
  <wpt lat="61.3402685" lon="25.4720798">
    <name>Hinttolanhiekka</name>
    <desc>access=yes; backcountry=yes; fee=no;
    name=Hinttolanhiekka; openfire=yes; operator=Metsähallitus;
    tourism=camp_site; id=node/7116381701</desc>
  </wpt>
  <wpt lat="60.3048217" lon="27.3988272">
    <ele>11.0</ele>
    <name>Koivuluoto</name>
    <desc>access=yes; backcountry=yes; camp_site=basic; capacity=5;
    capacity:tents=6; caravans=no; drinking_water=no; fee=no;
    name=Koivuluoto; openfire=yes; operator=Metsähallitus;
    static_caravans=no; tents=yes; toilets=yes; tourism=camp_site;
    id=node/7147222979</desc>
  </wpt>
  <wpt lat="62.2077337" lon="28.9183736">
    <name>Lohilahti länsi telttailualue</name>
    <desc>access=yes; backcountry=yes; camp_site=basic;
    drinking_water=no; fee=no; name=Lohilahti länsi telttailualue;
    openfire=yes; operator=Metsähallitus; tents=yes; toilets=yes;
    tourism=camp_site; id=node/7150914929</desc>
  </wpt>
  <wpt lat="62.3085325" lon="28.7456013">
    <name>Pitkäsaari pohjoinen telttailualue</name>
    <desc>access=yes; backcountry=yes; camp_site=basic; capacity=5;
    drinking_water=no; fee=no; name=Pitkäsaari pohjoinen
    telttailualue; openfire=yes; operator=Metsähallitus;
    power_supply=no; shower=no; tents=yes; toilets=no;
    tourism=camp_site; id=node/7151125315</desc>
  </wpt>
  <wpt lat="61.929311" lon="25.638291">
    <name>Pirttisaari telttailualue</name>
    <desc>access=yes; backcountry=yes; drinking_water=no; fee=no;
    name=Pirttisaari telttailualue; sauna=yes; tents=yes;
    toilets=yes; tourism=camp_site; id=node/7156118284</desc>
  </wpt>
  <wpt lat="61.7934024" lon="25.5276762">
    <name>Vuorissalo telttailualue</name>
    <desc>access=yes; backcountry=yes; bbq=yes; drinking_water=no;
    fee=no; name=Vuorissalo telttailualue; openfire=no;
    operator=Päijänteen virkistysalueyhdistys ry; tents=yes;
    toilets=yes; tourism=camp_site; id=node/7156564350</desc>
  </wpt>
  <wpt lat="61.5357259" lon="28.8127629">
    <name>Mikonpolvi</name>
    <desc>access=yes; backcountry=yes; camp_site=basic; capacity=3;
    capacity:persons=10; capacity:tents=5; caravans=no;
    drinking_water=boil; fee=no; name=Mikonpolvi; openfire=yes;
    static_caravans=no; tents=yes; tourism=camp_site;
    id=node/7157211938</desc>
  </wpt>
  <wpt lat="61.5230363" lon="28.5226153">
    <name>Hiekkaniemi</name>
    <desc>access=yes; backcountry=no; capacity=5;
    drinking_water=no; fee=no; name=Hiekkaniemi; openfire=yes;
    tents=yes; toilets=yes; tourism=camp_site;
    id=node/7157211966</desc>
  </wpt>
  <wpt lat="68.3948948" lon="28.1536628">
    <name>Snellmanninmaja</name>
    <desc>access=yes; addr:city=Sodankylä; backcountry=yes;
    capacity=5; drinking_water=no; fee=no; name=Snellmanninmaja;
    openfire=no; operator=Metsähallitus; tents=yes; toilets=yes;
    tourism=camp_site; id=node/7160917207</desc>
  </wpt>
  <wpt lat="68.3910643" lon="28.0641263">
    <name>Aittajärvi</name>
    <desc>access=yes; addr:city=Sodankylä; backcountry=yes;
    capacity=7; dog=leashed; drinking_water=boil; fee=no;
    name=Aittajärvi; openfire=yes; operator=Metsähallitus;
    tents=yes; toilets=yes; tourism=camp_site; wheelchair=yes;
    id=node/7160917208</desc>
  </wpt>
  <wpt lat="68.032552" lon="28.7232166">
    <name>Härkävaara</name>
    <desc>access=yes; addr:city=Savukoski; backcountry=yes;
    capacity=3; drinking_water=yes; fee=no; name=Härkävaara;
    openfire=yes; operator=Metsähallitus; sauna=yes; tents=yes;
    toilets=yes; tourism=camp_site; id=node/7161298105</desc>
  </wpt>
  <wpt lat="68.0835119" lon="28.0043647">
    <name>Tammikämppä</name>
    <desc>access=yes; addr:city=Sodankylä; backcountry=yes;
    capacity=2; fee=no; name=Tammikämppä; operator=Metsähallitus;
    tourism=camp_site; id=node/7161322616</desc>
  </wpt>
  <wpt lat="68.128062" lon="28.4629085">
    <name>Siulanruoktu</name>
    <desc>access=yes; addr:city=Sodankylä; backcountry=yes;
    capacity=5; drinking_water=yes; fee=no; name=Siulanruoktu;
    openfire=yes; operator=Metsähallitus; tents=yes; toilets=yes;
    tourism=camp_site; wheelchair=no; id=node/7163563630</desc>
  </wpt>
  <wpt lat="68.3140627" lon="28.1099002">
    <name>Sarvioja</name>
    <desc>access=yes; addr:city=Sodankylä; backcountry=yes;
    drinking_water=yes; fee=no; name=Sarvioja; openfire=yes;
    operator=Metsähallitus; tents=yes; toilets=yes;
    tourism=camp_site; id=node/7164948989</desc>
  </wpt>
  <wpt lat="68.341019" lon="27.8866894">
    <name>Porttikoski</name>
    <desc>access=yes; backcountry=yes; capacity=5;
    drinking_water=yes; fee=no; name=Porttikoski; openfire=yes;
    operator=Metsähallitus; tents=yes; toilets=yes;
    tourism=camp_site; id=node/7164948990</desc>
  </wpt>
  <wpt lat="68.3089579" lon="27.8128221">
    <name>Lankojärvi</name>
    <desc>access=yes; backcountry=yes; capacity=5;
    capacity:tents=5; drinking_water=yes; fee=no; name=Lankojärvi;
    openfire=yes; operator=Metsähallitus; tents=yes; toilets=yes;
    tourism=camp_site; id=node/7164949023</desc>
  </wpt>
  <wpt lat="68.2504369" lon="28.4532004">
    <name>Anterinmukka</name>
    <desc>access=yes; backcountry=yes; capacity=5;
    drinking_water=yes; fee=no; name=Anterinmukka; openfire=yes;
    operator=Metsähallitus; sauna=yes; tents=yes; toilets=yes;
    tourism=camp_site; wheelchair=no; id=node/7165978990</desc>
  </wpt>
  <wpt lat="68.1865612" lon="28.4576868">
    <name>Vongoiva</name>
    <desc>access=yes; addr:city=Sodankylä; backcountry=yes;
    capacity=2; capacity:persons=4; drinking_water=yes; fee=no;
    name=Vongoiva; openfire=yes; operator=Metsähallitus; tents=yes;
    toilets=yes; tourism=camp_site; id=node/7165993735</desc>
  </wpt>
  <wpt lat="67.8641409" lon="29.1989941">
    <name>Kärekeoja</name>
    <desc>access=yes; backcountry=yes; capacity=5;
    drinking_water=yes; fee=no; name=Kärekeoja; openfire=yes;
    operator=Metsähallitus; tents=yes; toilets=yes;
    tourism=camp_site; id=node/7166827685</desc>
  </wpt>
  <wpt lat="67.8999621" lon="29.2105427">
    <name>Mettopalo</name>
    <desc>access=yes; backcountry=yes; drinking_water=yes; fee=no;
    name=Mettopalo; openfire=yes; operator=Metsähallitus;
    tents=yes; toilets=yes; tourism=camp_site;
    id=node/7166827686</desc>
  </wpt>
  <wpt lat="68.0438941" lon="28.9694949">
    <name>Manto-oja</name>
    <desc>access=yes; backcountry=yes; drinking_water=yes; fee=no;
    name=Manto-oja; openfire=yes; operator=Metsähallitus;
    toilets=yes; tourism=camp_site; id=node/7166880447</desc>
  </wpt>
  <wpt lat="63.2763025" lon="22.9643275">
    <name>Ruskorannan leirintä</name>
    <desc>access=yes; addr:city=Härmä; addr:housenumber=198 A;
    addr:street=Haaruskankaantie; charge=20 EUR - 100 EUR; fee=yes;
    name=Ruskorannan leirintä; opening_hours=Jun-Aug;
    operator=Härmäin Invalidit ry; payment:cash=yes;
    payment:mobilepay=yes; shower=yes; toilets=yes;
    tourism=camp_site; id=node/7261211669; ; access=customers;
    fee=no; id=way/1106133315</desc>
  </wpt>
  <wpt lat="63.0468402" lon="27.3927321">
    <name>Kauraniemi leirikeskus</name>
    <desc>access=customers; fixme=name?; group_only=yes;
    name=Kauraniemi leirikeskus; tourism=camp_site;
    id=node/7392153634</desc>
  </wpt>
  <wpt lat="62.5358309" lon="25.8383968">
    <name>Pytinki</name>
    <desc>access=yes; backcountry=yes; fee=no; name=Pytinki;
    tourism=camp_site; id=node/7573265482</desc>
  </wpt>
  <wpt lat="69.4643221" lon="26.349855">
    <name>Geavvogeašláttu</name>
    <desc>access=yes; backcountry=yes; capacity=4; dog=leashed;
    drinking_water=yes; fee=no; name=Geavvogeašláttu; openfire=yes;
    operator=Metsähallitus; tents=yes; toilets=yes;
    tourism=camp_site; id=node/7640906569</desc>
  </wpt>
  <wpt lat="69.4558303" lon="26.2941089">
    <name>Ruktajávri</name>
    <desc>access=yes; addr:city=Utsjoki; backcountry=yes;
    capacity=5; drinking_water=no; fee=no; name=Ruktajávri;
    openfire=yes; operator=Metsähallitus; tents=yes; toilets=yes;
    tourism=camp_site; id=node/7640921695</desc>
  </wpt>
  <wpt lat="69.5059095" lon="26.3059135">
    <name>Njávgoaivi</name>
    <desc>access=yes; backcountry=yes; capacity=5;
    drinking_water=no; fee=no; name=Njávgoaivi; openfire=yes;
    operator=Metsähallitus; tents=yes; toilets=yes;
    tourism=camp_site; id=node/7640921714</desc>
  </wpt>
  <wpt lat="69.4983212" lon="26.5253072">
    <name>Suohpášája</name>
    <desc>access=yes; backcountry=yes; capacity=5; dog=leashed;
    drinking_water=yes; fee=no; name=Suohpášája; openfire=yes;
    opening_hours=24/7; operator=Metsähallitus; tents=yes;
    toilets=yes; tourism=camp_site; id=node/7640921715</desc>
  </wpt>
  <wpt lat="69.5057598" lon="26.5484171">
    <name>Gaskkamuš Suohpášája</name>
    <desc>access=yes; backcountry=yes; capacity=5; dog=leashed;
    drinking_water=yes; fee=no; name=Gaskkamuš Suohpášája;
    openfire=yes; opening_hours=24/7; operator=Metsähallitus;
    tents=yes; toilets=yes; tourism=camp_site;
    id=node/7640921722</desc>
  </wpt>
  <wpt lat="69.5271927" lon="26.6209905">
    <name>Fiellogahjohka</name>
    <desc>access=yes; backcountry=yes; capacity=5; dog=leashed;
    drinking_water=yes; fee=no; name=Fiellogahjohka; openfire=yes;
    operator=Metsähallitus; tents=yes; toilets=yes;
    tourism=camp_site; id=node/7640921752</desc>
  </wpt>
  <wpt lat="69.5913482" lon="26.8082967">
    <name>Gamajotnjálmmeluoppal</name>
    <desc>access=yes; backcountry=yes; capacity=5;
    drinking_water=yes; fee=no; name=Gamajotnjálmmeluoppal;
    openfire=yes; operator=Metsähallitus; toilets=yes;
    tourism=camp_site; id=node/7640921754</desc>
  </wpt>
  <wpt lat="69.5603282" lon="26.3556397">
    <name>Áhkogoahti</name>
    <desc>access=yes; backcountry=yes; drinking_water=no; fee=no;
    name=Áhkogoahti; opening_hours=24/7; operator=Metsähallitus;
    tents=yes; toilets=yes; tourism=camp_site;
    id=node/7646335684</desc>
  </wpt>
  <wpt lat="69.6116666" lon="26.5171741">
    <name>Kuivi</name>
    <desc>access=yes; backcountry=yes; capacity=5;
    drinking_water=yes; fee=no; name=Kuivi; openfire=yes;
    opening_hours=24/7; operator=Metsähallitus; toilets=yes;
    tourism=camp_site; id=node/7646364047</desc>
  </wpt>
  <wpt lat="68.5967868" lon="25.1716637">
    <name>Vaskolompolo</name>
    <desc>access=yes; addr:city=Inari; backcountry=yes;
    drinking_water=boil; fee=no; name=Vaskolompolo; openfire=yes;
    operator=Metsähallitus; toilets=yes; tourism=camp_site;
    id=node/7653529065</desc>
  </wpt>
  <wpt lat="68.6221275" lon="25.4238685">
    <name>Postijoki</name>
    <desc>access=yes; addr:city=Inari; backcountry=yes;
    drinking_water=yes; fee=no; name=Postijoki; openfire=yes;
    operator=Metsähallitus; toilets=yes; tourism=camp_site;
    id=node/7653529067</desc>
  </wpt>
  <wpt lat="68.6536665" lon="25.8627031">
    <name>Kultahamina telttailualue</name>
    <desc>access=yes; backcountry=yes; drinking_water=yes; fee=no;
    name=Kultahamina telttailualue; operator=Metsähallitus;
    toilets=yes; tourism=camp_site; id=node/7653540610</desc>
  </wpt>
  <wpt lat="68.6745002" lon="25.9419833">
    <name>Pitkäniemi</name>
    <desc>access=yes; backcountry=yes; capacity=5;
    drinking_water=boil; fee=no; name=Pitkäniemi;
    operator=Metsähallitus; tents=yes; toilets=yes;
    tourism=camp_site; id=node/7653583523</desc>
  </wpt>
  <wpt lat="68.6876919" lon="25.9705181">
    <name>Ravadasjärvi</name>
    <desc>access=yes; backcountry=yes; drinking_water=boil; fee=no;
    name=Ravadasjärvi; openfire=yes; operator=Metsähallitus;
    tents=yes; toilets=yes; tourism=camp_site;
    id=node/7653583524</desc>
  </wpt>
  <wpt lat="68.6700644" lon="25.7787752">
    <name>Morgamojan kultala</name>
    <desc>access=yes; backcountry=yes; drinking_water=yes; fee=no;
    name=Morgamojan kultala; openfire=yes; operator=Metsähallitus;
    tents=yes; toilets=yes; tourism=camp_site;
    id=node/7653859086</desc>
  </wpt>
  <wpt lat="62.3974768" lon="28.7292111">
    <name>node/7699561531</name>
    <desc>backcountry=yes; fee=no; tents=yes; tourism=camp_site;
    id=node/7699561531</desc>
  </wpt>
  <wpt lat="61.7954014" lon="26.1673522">
    <name>Tampinmylly</name>
    <desc>caravans=yes; fee=yes; name=Tampinmylly; tents=yes;
    tourism=camp_site; id=node/7705309968</desc>
  </wpt>
  <wpt lat="62.1798039" lon="28.9128301">
    <name>Käkövesi telttailualue</name>
    <desc>access=yes; backcountry=yes; capacity:tents=10;
    drinking_water=no; fee=no; name=Käkövesi telttailualue;
    openfire=yes; operator=Metsähallitus; tents=yes; toilets=yes;
    tourism=camp_site; id=node/7727120635</desc>
  </wpt>
  <wpt lat="60.1693409" lon="25.1438229">
    <ele>21.0</ele>
    <name>node/7737486319</name>
    <desc>tourism=camp_site; id=node/7737486319</desc>
  </wpt>
  <wpt lat="66.3198917" lon="27.1109376">
    <name>Wanha Autti</name>
    <desc>caravans=yes; fee=yes; name=Wanha Autti; tents=yes;
    tourism=camp_site; id=node/7737963776</desc>
  </wpt>
  <wpt lat="60.1473464" lon="24.8503339">
    <ele>11.0</ele>
    <name>node/7746247459</name>
    <desc>fee=no; tourism=camp_site; id=node/7746247459</desc>
  </wpt>
  <wpt lat="60.1479726" lon="24.8489714">
    <ele>7.0</ele>
    <name>node/7746247460</name>
    <desc>fee=no; tourism=camp_site; id=node/7746247460</desc>
  </wpt>
  <wpt lat="60.147739" lon="24.848384">
    <ele>7.0</ele>
    <name>node/7746247461</name>
    <desc>fee=no; tourism=camp_site; id=node/7746247461</desc>
  </wpt>
  <wpt lat="61.9789756" lon="27.0578722">
    <name>Tähtiniemi</name>
    <desc>name=Tähtiniemi; tourism=camp_site;
    id=node/7778771585</desc>
  </wpt>
  <wpt lat="65.550437" lon="28.1569156">
    <name>Susiraja Camp</name>
    <desc>access=yes; addr:city=Taivalkoski; addr:housenumber=50;
    addr:postcode=93400; addr:street=Ouluntie; bbq=yes; cabins=yes;
    cafe=yes; caravans=yes; email=info@susirajacamp.fi; fee=yes;
    kitchen=yes; name=Susiraja Camp; operator=Susiraja Camp Oy;
    phone=+358 44 975 9714; playground=yes; reservation=yes;
    sauna=yes; shower=yes; tents=yes; toilets=yes;
    tourism=camp_site; washing_machine=yes;
    id=node/7807385067</desc>
  </wpt>
  <wpt lat="67.0031166" lon="23.7744097">
    <name>Jouttensuvannon Ioma</name>
    <desc>cabins=yes; description=campsite for campingcar, tents
    and cabins, Kiosk.; motorhome=yes; name=Jouttensuvannon Ioma;
    phone=+358 400216264; tents=yes; toilets=yes;
    tourism=camp_site; id=node/7824047260</desc>
  </wpt>
  <wpt lat="60.6775191" lon="24.0929406">
    <name>node/7835000943</name>
    <desc>tourism=camp_site; id=node/7835000943</desc>
  </wpt>
  <wpt lat="60.7369978" lon="24.0356643">
    <name>node/7836610402</name>
    <desc>tourism=camp_site; id=node/7836610402</desc>
  </wpt>
  <wpt lat="63.1408466" lon="30.7917146">
    <name>Virtaniemi</name>
    <desc>access=yes; backcountry=yes; capacity=5; fee=no;
    name=Virtaniemi; name:en=Virtaniemi; openfire=yes; toilets=yes;
    tourism=camp_site; id=node/7846996185</desc>
  </wpt>
  <wpt lat="63.0897174" lon="30.7465908">
    <name>Teretinniemi</name>
    <desc>access=yes; backcountry=yes; capacity=5; fee=no;
    name=Teretinniemi; name:en=Teretinniemi; openfire=yes;
    toilets=yes; tourism=camp_site; id=node/7848359085</desc>
  </wpt>
  <wpt lat="63.114316" lon="30.6576772">
    <name>node/7848361085</name>
    <desc>backcountry=yes; fee=no; name:en=Camping; openfire=yes;
    tourism=camp_site; id=node/7848361085</desc>
  </wpt>
  <wpt lat="66.2547687" lon="29.4374822">
    <name>Siilastupa</name>
    <desc>access=yes; backcountry=yes; drinking_water=treated;
    fee=no; name=Siilastupa; name:en=Siilastupa; openfire=yes;
    operator=Metsähallitus; toilets=yes; tourism=camp_site;
    id=node/7852353185</desc>
  </wpt>
  <wpt lat="66.2642229" lon="29.4536071">
    <name>Harrisuvanto</name>
    <desc>access=yes; backcountry=yes; capacity=5;
    drinking_water=yes; fee=no; name=Harrisuvanto;
    name:en=Harrisuvanto; openfire=yes; opening_hours=24/7;
    operator=Metsähallitus; toilets=yes; tourism=camp_site;
    id=node/7853062385</desc>
  </wpt>
  <wpt lat="69.5906737" lon="28.4485568">
    <name>Opukasjärvi</name>
    <desc>access=yes; backcountry=yes; capacity=5;
    drinking_water=treated; fee=no; name=Opukasjärvi;
    name:en=Opukasjärvi; name:fi=Opukasjärvi; openfire=yes;
    operator=Metsähallitus; tents=yes; toilets=yes;
    tourism=camp_site; id=node/7857383285</desc>
  </wpt>
  <wpt lat="66.3028977" lon="29.5199915">
    <name>Jussinkämppä</name>
    <desc>access=yes; backcountry=yes; capacity=5; fee=no;
    name=Jussinkämppä; operator=Metsähallitus; tourism=camp_site;
    id=node/7869467558</desc>
  </wpt>
  <wpt lat="68.3130863" lon="27.6486597">
    <name>Rautulampi</name>
    <desc>access=yes; addr:city=Sodankylä; backcountry=yes;
    capacity=5; capacity:persons=10; capacity:tents=5; dog=leashed;
    drinking_water=yes; fee=no; name=Rautulampi; openfire=yes;
    opening_hours=24/7; operator=Metsähallitus; tents=yes;
    toilets=yes; tourism=camp_site; id=node/8019477528</desc>
  </wpt>