<?xml version="1.0" encoding="utf-8"?>
<gpx xmlns="http://www.topografix.com/GPX/1/1"
xmlns:xsi="http://www.w3.org/2001/XMLSchema-instance"
xsi:schemaLocation="http://www.topografix.com/GPX/1/1 http://www.topografix.com/GPX/1/1/gpx.xsd"
version="1.1" creator="togpx">
  <metadata>
    <copyright>
      <license>"osm3s": { "timestamp_osm_base":
      "2025-10-01T10:01:44Z", "timestamp_areas_base":
      "2025-10-01T03:35:03Z", "copyright": "The data included in
      this document is from www.openstreetmap.org. The data is made
      available under ODbL." } // SRTM: { Elevation data missing in
      OSM was added by the NASA Shuttle Radar Topography Mission as
      public release version, if available there. } // { Check for
      latest version of this file on:
      https://github.com/GpxFeed/campgrounds }</license>
    </copyright>
  </metadata>
  <wpt lat="48.663889" lon="-2.843889">
    <ele>23.0</ele>
    <name>Belle vue</name>
    <desc>caravans=yes; name=Belle vue; tents=yes;
    tourism=camp_site; website=https://www.campingbellevue.net;
    id=node/26858319</desc>
    <link href="https://www.campingbellevue.net"></link>
  </wpt>
  <wpt lat="45.4282078" lon="4.9282589">
    <ele>279.0</ele>
    <name>Camping du Bontemps</name>
    <desc>internet_access=wlan; name=Camping du Bontemps;
    tourism=camp_site; id=node/26858341</desc>
  </wpt>
  <wpt lat="45.879444" lon="6.640833">
    <ele>1055.0</ele>
    <name>Bornand</name>
    <desc>created_by=JOSM; name=Bornand; tourism=camp_site;
    id=node/26858346</desc>
  </wpt>
  <wpt lat="45.904167" lon="-1.215278">
    <ele>3.0</ele>
    <name>La Brande</name>
    <desc>name=La Brande; stars=4; tourism=camp_site;
    id=node/26858352</desc>
  </wpt>
  <wpt lat="44.499167" lon="-1.079167">
    <ele>31.0</ele>
    <name>Lou Broustaricq</name>
    <desc>camp_site=deluxe; caravans=yes;
    email=reception@lou-broustaricq.com; fee=yes; name=Lou
    Broustaricq; phone=+33 5 58 82 74 82; stars=4;
    static_caravans=yes; tents=yes; tourism=camp_site;
    website=https://www.lou-broustaricq.com; wheelchair=yes;
    id=node/26858361</desc>
    <link href="https://www.lou-broustaricq.com"></link>
  </wpt>
  <wpt lat="43.705" lon="7.050556">
    <ele>325.0</ele>
    <name>Camping la Camassade</name>
    <desc>access=customers; addr:city=Tourrettes sur Loup;
    addr:housenumber=523; addr:postcode=06140; addr:street=Route de
    Pie Lombard; fee=yes; name=Camping la Camassade;
    payment:bank_transfer=yes; payment:cash=yes;
    payment:cheque=yes; payment:cheques_vacances=yes;
    payment:credit_card=yes; stars=3; tourism=camp_site;
    website=https://camassade.com/; id=node/26858366</desc>
    <link href="https://camassade.com/"></link>
  </wpt>
  <wpt lat="44.106667" lon="2.689722">
    <ele>744.0</ele>
    <name>Camping Les Cantarelles - Camping Aveyron</name>
    <desc>contact:city=Alrance; contact:housenumber=1;
    contact:phone=+33 4 82 78 00 28; contact:postcode=12430;
    contact:street=Les Cantarelles;
    contact:website=https://www.camping-cantarelles.fr/fr;
    name=Camping Les Cantarelles - Camping Aveyron;
    opening_hours=Mo-Tu 09:30-12:00, 16:30-18:30, We-Su
    09:00-12:00, 16:30-18:30; ref:FR:SIRET=32651860200015;
    tourism=camp_site;
    website=https://www.camping-cantarelles.fr/fr;
    id=node/26858382</desc>
    <link href="https://www.camping-cantarelles.fr/fr"></link>
  </wpt>
  <wpt lat="45.6592339" lon="0.5571119">
    <ele>133.0</ele>
    <name>Camping Les Gorges du Chambon Ciela Village</name>
    <desc>contact:city=Eymouthiers; contact:housenumber=861;
    contact:phone=+33 5 64 08 00 13; contact:postcode=16220;
    contact:street=Rue de la Tardoire; name=Camping Les Gorges du
    Chambon Ciela Village; opening_hours=Mo-Su 09:00-13:00,
    14:00-19:00; ref:FR:SIRET=53176098100021; tourism=camp_site;
    website=https://www.camping-gorges-chambon.fr/fr;
    wheelchair=yes; id=node/26858402</desc>
    <link href="https://www.camping-gorges-chambon.fr/fr"></link>
  </wpt>
  <wpt lat="48.1072445" lon="0.3411791">
    <ele>91.0</ele>
    <name>Camping Château de Chanteloup</name>
    <desc>access=customers; addr:city=Sillé-le-Philippe;
    addr:place=Sarthe; addr:postcode=72460; addr:street=Pays de la
    Loire; backcountry=no; caravans=yes; dog=yes;
    drinking_water=yes; email=contact@chateaudechsnteloup.com;
    fee=yes; internet_access=wlan; internet_access:fee=yes;
    name=Camping Château de Chanteloup; phone=+33243275107;
    power_supply=yes; reservation=yes; sanitary_dump_station=yes;
    shower=yes; stars=5; static_caravans=no; tents=yes;
    toilets=yes; tourism=camp_site;
    website=https://www.chateaudechsnteloup.com;
    wheelchair=limited; id=node/26858412</desc>
    <link href="https://www.chateaudechsnteloup.com"></link>
  </wpt>
  <wpt lat="48.719722" lon="3.037778">
    <ele>115.0</ele>
    <name>Charbonnieres</name>
    <desc>created_by=JOSM; name=Charbonnieres; tourism=camp_site;
    id=node/26858424</desc>
  </wpt>
  <wpt lat="44.4981705" lon="1.0662656">
    <ele>119.0</ele>
    <name>Le Ch'timi</name>
    <desc>name=Le Ch'timi; source=Cadastre, Ortho HR 2019;
    tourism=camp_site; id=node/26858444</desc>
  </wpt>
  <wpt lat="49.8563539" lon="4.7929466">
    <ele>157.0</ele>
    <name>Base de loisirs d'Haulmé</name>
    <desc>access=private; addr:city=Haulmé; addr:housenumber=1;
    addr:postcode=08800; addr:street=Route du Domaine;
    backcountry=no; caravans=yes; check_date=2025-07-16; dog=yes;
    drinking_water=yes; fee=yes; group_only=no;
    internet_access=wlan; internet_access:fee=customers; name=Base
    de loisirs d'Haulmé; nudism=no; openfire=yes; payment:cash=yes;
    payment:credit_cards=yes; payment:debit_cards=yes; phone=+33 7
    69 67 27 88; picnic_table=yes; power_supply=yes;
    reservation=recommended; sanitary_dump_station=yes; shower=yes;
    stars=4; static_caravans=yes; tents=yes; toilets=yes;
    tourism=camp_site; website=https://www.domainedhaulme.fr;
    id=node/26858507</desc>
    <link href="https://www.domainedhaulme.fr"></link>
  </wpt>
  <wpt lat="46.5206796" lon="-0.2845078">
    <ele>182.0</ele>
    <name>Côté Lac</name>
    <desc>caravans=yes; drinking_water=yes;
    email=contact@campingcotelac.fr; name=Côté Lac; phone=+33 5 49
    69 96 67; power_supply=yes; shower=yes; static_caravans=yes;
    tents=yes; toilets=yes; tourism=camp_site;
    website=https://campingcotelac.fr/; id=node/26858575</desc>
    <link href="https://campingcotelac.fr/"></link>
  </wpt>
  <wpt lat="43.2407744" lon="6.5734098">
    <ele>22.0</ele>
    <name>Parc Saint-James-Montana</name>
    <desc>addr:city=Gassin; addr:housenumber=370;
    addr:postcode=83580; addr:street=Route du Bourrian; dog=yes;
    drinking_water=yes; fee=yes; internet_access=wlan;
    internet_access:fee=yes; name=Parc Saint-James-Montana;
    openfire=no; phone=+33 4 94 55 20 20; power_supply=yes;
    reservation=required; shower=yes; stars=4; toilets=yes;
    tourism=camp_site; website=https://camping-parcsaintjames.com;
    id=node/26858582</desc>
    <link href="https://camping-parcsaintjames.com"></link>
  </wpt>
  <wpt lat="43.3327821" lon="-1.68528">
    <ele>93.0</ele>
    <name>Col d'Ibardin</name>
    <desc>addr:city=Urrugne; addr:housenumber=220;
    addr:street=Route d'Olhette; cabins=yes; capacity:persons=492;
    caravans=yes; email=info@col-ibardin.com; name=Col d'Ibardin;
    operator=Sunêlia; phone=+33 5 59 54 31 21,+33 5 59 54 62 28;
    postal_code=64122; shower=yes; stars=4; tents=yes; toilets=yes;
    tourism=camp_site; website=https://www.col-ibardin.com/;
    id=node/26858617</desc>
    <link href="https://www.col-ibardin.com/"></link>
  </wpt>
  <wpt lat="48.168889" lon="-4.289444">
    <ele>13.0</ele>
    <name>Iroise</name>
    <desc>name=Iroise; phone=+33 2 98 81 52 72; stars=4;
    tourism=camp_site; website=https://www.camping-iroise.fr;
    id=node/26858628</desc>
    <link href="https://www.camping-iroise.fr"></link>
  </wpt>
  <wpt lat="44.2969829" lon="4.7868612">
    <ele>131.0</ele>
    <name>La Simioune</name>
    <desc>name=La Simioune; phone=+33 9 90 30 44 62; stars=2;
    tourism=camp_site; id=node/26858682</desc>
  </wpt>
  <wpt lat="44.7283254" lon="1.5970592">
    <ele>324.0</ele>
    <name>Château de Lacomté Camping</name>
    <desc>addr:city=Carlucet; addr:housenumber=984;
    addr:postcode=46500; addr:street=Route de Lacomté;
    email=chateaudelacomte@gmail.com;
    facebook=https://www.facebook.com/ChateauLacomteCountryClubHolidaysForAdultsLacomte;
    name=Château de Lacomté Camping; phone=+33 5 65 38 75 46;
    tourism=camp_site; website=https://campinglacomte.com;
    id=node/26858697</desc>
    <link href="https://campinglacomte.com"></link>
  </wpt>
  <wpt lat="45.37" lon="1.144167">
    <ele>301.0</ele>
    <name>Landisses Municipal</name>
    <desc>created_by=JOSM; name=Landisses Municipal;
    tourism=camp_site; id=node/26858702</desc>
  </wpt>
  <wpt lat="43.690278" lon="7.156389">
    <ele>104.0</ele>
    <name>Le Todos</name>
    <desc>created_by=JOSM; name=Le Todos; tourism=camp_site;
    id=node/26858753</desc>
  </wpt>
  <wpt lat="44.976111" lon="1.046944">
    <ele>77.0</ele>
    <name>Camping Le Vézère Périgord</name>
    <desc>name=Camping Le Vézère Périgord; tourism=camp_site;
    id=node/26858755</desc>
  </wpt>
  <wpt lat="43.4765798" lon="6.6387165">
    <ele>24.0</ele>
    <name>Lei Suves</name>
    <desc>name=Lei Suves; tourism=camp_site;
    id=node/26858757</desc>
  </wpt>
  <wpt lat="45.9353688" lon="6.8781192">
    <ele>1054.0</ele>
    <name>Les Rosiers</name>
    <desc>name=Les Rosiers; tourism=camp_site;
    id=node/26858778</desc>
  </wpt>
  <wpt lat="44.992778" lon="0.598611">
    <ele>192.0</ele>
    <name>Camping Lestaubière</name>
    <desc>caravans=yes; drinking_water=yes; internet_access=no;
    name=Camping Lestaubière; power_supply=yes; shower=yes;
    tents=yes; toilets=yes; tourism=camp_site; wheelchair=yes;
    id=node/26858787</desc>
  </wpt>
  <wpt lat="45.932222" lon="1.290278">
    <ele>385.0</ele>
    <name>Leychoisier</name>
    <desc>created_by=JOSM; name=Leychoisier; tourism=camp_site;
    id=node/26858792</desc>
  </wpt>
  <wpt lat="44.8808723" lon="0.8855581">
    <ele>51.0</ele>
    <name>Le Port de Limeuil ****</name>
    <desc>email=contact@leportdelimeuil.com; name=Le Port de
    Limeuil ****; opening_hours=Apr 30 - Sep 23; phone=+33 553 632
    976; stars=4; tourism=camp_site;
    website=https://www.leportdelimeuil.com/;
    id=node/26858793</desc>
    <link href="https://www.leportdelimeuil.com/"></link>
  </wpt>
  <wpt lat="45.506667" lon="5.207222">
    <ele>429.0</ele>
    <name>Loisirs du Moulin</name>
    <desc>name=Loisirs du Moulin; opening_hours=24/7 off "Currently
    closed. May open again"; tourism=camp_site;
    id=node/26858796</desc>
  </wpt>
  <wpt lat="47.058889" lon="3.816944">
    <ele>376.0</ele>
    <name>r de Bezolle</name>
    <desc>created_by=JOSM; name=r de Bezolle; tourism=camp_site;
    id=node/26858810</desc>
  </wpt>
  <wpt lat="48.6647118" lon="-3.7809098">
    <ele>69.0</ele>
    <name>Domaine de Mesqueau</name>
    <desc>access=customers; addr:city=Plougasnou;
    addr:housenumber=870; addr:postcode=29630; addr:street=Route de
    Mesqueau; camp_site=deluxe; description=Bienvenue au Domaine de
    Mesqueau, à Plougasnou, dans le nord Finistère, cadre arboré et
    verdoyant de 7 hectares, entièrement clos et piétonnier, situé
    à deux pas des plages de la Baie de Morlaix et à quelques
    minutes de route de la Côte de Granit Rose.; dog=leashed;
    internet_access=wlan; name=Domaine de Mesqueau;
    phone=+33298673745; reservation=yes; shower=yes; stars=4;
    static_caravans=yes; tents=yes; toilets=yes; tourism=camp_site;
    website=https://www.camping-mesqueau.com;
    id=node/26858844</desc>
    <link href="https://www.camping-mesqueau.com"></link>
  </wpt>
  <wpt lat="44.364722" lon="2.865">
    <ele>622.0</ele>
    <name>illac</name>
    <desc>created_by=JOSM; name=illac; tourism=camp_site;
    id=node/26858867</desc>
  </wpt>
  <wpt lat="44.658889" lon="0.879167">
    <ele>151.0</ele>
    <name>Le Moulin de David</name>
    <desc>created_by=JOSM; name=Le Moulin de David;
    tourism=camp_site; website=https://www.moulindedavid.com;
    id=node/26858877</desc>
    <link href="https://www.moulindedavid.com"></link>
  </wpt>
  <wpt lat="49.3255556" lon="0.3899919">
    <ele>133.0</ele>
    <name>Nacre</name>
    <desc>created_by=Potlatch 0.5d; name=Nacre; tourism=camp_site;
    id=node/26858891</desc>
  </wpt>
  <wpt lat="47.2962727" lon="-2.5368486">
    <ele>7.0</ele>
    <name>Oceanic</name>
    <desc>name=Oceanic; tourism=camp_site; id=node/26858908</desc>
  </wpt>
  <wpt lat="44.945556" lon="1.441111">
    <ele>236.0</ele>
    <name>Paille Basse</name>
    <desc>created_by=JOSM; name=Paille Basse; tourism=camp_site;
    id=node/26858922</desc>
  </wpt>
  <wpt lat="44.906667" lon="1.292222">
    <ele>136.0</ele>
    <name>Camping La Palombière</name>
    <desc>name=Camping La Palombière; tourism=camp_site;
    id=node/26858926</desc>
  </wpt>
  <wpt lat="45.0018301" lon="1.0715704">
    <ele>80.0</ele>
    <name>Camping le Paradis Dordogne 5 étoiles</name>
    <desc>caravans=yes; contact:city=Saint-Léon-sur-Vézère;
    contact:phone=+33 5 53 50 72 64; contact:postcode=24290;
    contact:street=La Rebeyrolle; drinking_water=yes; fax=+33 553
    507590; name=Camping le Paradis Dordogne 5 étoiles;
    opening_hours=Mo-Su 08:00-19:00; phone=+33 553 507264;
    power_supply=yes; ref:FR:SIRET=38498638600017;
    sanitary_dump_station=yes; shower=yes; stars=5; tents=yes;
    toilets=yes; tourism=camp_site;
    website=https://www.le-paradis.fr/; wheelchair=yes;
    id=node/26858930</desc>
    <link href="https://www.le-paradis.fr/"></link>
  </wpt>
  <wpt lat="48.0025" lon="1.233333">
    <ele>98.0</ele>
    <name>Le Val Fleury</name>
    <desc>name=Le Val Fleury; tourism=camp_site;
    website=https://www.val-fleuri.fr/; id=node/26858932</desc>
    <link href="https://www.val-fleuri.fr/"></link>
  </wpt>
  <wpt lat="43.450833" lon="6.633611">
    <ele>12.0</ele>
    <name>Pecheurs</name>
    <desc>name=Pecheurs; tourism=camp_site; id=node/26858943</desc>
  </wpt>
  <wpt lat="44.190833" lon="3.156944">
    <ele>391.0</ele>
    <name>Le Peyrelade</name>
    <desc>addr:city=Rivière-sur-Tarn; addr:postcode=12640;
    email=contact@campingpeyrelade.com; fee=yes; name=Le Peyrelade;
    phone=+33 (0)5 65 62 62 54; power_supply=yes; reservation=yes;
    sanitary_dump_station=yes; tourism=camp_site;
    website=https://www.campingpeyrelade.com;
    id=node/26858969</desc>
    <link href="https://www.campingpeyrelade.com"></link>
  </wpt>
  <wpt lat="45.946944" lon="-1.3125">
    <ele>7.0</ele>
    <name>Pierrire</name>
    <desc>created_by=JOSM; name=Pierrire; tourism=camp_site;
    id=node/26858973</desc>
  </wpt>
  <wpt lat="43.6820171" lon="7.0835292">
    <ele>50.0</ele>
    <name>Les Pinèdes</name>
    <desc>addr:street=Route du Pont de Pierre;
    internet_access=wlan; name=Les Pinèdes; tourism=camp_site;
    website=https://www.lespinedes.com/; id=node/26858981</desc>
    <link href="https://www.lespinedes.com/"></link>
  </wpt>
  <wpt lat="44.740556" lon="1.044167">
    <ele>236.0</ele>
    <name>Ratebout</name>
    <desc>name=Ratebout; tourism=camp_site; id=node/26859039</desc>
  </wpt>
  <wpt lat="48.5430352" lon="2.1378939">
    <ele>151.0</ele>
    <name>Parc des Roches</name>
    <desc>name=Parc des Roches; operator=Marvilla Parks;
    tourism=camp_site; id=way/1306522013; ; name=Roches;
    id=node/26859057</desc>
  </wpt>
  <wpt lat="44.5229774" lon="6.3407309">
    <ele>809.0</ele>
    <name>La Presqu’île</name>
    <desc>access=customers; addr:city=Prunières;
    addr:housenumber=32; addr:postcode=05230; addr:street=Chemin du
    Roustou; capacity=500; fee=yes; internet_access=wlan;
    internet_access:fee=no; name=La Presqu’île; operator=Sunêlia;
    static_caravans=yes; tents=yes; tourism=camp_site;
    website=https://www.campinglapresquile.com;
    id=node/26859063</desc>
    <link href="https://www.campinglapresquile.com"></link>
  </wpt>
  <wpt lat="44.8536313" lon="2.7709879">
    <ele>655.0</ele>
    <name>La Source</name>
    <desc>contact:email=info@camping-la-source.com;
    contact:website=http://www.camping-la-source.com/;
    drinking_water=yes; name=La Source; operator=Sunêlia;
    shower=yes; stars=4; tourism=camp_site; id=node/26859096</desc>
    <link href="http://www.camping-la-source.com/"></link>
  </wpt>
  <wpt lat="47.712778" lon="-0.499167">
    <ele>64.0</ele>
    <name>Varennes</name>
    <desc>created_by=JOSM; name=Varennes; tourism=camp_site;
    id=node/26859162</desc>
  </wpt>
  <wpt lat="45.045833" lon="1.883889">
    <ele>169.0</ele>
    <name>Vaurette</name>
    <desc>created_by=JOSM; name=Vaurette; tourism=camp_site;
    website=https://www.vaurette.com/; id=node/26859163</desc>
    <link href="https://www.vaurette.com/"></link>
  </wpt>
  <wpt lat="45.551111" lon="0.795833">
    <ele>309.0</ele>
    <name>Château Le Verdoyer</name>
    <desc>name=Château Le Verdoyer; tourism=camp_site;
    id=node/26859166</desc>
  </wpt>
  <wpt lat="42.729722" lon="9.3419439">
    <ele>4.0</ele>
    <name>A Stella</name>
    <desc>capacity:pitches=100; caravans=yes; fee=yes;
    internet_access=wlan; internet_access:fee=no; mobile=+33 6 15
    76 63 24; name=A Stella; opening_hours=May 1 - Oct 30;
    phone=+33 4 95 37 14 37; shower=yes; stars=2; tents=yes;
    toilets=yes; tourism=camp_site;
    url=http://www.campingastella.com/; id=node/26860174</desc>
    <link href="http://www.campingastella.com/"></link>
  </wpt>
  <wpt lat="41.531389" lon="9.165278">
    <ele>104.0</ele>
    <name>U Moru</name>
    <desc>created_by=JOSM; name=U Moru; tourism=camp_site;
    id=node/26860205</desc>
  </wpt>
  <wpt lat="49.0962616" lon="5.4719377">
    <ele>246.0</ele>
    <name>Les Epichées</name>
    <desc>name=Les Epichées; tourism=camp_site;
    id=node/263010348</desc>
  </wpt>
  <wpt lat="45.1449867" lon="5.5159651">
    <ele>1025.0</ele>
    <name>Camping Les Eymes</name>
    <desc>cabins=yes; capacity:cabins=15; capacity:pitches=34;
    caravans=yes; email=contact@camping-les-eymes.com; name=Camping
    Les Eymes; opening_hours=Apr 28 - Oct 1; phone=+33 4 76 95 24
    85; shower=yes; stars=3; tents=yes; toilets=yes;
    tourism=camp_site; website=http://www.camping-les-eymes.com/;
    id=node/269296417</desc>
    <link href="http://www.camping-les-eymes.com/"></link>
  </wpt>
  <wpt lat="48.996268" lon="3.0420896">
    <ele>47.0</ele>
    <name>Espace Nature au Creux du Chêne</name>
    <desc>description=Emplacements pour tentes, hébergements
    insolites, grand barnum pour receptions; name=Espace Nature au
    Creux du Chêne; phone=+33 766044745; tourism=camp_site;
    id=node/272822587</desc>
  </wpt>
  <wpt lat="46.2985423" lon="1.8240212">
    <ele>258.0</ele>
    <name>L'Age</name>
    <desc>name=L'Age; operator=Municipal; phone=+33 5 55 89 24 61;
    stars=2; tourism=camp_site;
    website=https://tourisme-valleedespeintres-creuse.com/Ou-dormir/Campings/(view)/167000157;
    id=node/272841151</desc>
    <link href="https://tourisme-valleedespeintres-creuse.com/Ou-dormir/Campings/(view)/167000157">
    </link>
  </wpt>
  <wpt lat="47.300936" lon="-2.3311557">
    <ele>26.0</ele>
    <name>Camping des Ollivaud</name>
    <desc>cabins=yes; caravans=no; internet_access=yes;
    name=Camping des Ollivaud; nudism=no; phone=+33240245825;
    stars=3; static_caravans=yes; tents=no; tourism=camp_site;
    website=https://www.lesollivaud.com/; wheelchair=yes;
    id=node/278259648</desc>
    <link href="https://www.lesollivaud.com/"></link>
  </wpt>
  <wpt lat="47.9414118" lon="-4.0248701">
    <ele>37.0</ele>
    <name>Camping de Keromen</name>
    <desc>addr:housenumber=38; addr:street=Rue de Cornouaille;
    name=Camping de Keromen; phone=+33 2 98 64 09 59;
    ref:FR:NAF=55.30Z; ref:FR:SIREN=438202848;
    ref:FR:SIRET=43820284800018; source=INSEE - 2025-08;
    tourism=camp_site; washing_machine=yes;
    website=http://www.campingdekeromen.fr/index.html;
    id=node/278573890</desc>
    <link href="http://www.campingdekeromen.fr/index.html"></link>
  </wpt>
  <wpt lat="45.8435303" lon="2.7893539">
    <ele>775.0</ele>
    <name>node/279921792</name>
    <desc>tourism=camp_site; id=node/279921792</desc>
  </wpt>
  <wpt lat="43.9530898" lon="3.6825643">
    <ele>174.0</ele>
    <name>Isis en Cévennes</name>
    <desc>addr:city=Saint-Julien-de-la-Nef; addr:postcode=30440;
    email=contact@isisencevennes.com; name=Isis en Cévennes;
    phone=+33 4 67 73 80 28; start_date=1975; swimming_pool=yes;
    tourism=camp_site; website=https://www.isisencevennes.fr;
    id=node/280255535</desc>
    <link href="https://www.isisencevennes.fr"></link>
  </wpt>
  <wpt lat="48.4790842" lon="2.7147975">
    <ele>54.0</ele>
    <name>Île de Loisirs</name>
    <desc>email=contact@bois-le-roi.iledeloisirs.fr;
    group_only=yes; name=Île de Loisirs; phone=+331 64 81 33 00;
    reservation=yes; tourism=camp_site;
    website=https://www.bois-le-roi.iledeloisirs.fr/;
    id=node/283591787</desc>
    <link href="https://www.bois-le-roi.iledeloisirs.fr/"></link>
  </wpt>
  <wpt lat="44.4831413" lon="-1.0893191">
    <ele>27.0</ele>
    <name>Camping Sanguinet Plage</name>
    <desc>addr:city=Sanguinet; addr:housenumber=1039;
    addr:postcode=40460; addr:street=Avenue de Losa; capacity=1035;
    email=sanguinetplage@sandaya.fr; fee=yes; name=Camping
    Sanguinet Plage; operator=Sandaya; phone=+33 5 58786174;
    tourism=camp_site; website=https://www.sandaya.fr;
    id=node/285980321</desc>
    <link href="https://www.sandaya.fr"></link>
  </wpt>
  <wpt lat="43.4228713" lon="4.9783807">
    <ele>27.0</ele>
    <name>La Mérindole</name>
    <desc>name=La Mérindole; openfire=no; opening_hours=Jun-Sep;
    operator=Mairie de Port-de-Bouc; phone=+33 4 42 06 26 89;
    scout=no; tents=yes; tourism=camp_site;
    website=http://www.portdebouc-tourisme.fr/hebergements/campings/;
    id=node/289335651</desc>
    <link href="http://www.portdebouc-tourisme.fr/hebergements/campings/">
    </link>
  </wpt>
  <wpt lat="48.0842587" lon="7.0782323">
    <ele>872.0</ele>
    <name>Schildmatt</name>
    <desc>addr:city=Soultzeren; addr:postcode=68140; capacity=250;
    capacity:persons=80; caravans=no; fee=yes; group_only=yes;
    internet_access=no; name=Schildmatt; note=Pas un camping,
    uniquement de l'accueil organisé de groupes;
    operator=Schildmatt e.V.; reservation=required; tents=yes;
    tourism=camp_site; website=https://www.schildmatt.com/;
    id=node/289987918</desc>
    <link href="https://www.schildmatt.com/"></link>
  </wpt>
  <wpt lat="44.9426497" lon="1.763111">
    <ele>190.0</ele>
    <name>node/290594762</name>
    <desc>tourism=camp_site; id=node/290594762</desc>
  </wpt>
  <wpt lat="45.4190954" lon="1.5684736">
    <ele>299.0</ele>
    <name>Camping municipal d'Uzerche</name>
    <desc>name=Camping municipal d'Uzerche; tourism=camp_site;
    id=node/292990483</desc>
  </wpt>
  <wpt lat="45.6234246" lon="3.5618023">
    <ele>683.0</ele>
    <name>Camping municipal de Cunlhat</name>
    <desc>name=Camping municipal de Cunlhat; tourism=camp_site;
    id=node/293004799</desc>
  </wpt>
  <wpt lat="48.3519022" lon="7.3997509">
    <ele>372.0</ele>
    <name>Heissenstein (Scouts et Guides de France)</name>
    <desc>name=Heissenstein (Scouts et Guides de France);
    tourism=camp_site; id=node/294737501</desc>
  </wpt>
  <wpt lat="47.3641041" lon="-0.8608823">
    <ele>81.0</ele>
    <name>Camping de La Guyonnière</name>
    <desc>access=customers; addr:housenumber=5; addr:street=Rue de
    la Loire; cabins=yes; capacity=19; caravans=yes;
    contact:email=contact@campinglaguyonniere.fr; name=Camping de
    La Guyonnière; phone=+33 2 41 77 89 56;
    sanitary_dump_station=yes; stars=3; tents=yes;
    tourism=camp_site; website=https://www.campinglaguyonniere.fr/;
    id=node/294781631</desc>
    <link href="https://www.campinglaguyonniere.fr/"></link>
  </wpt>
  <wpt lat="42.8388545" lon="0.1436533">
    <ele>2151.0</ele>
    <name>Zone de Bivouac d'Aubert</name>
    <desc>access=yes; backcountry=yes; camp_site=basic;
    caravans=no; description=Chiens, feux, déchets interdits;
    fee=no; name=Zone de Bivouac d'Aubert; opening_hours=Mo-Su
    19:00-09:00; static_caravans=no; tents=yes; tourism=camp_site;
    website=https://www.pyrenees-parcnational.fr/fr/des-decouvertes/sejourner-dans-le-parc-national/ou-dormir-en-montagne/bivouac;
    id=node/295783147</desc>
    <link href="https://www.pyrenees-parcnational.fr/fr/des-decouvertes/sejourner-dans-le-parc-national/ou-dormir-en-montagne/bivouac">
    </link>
  </wpt>
  <wpt lat="42.565721" lon="2.4193598">
    <ele>845.0</ele>
    <name>Les Sauterelles</name>
    <desc>caravans=yes;
    contact:email=contact@campinglessauterelles.com;
    contact:phone=+33 4 68 05 63 72;
    contact:website=https://www.campinglessauterelles.com; name=Les
    Sauterelles; official_name=Camping Les Sauterelles; phone=+33 4
    68 05 63 72; sanitary_dump_station=yes;
    source=data.gouv.fr:DATAtourisme - 05/2020; tents=yes;
    tourism=camp_site; wheelchair=yes; id=node/302097486</desc>
    <link href="https://www.campinglessauterelles.com"></link>
  </wpt>
  <wpt lat="48.5464257" lon="-2.5216944">
    <ele>83.0</ele>
    <name>Camping de Saint-Vreguet</name>
    <desc>created_by=Merkaartor 0.12; name=Camping de
    Saint-Vreguet; tourism=camp_site; id=node/313574484</desc>
  </wpt>
  <wpt lat="47.8446142" lon="-0.1955453">
    <ele>30.0</ele>
    <name>Camping municipal</name>
    <desc>name=Camping municipal; tourism=camp_site;
    id=node/314918725</desc>
  </wpt>
  <wpt lat="48.6068728" lon="-2.4641246">
    <ele>64.0</ele>
    <name>Camping Le Pusset</name>
    <desc>name=Camping Le Pusset; phone=+33 6 61 30 88 15;
    source:website=https://diffuseur.datatourisme.gouv.fr/webservice/1de21daee06d4c4d126bbf53bc000597/8031c032-1fdc-4068-9d0f-345131f4fc22;
    tourism=camp_site; website=http://www.campingdupusset.fr/;
    id=node/318422339</desc>
    <link href="https://diffuseur.datatourisme.gouv.fr/webservice/1de21daee06d4c4d126bbf53bc000597/8031c032-1fdc-4068-9d0f-345131f4fc22">
    </link>
  </wpt>
  <wpt lat="49.0198047" lon="5.6349204">
    <ele>342.0</ele>
    <name>Camping du Longeau</name>
    <desc>amenity=restaurant; cabins=yes; caravans=yes;
    description=Nice airy camping on a former NATO leisure site
    with three lakes. Didier does everything (cook, bartender,
    gardener, receptionist) so have a little patience.;
    name=Camping du Longeau; operator=Didier; shower=yes;
    tents=yes; toilets=yes; tourism=camp_site;
    website=https://www.foxycamp.com/; id=node/366761670</desc>
    <link href="https://www.foxycamp.com/"></link>
  </wpt>
  <wpt lat="43.4801682" lon="2.1456545">
    <ele>279.0</ele>
    <name>Camping municipal</name>
    <desc>name=Camping municipal; opening_hours=Jul 01-Sep 15;
    tourism=camp_site;
    website=https://www.dourgne-mairie.fr/page.php?id=159&amp;parent=32;
    id=node/412703502</desc>
    <link href="https://www.dourgne-mairie.fr/page.php?id=159%26parent=32">
    </link>
  </wpt>
  <wpt lat="44.3016222" lon="3.2949363">
    <ele>474.0</ele>
    <name>Ghost camp site</name>
    <desc>disused=yes; name=Ghost camp site; tourism=camp_site;
    id=node/418732284</desc>
  </wpt>
  <wpt lat="45.3987643" lon="-1.0485557">
    <ele>9.0</ele>
    <name>Camping Le Vieux Moulin - Vensac</name>
    <desc>contact:city=Vensac; contact:housenumber=15;
    contact:phone=+33 5 56 09 45 98; contact:postcode=33590;
    contact:street=Route du Moulin; name=Camping Le Vieux Moulin -
    Vensac; opening_hours=Mo-Su 09:00-12:00, 14:00-18:00;
    ref:FR:SIRET=89217076200017; toilets:wheelchair=yes;
    tourism=camp_site;
    website=https://www.campingduvieuxmoulin.fr/; wheelchair=yes;
    id=node/418774877</desc>
    <link href="https://www.campingduvieuxmoulin.fr/"></link>
  </wpt>
  <wpt lat="43.84407" lon="5.4960764">
    <ele>344.0</ele>
    <name>Camping à la ferme</name>
    <desc>name=Camping à la ferme; phone=+33490752862;
    tourism=camp_site; id=node/422538398</desc>
  </wpt>
  <wpt lat="44.5640212" lon="5.9173653">
    <ele>899.0</ele>
    <name>Parc des Sérigons</name>
    <desc>addr:city=La Roche-des-Arnauds; addr:housenumber=300;
    addr:postcode=05400; addr:street=Chemin des Sérigons;
    caravans=yes; description=Camping de 15ha : chalets,
    mobile-homes et tentes 'Lodge'. Emplacements de 100 à 300 m²,
    piscine, tennis, terrain multi sports, animation,
    bar/restaurant; dog=permissive;
    email=contact@camping-serigons.com; fee=yes;
    internet_access=wlan; internet_access:fee=no; name=Parc des
    Sérigons; openfire=no; phone=+33 4 92 57 81 77 , +33 6 80 13 39
    50; power_supply=yes; reservation=yes; shower=yes; stars=3;
    swimming_pool=outdoor; toilets=yes; toilets:access=customers;
    tourism=camp_site; website=https://www.camping-serigons.com;
    id=node/427862682</desc>
    <link href="https://www.camping-serigons.com"></link>
  </wpt>
  <wpt lat="47.1392589" lon="5.8509847">
    <ele>220.0</ele>
    <name>Les lacs d’Osselle</name>
    <desc>capacity=42; caravans=yes; drinking_water=yes;
    internet_access=wlan; name=Les lacs d’Osselle; operator=woka
    loisirs; power_supply=yes; seasonal=summer; shower=yes;
    tents=yes; toilets=yes; tourism=camp_site;
    website=https://www.grandbesancon.fr/infos-pratiques/sports-loisirs/base-de-loisirs-osselle/;
    wheelchair=yes; id=node/427924837</desc>
    <link href="https://www.grandbesancon.fr/infos-pratiques/sports-loisirs/base-de-loisirs-osselle/">
    </link>
  </wpt>
  <wpt lat="45.8378197" lon="3.6662588">
    <ele>637.0</ele>
    <name>Domaine de la Planche</name>
    <desc>contact:email=laplanche@eedf.asso.fr; contact:mobile=+33
    6 28 43 02 74; contact:phone=+33 4 73 51 81 26; name=Domaine de
    la Planche; operator=Éclaireuses et Éclaireurs de France;
    scout=yes; tourism=camp_site;
    website=http://www.domainedelaplanche.ecles.fr;
    id=node/436319177</desc>
    <link href="http://www.domainedelaplanche.ecles.fr"></link>
  </wpt>
  <wpt lat="43.0467065" lon="2.2222641">
    <ele>172.0</ele>
    <name>Camping Municipal du Breil</name>
    <desc>addr:postcode=11300; construction=caravan_site;
    name=Camping Municipal du Breil; network=CAMPING-CAR PARK;
    network:website=https://www.campingcarpark.com/fr_FR/camping-car/occitanie/aude/limoux-le-breil;
    new_name=Aire de camping-car de Limoux, Le Breil;
    source=cadastre-dgi-fr source : Direction Générale des Impôts -
    Cadastre , mise à jour : 31/04/2007; tourism=camp_site;
    website=https://www.limoux.fr/decouvrir-limoux/tourisme/camping-municipal-le-breil/;
    id=node/438030845</desc>
    <link href="https://www.campingcarpark.com/fr_FR/camping-car/occitanie/aude/limoux-le-breil">
    </link>
  </wpt>
  <wpt lat="42.8014682" lon="2.7199915">
    <ele>100.0</ele>
    <name>Mas de l'Alzine</name>
    <desc>name=Mas de l'Alzine; tourism=camp_site;
    id=node/442529146</desc>
  </wpt>
  <wpt lat="47.7034532" lon="-1.3780125">
    <ele>91.0</ele>
    <name>Camping municipal</name>
    <desc>name=Camping municipal; source=cadastre-dgi-fr source :
    Direction Générale des Impôts - Cadastre , mise à jour :
    02/10/2007; tourism=camp_site; id=node/444861647</desc>
  </wpt>
  <wpt lat="45.2475235" lon="1.1378129">
    <ele>162.0</ele>
    <name>Camping du Coucou</name>
    <desc>name=Camping du Coucou; tourism=camp_site;
    id=node/454960912</desc>
  </wpt>
  <wpt lat="45.3005546" lon="1.131938">
    <ele>145.0</ele>
    <name>Camping Le Clupeau</name>
    <desc>name=Camping Le Clupeau; tourism=camp_site;
    id=node/454962183</desc>
  </wpt>
  <wpt lat="45.9240009" lon="6.6539576">
    <ele>552.0</ele>
    <name>Mont Blanc Plage</name>
    <desc>name=Mont Blanc Plage; phone=+33 4 50 58 14 28;
    tourism=camp_site; website=https://mont-blanc-plage.net/;
    id=node/457922399</desc>
    <link href="https://mont-blanc-plage.net/"></link>
  </wpt>
  <wpt lat="44.5147101" lon="6.3606017">
    <ele>855.0</ele>
    <name>Les Chappas</name>
    <desc>addr:city=Pontis; addr:postcode=05160; name=Les Chappas;
    phone=+33 4 92 44 22 09; tourism=camp_site;
    website=https://www.camping-les-chappas.com/;
    id=node/458460737</desc>
    <link href="https://www.camping-les-chappas.com/"></link>
  </wpt>
  <wpt lat="47.6022008" lon="-3.0365915">
    <ele>18.0</ele>
    <name>Kervilor</name>
    <desc>name=Kervilor; name:br=Kervilor; source=survey;
    source:name:br=ofis publik ar brezhoneg; tourism=camp_site;
    id=node/458610523</desc>
  </wpt>
  <wpt lat="46.5215164" lon="5.7232897">
    <ele>440.0</ele>
    <name>Domaine de la Fraite</name>
    <desc>addr:city=Thoiria; addr:postcode=39130;
    amenity=restaurant; cuisine=french; ele=440; microbrewery=no;
    name=Domaine de la Fraite; phone=+33 3 84 25 80 21;
    tourism=camp_site; website=http://www.alafraite.com/;
    id=node/469217700</desc>
    <link href="http://www.alafraite.com/"></link>
  </wpt>
  <wpt lat="44.72171" lon="0.2360961">
    <ele>59.0</ele>
    <name>Moulin de Borie Neuve</name>
    <desc>name=Moulin de Borie Neuve; tourism=camp_site;
    id=node/471226415</desc>
  </wpt>
  <wpt lat="46.1233328" lon="0.6592888">
    <ele>124.0</ele>
    <name>Camping Le Parc</name>
    <desc>name=Camping Le Parc; tourism=camp_site;
    website=https://www.camping-le-parc-availles.fr/;
    id=node/472692717</desc>
    <link href="https://www.camping-le-parc-availles.fr/"></link>
  </wpt>
  <wpt lat="48.5928279" lon="-2.517412">
    <ele>40.0</ele>
    <name>Parc résidentiel de la Vallée du Preto</name>
    <desc>addr:city=Pléneuf Val André; addr:postcode=22370;
    name=Parc résidentiel de la Vallée du Preto; note=Chalet;
    phone=+33296631979; source=RLM; tourism=camp_site;
    website=https://www.parc-du-preto.com/;
    id=node/473232431</desc>
    <link href="https://www.parc-du-preto.com/"></link>
  </wpt>
  <wpt lat="45.8790675" lon="6.6362824">
    <ele>1077.0</ele>
    <name>Demi-Lune</name>
    <desc>name=Demi-Lune; tourism=camp_site;
    id=node/474656673</desc>
  </wpt>
  <wpt lat="44.9365307" lon="3.9850937">
    <ele>823.0</ele>
    <name>Camping l'Estela</name>
    <desc>name=Camping l'Estela; phone=+33 471038224;
    tourism=camp_site; id=node/476467897</desc>
  </wpt>
  <wpt lat="46.6339774" lon="1.4086978">
    <ele>104.0</ele>
    <name>L'Oasis du Berry</name>
    <desc>access=customers; addr:city=Saint-Gaultier;
    addr:housenumber=3; addr:postcode=36800; addr:street=Rue de la
    Pierre Plate; capacity:persons=24; internet_access=wlan;
    name=L'Oasis du Berry; operator=Eloise &amp; Sébastien
    Paulmier; stars=4; tents=no; tourism=camp_site;
    website=https://camping-oasisduberry.fr;
    id=node/476553963</desc>
    <link href="https://camping-oasisduberry.fr"></link>
  </wpt>
  <wpt lat="47.1352653" lon="2.1618417">
    <ele>110.0</ele>
    <name>node/482593147</name>
    <desc>tourism=camp_site; id=node/482593147</desc>
  </wpt>
  <wpt lat="43.5454125" lon="6.4378144">
    <ele>189.0</ele>
    <name>node/488475613</name>
    <desc>source=cadastre-dgi-fr source : Direction Générale des
    Impôts - Cadastre. Mise à jour : 2009; tourism=camp_site;
    id=node/488475613</desc>
  </wpt>
  <wpt lat="47.8494843" lon="-3.4121938">
    <ele>54.0</ele>
    <name>Entre Terre et Mer</name>
    <desc>addr:city=Pont-Scorff; addr:place=Sapin En Gam;
    addr:postcode=56620; addr:street=Route d’Arzano; cabins=yes;
    caravans=yes; name=Entre Terre et Mer; opening_hours=Mar-Oct;
    phone=+33 2 97 32 56 56; stars=3; swimming_pool=yes; tents=yes;
    tourism=camp_site;
    website=https://www.camping-terre-et-mer.com;
    id=node/489340198</desc>
    <link href="https://www.camping-terre-et-mer.com"></link>
  </wpt>
  <wpt lat="44.3043801" lon="3.9831631">
    <ele>289.0</ele>
    <name>node/496381347</name>
    <desc>tourism=camp_site; id=node/496381347</desc>
  </wpt>
  <wpt lat="42.1689555" lon="9.5298705">
    <ele>20.0</ele>
    <name>node/497365830</name>
    <desc>tourism=camp_site; id=node/497365830</desc>
  </wpt>
  <wpt lat="45.8503362" lon="5.4125394">
    <ele>202.0</ele>
    <name>Espace Eau Vive</name>
    <desc>addr:street=Isle de la Serre; caravans=yes;
    drinking_water=yes; internet_access=yes; name=Espace Eau Vive;
    phone=+33 4 37 63 20 30; power_supply=yes; shower=yes; stars=2;
    tents=yes; toilets=yes; tourism=camp_site;
    website=https://www.espace-eauvive.com/;
    id=node/506749021</desc>
    <link href="https://www.espace-eauvive.com/"></link>
  </wpt>
  <wpt lat="45.063424" lon="5.3946263">
    <ele>291.0</ele>
    <name>Camping Chez la Mère Michon</name>
    <desc>addr:city=Châtelus; addr:housenumber=170;
    addr:postcode=38680; addr:street=Chemin Combe-Bernard;
    caravans=yes; email=daniel.berger07@orange.fr; fee=yes;
    name=Camping Chez la Mère Michon; phone=+33 4 76 36 07 27;
    shower=yes; tents=yes; toilets=yes; tourism=camp_site;
    id=node/510919215</desc>
  </wpt>
  <wpt lat="48.9155702" lon="7.369482">
    <ele>223.0</ele>
    <name>Camping Municipal</name>
    <desc>caravans=yes; name=Camping Municipal; tents=yes;
    tourism=camp_site;
    website=https://www.wingensurmoder.fr/DECOUVRIR/Tourisme/Camping-municipal.html;
    id=node/528916253</desc>
    <link href="https://www.wingensurmoder.fr/DECOUVRIR/Tourisme/Camping-municipal.html">
    </link>
  </wpt>
  <wpt lat="42.3920042" lon="9.1748326">
    <ele>289.0</ele>
    <name>Camping Campita</name>
    <desc>name=Camping Campita; tourism=camp_site;
    website=https://campita.fr/de/index.html;
    id=node/533685099</desc>
    <link href="https://campita.fr/de/index.html"></link>
  </wpt>
  <wpt lat="-21.5931075" lon="168.108035">
    <ele>11.0</ele>
    <name>Camping Chez Damas</name>
    <desc>name=Camping Chez Damas; tourism=camp_site;
    id=node/535189306</desc>
  </wpt>
  <wpt lat="45.1862897" lon="5.0206289">
    <ele>376.0</ele>
    <name>Les Pins</name>
    <desc>addr:housenumber=515; addr:postcode=26350;
    addr:street=Route des Pins; email=earllespins@orange.fr;
    internet_access=wlan; name=Les Pins; phone=04 75 45 63 85,06 79
    01 13 52; source=cadastre-dgi-fr source : Direction Générale
    des Impôts - Cadastre , mise à jour : 2008; tourism=camp_site;
    website=https://www.bienvenue-a-la-ferme.com/auvergnerhonealpes/drome/montchenu-drome/ferme/ferme-les-pins/60552;
    id=node/558343101</desc>
    <link href="https://www.bienvenue-a-la-ferme.com/auvergnerhonealpes/drome/montchenu-drome/ferme/ferme-les-pins/60552">
    </link>
  </wpt>
  <wpt lat="48.6369451" lon="7.4313197">
    <ele>226.0</ele>
    <name>Camping Municipal de Wasselonne ***</name>
    <desc>caravans=yes;
    contact:email=camping-wasselonne@wanadoo.fr; contact:phone=+33
    3 88 87 00 08; name=Camping Municipal de Wasselonne ***;
    source=cadastre-dgi-fr source : Direction Générale des Impôts -
    Cadastre. Mise à jour : 2009; tents=yes; tourism=camp_site;
    website=https://www.campingwasselonne.fr/;
    id=node/565671559</desc>
    <link href="https://www.campingwasselonne.fr/"></link>
  </wpt>
  <wpt lat="48.5777234" lon="2.4833905">
    <ele>37.0</ele>
    <name>Les Canadieres</name>
    <desc>caravans=yes; drinking_water=yes; name=Les Canadieres;
    power_supply=yes; shower=yes; tents=yes; toilets=yes;
    tourism=camp_site; id=node/571777247</desc>
  </wpt>
  <wpt lat="48.9210641" lon="2.7215816">
    <ele>44.0</ele>
    <name>node/579383377</name>
    <desc>tourism=camp_site; id=node/579383377</desc>
  </wpt>
  <wpt lat="46.6422762" lon="-0.2672381">
    <ele>141.0</ele>
    <name>Camping de Bois Vert</name>
    <desc>addr:city=Le Tallud; addr:housename=Camping Flower Bois
    Vert; addr:housenumber=14; addr:postcode=79200; addr:street=Rue
    de Boisseau; email=campingboisvert@orange.fr; fax=+33549959668;
    internet_access=wlan; name=Camping de Bois Vert; operator=M. et
    Mme Grosset Bertin; phone=+33549647843; source=Association
    Tourisme et Handicaps; tourism=camp_site;
    website=http://www.camping-boisvert.com; wheelchair=yes;
    id=node/582676591</desc>
    <link href="http://www.camping-boisvert.com"></link>
  </wpt>
  <wpt lat="48.6786677" lon="-3.6245535">
    <ele>58.0</ele>
    <name>Le Village de l'Armorique</name>
    <desc>addr:city=Plestin-les-Grèves; addr:housenumber=18;
    addr:postcode=22310; addr:street=Rue de Milin Avel;
    caravans=yes; fee=yes; name=Le Village de l'Armorique;
    phone=+33 2 35 21 69 63; static_caravans=yes; tents=yes;
    tourism=camp_site; website=https://www.villagearmorique.com;
    id=node/582891835</desc>
    <link href="https://www.villagearmorique.com"></link>
  </wpt>
  <wpt lat="48.1591832" lon="1.0133861">
    <ele>190.0</ele>
    <name>Ferme de la Belvindière</name>
    <desc>name=Ferme de la Belvindière; tourism=camp_site;
    id=node/602325173</desc>
  </wpt>
  <wpt lat="42.5552847" lon="2.3775363">
    <ele>575.0</ele>
    <name>L'Eau Vive</name>
    <desc>cabins=yes; caravans=yes; name=L'Eau Vive;
    opening_hours=Apr 1 - Oct 31; phone=+33 4 68 05 54 14;
    shower=yes; stars=3; tents=yes; toilets=yes; tourism=camp_site;
    website=https://leauvive-camping.com; id=node/627843730</desc>
    <link href="https://leauvive-camping.com"></link>
  </wpt>
  <wpt lat="42.5564512" lon="2.3849304">
    <ele>611.0</ele>
    <name>Camping Del Bosc</name>
    <desc>cabins=yes; caravans=yes;
    email=contact@camping-del-bosc.com; name=Camping Del Bosc;
    opening_hours=Apr 15 - Sep 30; phone=+33 4 68 05 54 54;
    shower=yes; stars=3; tents=yes; toilets=yes; tourism=camp_site;
    website=https://www.camping-del-bosc.com;
    id=node/630747182</desc>
    <link href="https://www.camping-del-bosc.com"></link>
  </wpt>
  <wpt lat="44.7826382" lon="-0.1272414">
    <ele>49.0</ele>
    <name>Camping du Vieux Château</name>
    <desc>addr:city=Rauzan; addr:housenumber=6;
    addr:postcode=33420; addr:street=Blabot-Bas; caravans=yes;
    fee=yes; name=Camping du Vieux Château; static_caravans=yes;
    tents=yes; tourism=camp_site;
    website=https://www.vieuxchateau.fr; id=node/664251159</desc>
    <link href="https://www.vieuxchateau.fr"></link>
  </wpt>
  <wpt lat="48.4545483" lon="-1.650999">
    <ele>101.0</ele>
    <name>Camping du Bois Coudrais</name>
    <desc>name=Camping du Bois Coudrais; tourism=camp_site;
    id=node/665870821</desc>
  </wpt>
  <wpt lat="44.0223536" lon="4.0454389">
    <ele>113.0</ele>
    <name>Camping Mas des Chênes</name>
    <desc>name=Camping Mas des Chênes; tourism=camp_site;
    id=node/676583482</desc>
  </wpt>
  <wpt lat="44.0032722" lon="3.6592497">
    <ele>199.0</ele>
    <name>Les Magnarelles</name>
    <desc>caravans=yes; name=Les Magnarelles; operator=Max
    Scheider; tents=yes; tourism=camp_site;
    id=node/683404431</desc>
  </wpt>
  <wpt lat="46.9770487" lon="0.6693531">
    <ele>43.0</ele>
    <name>node/685482481</name>
    <desc>source=cadastre-dgi-fr source : Direction Générale des
    Impôts - Cadastre , mise à jour : 2010; tourism=camp_site;
    id=node/685482481</desc>
  </wpt>
  <wpt lat="47.8070242" lon="-3.6865251">
    <ele>36.0</ele>
    <name>Camping de la Grande Lande</name>
    <desc>caravans=no; name=Camping de la Grande Lande; phone=+33 2
    98 71 00 39; stars=3; swimming_pool=yes; tents=no;
    tourism=camp_site;
    website=https://www.campingdelagrandelande.com; wheelchair=yes;
    id=node/695553332</desc>
    <link href="https://www.campingdelagrandelande.com"></link>
  </wpt>
  <wpt lat="44.6398386" lon="0.6866875">
    <ele>80.0</ele>
    <name>Bourgade</name>
    <desc>name=Bourgade; tourism=camp_site;
    id=node/704438734</desc>
  </wpt>
  <wpt lat="44.5644658" lon="4.9077259">
    <ele>182.0</ele>
    <name>Camping a la Ferme Des Roures</name>
    <desc>name=Camping a la Ferme Des Roures; tourism=camp_site;
    id=node/713701531</desc>
  </wpt>
  <wpt lat="44.1257085" lon="5.1740988">
    <ele>322.0</ele>
    <name>Camping municipal La Pinède</name>
    <desc>caravans=yes; drinking_water=yes; name=Camping municipal
    La Pinède; name:oc=Campatge municipau de La Pineda; shower=yes;
    source:name:oc=ieo-bdtopoc; stars=3; tents=yes;
    tourism=camp_site;
    website=https://www.camping-lapinede-ventoux.fr/;
    id=node/736905847</desc>
    <link href="https://www.camping-lapinede-ventoux.fr/"></link>
  </wpt>
  <wpt lat="43.5119649" lon="2.7531944">
    <ele>460.0</ele>
    <name>La Borio de Roque</name>
    <desc>name=La Borio de Roque; tourism=camp_site;
    id=node/762274375</desc>
  </wpt>
  <wpt lat="47.609127" lon="3.1197423">
    <ele>219.0</ele>
    <name>La Calanque</name>
    <desc>capacity=145; caravans=yes; drinking_water=yes; fee=yes;
    internet_access=wlan; internet_access:fee=no;
    motor_vehicle=yes; name=La Calanque; opening_hours=Apr-Sep;
    phone=+33 3 86 74 04 55; power_supply=yes;
    sanitary_dump_station=yes; shower=yes; stars=3; tents=yes;
    toilets=yes; tourism=camp_site; washing_machine=yes;
    website=https://www.camping-lacalanque.fr/; wheelchair=yes;
    id=node/798570086</desc>
    <link href="https://www.camping-lacalanque.fr/"></link>
  </wpt>
  <wpt lat="-20.9319" lon="167.30945">
    <ele>16.0</ele>
    <name>node/803558840</name>
    <desc>tourism=camp_site; id=node/803558840</desc>
  </wpt>
  <wpt lat="48.2893746" lon="-4.2718756">
    <ele>55.0</ele>
    <name>L'Abbaye de Landevennec</name>
    <desc>backcountry=yes; drinking_water=yes; fee=no;
    name=L'Abbaye de Landevennec; power_supply=no; shower=no;
    toilets=yes; tourism=camp_site; id=node/812895780</desc>
  </wpt>
  <wpt lat="44.8670406" lon="1.358243">
    <ele>94.0</ele>
    <name>Camping Les Ombrages</name>
    <desc>caravans=yes; name=Camping Les Ombrages; name:en=Camping
    Les Ombrages; tents=yes; tourism=camp_site;
    id=node/821891501</desc>
  </wpt>
  <wpt lat="43.160426" lon="6.4341904">
    <ele>58.0</ele>
    <name>node/831746467</name>
    <desc>tourism=camp_site; id=node/831746467</desc>
  </wpt>
  <wpt lat="48.6057888" lon="-2.8414917">
    <ele>51.0</ele>
    <name>Les Palmiers</name>
    <desc>description=Location de mobil home uniquement.; name=Les
    Palmiers; tourism=camp_site;
    website=https://www.campingpalmiers.com;
    id=node/844991274</desc>
    <link href="https://www.campingpalmiers.com"></link>
  </wpt>
  <wpt lat="44.4612897" lon="3.9278864">
    <ele>625.0</ele>
    <name>Camping Le Lac de Villefort</name>
    <desc>name=Camping Le Lac de Villefort; tourism=camp_site;
    id=node/845891737</desc>
  </wpt>
  <wpt lat="-22.2228735" lon="166.8467847">
    <ele>233.0</ele>
    <name>Camping de Netcha</name>
    <desc>charge=900 XPF; fee=yes; internet_access=no; name=Camping
    de Netcha; operator=SUD SERVICE SARL; phone=+687 47 94 80;
    smoking=yes; tourism=camp_site; id=node/848301695</desc>
  </wpt>
  <wpt lat="43.904263" lon="-1.2923471">
    <ele>26.0</ele>
    <name>Le Gaoucher</name>
    <desc>contact:phone=+335 58 42 93 00; name=Le Gaoucher;
    tourism=camp_site; website=https://legaoucher.net/;
    id=node/848387183</desc>
    <link href="https://legaoucher.net/"></link>
  </wpt>
  <wpt lat="43.3655466" lon="-1.7509961">
    <ele>44.0</ele>
    <name>Orio</name>
    <desc>name=Orio; tourism=camp_site; id=node/848398451</desc>
  </wpt>
  <wpt lat="45.0789959" lon="2.2304181">
    <ele>434.0</ele>
    <name>Camping de Longairoux</name>
    <desc>name=Camping de Longairoux; tourism=camp_site;
    id=node/848824573</desc>
  </wpt>
  <wpt lat="45.0800275" lon="2.2274723">
    <ele>438.0</ele>
    <name>Les Alizés</name>
    <desc>name=Les Alizés; tourism=camp_site;
    id=node/848825272</desc>
  </wpt>
  <wpt lat="43.389357" lon="1.8285129">
    <ele>277.0</ele>
    <name>Domaine Saint-Laurent</name>
    <desc>caravans=yes; drinking_water=yes; name=Domaine
    Saint-Laurent; power_supply=yes; sanitary_dump_station=no;
    shower=yes; source=survey; tents=yes; toilets=yes;
    tourism=camp_site; id=node/850704660</desc>
  </wpt>
  <wpt lat="42.9643879" lon="9.4478811">
    <ele>8.0</ele>
    <name>Camping U Stazzu</name>
    <desc>addr:street=Route Acqua Salse; caravans=yes;
    email=campingustazzu@live.fr; fee=yes; motorhome=yes;
    name=Camping U Stazzu; operator=Isabelle Albertini; phone=+33 4
    95 35 43 76; power_supply=yes; tents=yes; tourism=camp_site;
    website=https://camping-u-stazzu.jimdo.com;
    id=node/851546586</desc>
    <link href="https://camping-u-stazzu.jimdo.com"></link>
  </wpt>
  <wpt lat="47.467948" lon="4.3548717">
    <ele>308.0</ele>
    <name>Camping Municipal du Lac de Pont</name>
    <desc>name=Camping Municipal du Lac de Pont; phone=+33 3 80 97
    01 26; tourism=camp_site;
    website=https://www.campingdulacdepont.fr/;
    id=node/863462076</desc>
    <link href="https://www.campingdulacdepont.fr/"></link>
  </wpt>
  <wpt lat="46.446343" lon="4.8984205">
    <ele>173.0</ele>
    <name>Camping Aux Rives du Soleil</name>
    <desc>caravans=yes; contact:city=Pont-de-Vaux;
    contact:postcode=01190; contact:street=Port de Fleurville;
    drinking_water=yes; name=Camping Aux Rives du Soleil;
    opening_hours=Mo-Su 08:00-12:30 13:30-20:00 July and August;
    phone=+33 3 85 30 33 65; shower=yes; stars=3; tents=yes;
    toilets=yes; tourism=camp_site;
    website=https://www.rivesdusoleil.com/;
    id=node/863549251</desc>
    <link href="https://www.rivesdusoleil.com/"></link>
  </wpt>
  <wpt lat="44.823586" lon="6.146073">
    <ele>1025.0</ele>
    <name>Les eaux douces</name>
    <desc>name=Les eaux douces; tourism=camp_site;
    website=https://lecampingdeseauxdo.wixsite.com/monsite;
    wifi=no; id=node/863595153</desc>
    <link href="https://lecampingdeseauxdo.wixsite.com/monsite">
    </link>
  </wpt>
  <wpt lat="-21.9535978" lon="166.0047204">
    <ele>6.0</ele>
    <name>Camping Municipal de Bouraké</name>
    <desc>fee=no; name=Camping Municipal de Bouraké;
    tourism=camp_site; id=node/864278778</desc>
  </wpt>
  <wpt lat="47.9174024" lon="-2.2096179">
    <ele>71.0</ele>
    <name>Village des Motards</name>
    <desc>name=Village des Motards; tourism=camp_site;
    id=node/864520303</desc>
  </wpt>
  <wpt lat="-21.8472442" lon="165.810669">
    <ele>0.0</ele>
    <name>Ouano Surf Camp</name>
    <desc>name=Ouano Surf Camp; tourism=camp_site;
    website=www.ouanosurf.com; id=node/864548773</desc>
    <link href="www.ouanosurf.com"></link>
  </wpt>
  <wpt lat="44.5015527" lon="1.6932385">
    <ele>265.0</ele>
    <name>Les Cadichons</name>
    <desc>addr:place=Les Bouygues;
    contact:website=https://www.les-cadichons.com/;
    email=les-cadichons@wanadoo.fr; name=Les Cadichons;
    operator=Accueil Paysan; phone=+33 565 309 156; tents=yes;
    tourism=camp_site; website=https://www.les-cadichons.com/;
    id=node/872079365</desc>
    <link href="https://www.les-cadichons.com/"></link>
  </wpt>
  <wpt lat="44.4482109" lon="1.6755303">
    <ele>339.0</ele>
    <name>La Truffière</name>
    <desc>addr:city=SAINT CIRQ LAPOPIE; addr:postcode=46330;
    addr:street=Pradines; caravans=yes; dog=leashed;
    email=contact@camping-truffiere.com; fee=yes; name=La
    Truffière; openfire=yes; phone=+33 5 65 30 20 22;
    sanitary_dump_station=yes; tents=yes; tourism=camp_site;
    website=https://camping-truffiere.com/;
    id=node/872079688</desc>
    <link href="https://camping-truffiere.com/"></link>
  </wpt>
  <wpt lat="-20.9674809" lon="164.6566736">
    <ele>4.0</ele>
    <name>Camping de Gatope</name>
    <desc>addr:city=Voh; name=Camping de Gatope; phone=+687 422768;
    tourism=camp_site; id=node/878432343</desc>
  </wpt>
  <wpt lat="-20.572941" lon="164.287828">
    <ele>6.0</ele>
    <name>Camping Le Lagon</name>
    <desc>description=1000 xpf / personne / nuit; fee=yes;
    internet_access=wlan; name=Camping Le Lagon;
    opening_hours=Mo-Su 08:00-12:00, 14:00-19:00; phone=+687
    423949, +687 836778; tents=yes; tourism=camp_site;
    id=node/880305502</desc>
  </wpt>
  <wpt lat="-20.2981137" lon="164.0834154">
    <ele>5.0</ele>
    <name>Camping de Golone</name>
    <desc>name=Camping de Golone; tourism=camp_site;
    id=node/882287759</desc>
  </wpt>
  <wpt lat="-20.1414106" lon="164.0539755">
    <ele>10.0</ele>
    <name>Camping de BORABORA</name>
    <desc>name=Camping de BORABORA; name:en=Camping de KEJAON;
    name:fr=Camping de KEJAON; tourism=camp_site;
    id=node/882358981</desc>
  </wpt>
  <wpt lat="-20.0818191" lon="164.0257694">
    <ele>4.0</ele>
    <name>Camping de Poingam</name>
    <desc>name=Camping de Poingam; tourism=camp_site;
    id=node/882372916</desc>
  </wpt>
  <wpt lat="-20.5850635" lon="164.8296678">
    <ele>5.0</ele>
    <name>Camping de Tao</name>
    <desc>name=Camping de Tao; tourism=camp_site;
    id=node/888358595</desc>
  </wpt>
  <wpt lat="-20.6802161" lon="164.9692392">
    <ele>9.0</ele>
    <name>Camping de Billet de 500</name>
    <desc>name=Camping de Billet de 500; tourism=camp_site;
    id=node/890426066</desc>
  </wpt>
  <wpt lat="-20.6888159" lon="164.9746031">
    <ele>5.0</ele>
    <name>node/890426071</name>
    <desc>fee=yes; tourism=camp_site; id=node/890426071</desc>
  </wpt>
  <wpt lat="-20.3747817" lon="164.5829361">
    <ele>6.0</ele>
    <name>Camping de St Mathieu</name>
    <desc>name=Camping de St Mathieu; tourism=camp_site;
    id=node/891143736</desc>
  </wpt>
  <wpt lat="-21.0396864" lon="165.4034135">
    <ele>11.0</ele>
    <name>Camping de Tiakan</name>
    <desc>name=Camping de Tiakan; tourism=camp_site;
    id=node/896861013</desc>
  </wpt>
  <wpt lat="42.8865442" lon="9.4710387">
    <ele>0.0</ele>
    <name>Santa Marina</name>
    <desc>caravans=yes; name=Santa Marina;
    sanitary_dump_station=yes; tents=yes; tourism=camp_site;
    website=https://www.camping-santamarina.com/;
    id=node/905793820</desc>
    <link href="https://www.camping-santamarina.com/"></link>
  </wpt>
  <wpt lat="42.812252" lon="9.4850587">
    <ele>27.0</ele>
    <name>A Casaïola</name>
    <desc>access=customers; backcountry=no; caravans=yes;
    drinking_water=yes; email=info@camping-acasaiola.com; fee=yes;
    group_only=no; internet_access=wlan; internet_access:fee=no;
    name=A Casaïola; note=cammping car max 6,8m; phone=+33 4 95 35
    20 10; reservation=no; sanitary_dump_station=yes; shower=yes;
    static_caravans=yes; tents=yes; toilets=yes; tourism=camp_site;
    website=https://www.camping-acasaiola.com;
    id=node/905794229</desc>
    <link href="https://www.camping-acasaiola.com"></link>
  </wpt>
  <wpt lat="43.9843881" lon="1.9135287">
    <ele>194.0</ele>
    <name>Camping Le Soleil des Bastides</name>
    <desc>addr:street=Route de Cordes;
    email=info@le-soleil-des-bastides.fr; name=Camping Le Soleil
    des Bastides; phone=+33 5 63 33 91 94; stars=3;
    tourism=camp_site;
    website=https://camping-le-soleil-des-bastides.fr/;
    id=node/919450004</desc>
    <link href="https://camping-le-soleil-des-bastides.fr/"></link>
  </wpt>
  <wpt lat="46.0317727" lon="2.2801847">
    <ele>520.0</ele>
    <name>La Naute</name>
    <desc>caravans=yes; contact:email=campingdelanaute@hotmail.com;
    contact:phone=+33 5 55 67 12 54; mobile=+33 6 23 43 48 61;
    name=La Naute; official_name=Camping La Naute;
    ref:FR:CRTA=HPAAQU023V5000ZI; source=data.gouv.fr:DATAtourisme
    - 05/2020; stars=2; tents=yes; tourism=camp_site;
    website=https://www.lanaute.com/dodo-camping-et-gites-camping-at-la-naute-bye-byes/;
    wheelchair=no; id=node/920036649</desc>
    <link href="https://www.lanaute.com/dodo-camping-et-gites-camping-at-la-naute-bye-byes/">
    </link>
  </wpt>
  <wpt lat="44.9497239" lon="0.6681169">
    <ele>159.0</ele>
    <name>La Brugère</name>
    <desc>name=La Brugère; tourism=camp_site;
    id=node/929955016</desc>
  </wpt>
  <wpt lat="42.5193209" lon="2.0961105">
    <ele>1656.0</ele>
    <name>Camping Le Petit Canada</name>
    <desc>addr:city=La Llagonne; addr:postcode=66210;
    addr:street=Route des Bouillouses; alt_name=Camping Les
    Bouillouses; camp_site=serviced; caravans=yes; dog=leashed;
    drinking_water=yes; email=contact@camping-lepetitcanada.fr;
    fee=yes; internet_access=wlan; name=Camping Le Petit Canada;
    phone=+33 07 89 08 78 98.; power_supply=yes;
    sanitary_dump_station=yes; shower=yes; stars=2;
    static_caravans=no; tents=yes; toilets=yes; tourism=camp_site;
    website=https://www.camping-lepetitcanada.fr/;
    id=way/1409804647; ; id=node/932308632</desc>
    <link href="https://www.camping-lepetitcanada.fr/"></link>
  </wpt>
  <wpt lat="45.6548459" lon="0.7895104">
    <ele>347.0</ele>
    <name>La nozilliere</name>
    <desc>name=La nozilliere; tourism=camp_site;
    id=node/934825674</desc>
  </wpt>
  <wpt lat="46.6159239" lon="0.0675955">
    <ele>148.0</ele>
    <name>La Rodière</name>
    <desc>name=La Rodière; tourism=camp_site;
    id=node/944010494</desc>
  </wpt>
  <wpt lat="46.6678205" lon="-0.0026264">
    <ele>167.0</ele>
    <name>Bois de Sait Hilaire</name>
    <desc>name=Bois de Sait Hilaire; tourism=camp_site;
    id=node/944637359</desc>
  </wpt>
  <wpt lat="47.8624153" lon="2.5542488">
    <ele>119.0</ele>
    <name>Le Moulin Rose</name>
    <desc>name=Le Moulin Rose; tourism=camp_site;
    id=node/946028222</desc>
  </wpt>
  <wpt lat="48.3268964" lon="7.3606144">
    <ele>250.0</ele>
    <name>Camping St. Gilles</name>
    <desc>caravans=yes; fee=yes; name=Camping St. Gilles;
    opening_hours=Apr-Oct; phone=+33-388856726; tents=yes;
    tourism=camp_site; website=http://st-gilles.alsace24.net/;
    id=node/980407544</desc>
    <link href="http://st-gilles.alsace24.net/"></link>
  </wpt>
  <wpt lat="46.021936" lon="3.652514">
    <ele>552.0</ele>
    <name>node/989102766</name>
    <desc>internet_access=no; internet_access:fee=no;
    tourism=camp_site; id=node/989102766</desc>
  </wpt>
  <wpt lat="-22.3411093" lon="166.8819884">
    <ele>15.0</ele>
    <name>node/989788228</name>
    <desc>tourism=camp_site; id=node/989788228</desc>
  </wpt>
  <wpt lat="48.1155157" lon="7.1213436">
    <ele>700.0</ele>
    <name>Les Moraines</name>
    <desc>ele=700; name=Les Moraines; phone=+33 3 89 71 25 19;
    tourism=camp_site; id=node/1010592548</desc>
  </wpt>
  <wpt lat="44.5106837" lon="6.5525352">
    <ele>1372.0</ele>
    <name>Camping à la ferme</name>
    <desc>addr:place=Le Pont; hide=yes; name=Camping à la ferme;
    phone=+33 4 92 44 07 51; ref=H51; tourism=camp_site;
    id=node/1013228330</desc>
  </wpt>
  <wpt lat="44.8392868" lon="0.7636247">
    <ele>43.0</ele>
    <name>Camping municipal du Moulin de la Guillou</name>
    <desc>addr:city=Lalinde; addr:postcode=24150; name=Camping
    municipal du Moulin de la Guillou; phone=+33 5 53 58 31 84;
    tourism=camp_site; id=node/1022987528</desc>
  </wpt>
  <wpt lat="43.5270512" lon="1.7468257">
    <ele>237.0</ele>
    <name>Camping de l'Orme Blanc</name>
    <desc>caravans=yes; name=Camping de l'Orme Blanc; phone=+33 6
    88 69 81 70; tents=yes; tourism=camp_site;
    id=node/1059129676</desc>
  </wpt>
  <wpt lat="42.9947691" lon="2.2555161">
    <ele>205.0</ele>
    <name>Val d'Aleth</name>
    <desc>caravans=yes; drinking_water=yes; name=Val d'Aleth;
    power_supply=yes; shower=yes; source=GPS, cadastre-dgi-fr
    source : Direction Générale des Impôts - Cadastre. Mise à jour
    : 2010; stars=2; tents=yes; toilets=yes; tourism=camp_site;
    website=https://www.valdaleth.com/; id=node/1066046920</desc>
    <link href="https://www.valdaleth.com/"></link>
  </wpt>
  <wpt lat="47.0979398" lon="6.0353389">
    <ele>329.0</ele>
    <name>https://eclaireurslaiques.org/</name>
    <desc>email=contact@eclaireurslaiques.org; operator=Éclaireuses
    et Éclaireurs Laïques de Franche-Comté - Besançon; phone=+33 6
    47 25 34 95; scout=land; tourism=camp_site;
    website=https://eclaireurslaiques.org/;
    id=node/1067496576</desc>
    <link href="https://eclaireurslaiques.org/"></link>
  </wpt>
  <wpt lat="45.9124148" lon="6.6593674">
    <ele>555.0</ele>
    <name>node/1067909028</name>
    <desc>source=cadastre-dgi-fr source : Direction Générale des
    Impôts - Cadastre. Mise à jour : 2010; tourism=camp_site;
    id=node/1067909028</desc>
  </wpt>
  <wpt lat="45.9177637" lon="6.648271">
    <ele>550.0</ele>
    <name>node/1067909031</name>
    <desc>source=cadastre-dgi-fr source : Direction Générale des
    Impôts - Cadastre. Mise à jour : 2010; tourism=camp_site;
    id=node/1067909031</desc>
  </wpt>
  <wpt lat="45.6269998" lon="4.9769218">
    <ele>257.0</ele>
    <name>Air naturelle de Vernay Aime</name>
    <desc>name=Air naturelle de Vernay Aime; tourism=camp_site;
    id=node/1093674785</desc>
  </wpt>
  <wpt lat="47.2033756" lon="5.3832709">
    <ele>180.0</ele>
    <name>Aire naturelle de Amitie Nature</name>
    <desc>access=private; name=Aire naturelle de Amitie Nature;
    tourism=camp_site;
    website=https://alexlapo5.wixsite.com/campingamitienature;
    id=node/1093674815</desc>
    <link href="https://alexlapo5.wixsite.com/campingamitienature">
    </link>
  </wpt>
  <wpt lat="48.1659612" lon="-4.2931893">
    <ele>23.0</ele>
    <name>Porz Ar Vag</name>
    <desc>name=Porz Ar Vag; name:br=Porzh ar Vag;
    source:name:br=ofis publik ar brezhoneg; tourism=camp_site;
    id=node/1096320143</desc>
  </wpt>
  <wpt lat="48.9618848" lon="7.6454604">
    <ele>255.0</ele>
    <name>Heidenkopf</name>
    <desc>contact:website=https://www.domaine-heidenkopf.fr/;
    name=Heidenkopf; opening_hours=Mo-Su 09:00-12:00, 14:00-18:00;
    tourism=camp_site; id=node/1100783583</desc>
    <link href="https://www.domaine-heidenkopf.fr/"></link>
  </wpt>
  <wpt lat="48.9685383" lon="7.5228131">
    <ele>238.0</ele>
    <name>La Pinède</name>
    <desc>access=private; addr:city=Baerenthal;
    addr:postcode=57230; name=La Pinède; tourism=camp_site;
    id=node/1100783586</desc>
  </wpt>
  <wpt lat="49.0100386" lon="7.6216566">
    <ele>245.0</ele>
    <name>Municipal aire naturelle Du Hohenfels</name>
    <desc>caravans=yes; name=Municipal aire naturelle Du Hohenfels;
    tents=yes; tourism=camp_site;
    website=https://www.communededambachneunhoffen.net/campinghotelrestaurants-gite;
    id=node/1100783609</desc>
    <link href="https://www.communededambachneunhoffen.net/campinghotelrestaurants-gite">
    </link>
  </wpt>
  <wpt lat="47.0115913" lon="5.1307225">
    <ele>175.0</ele>
    <name>Municipal</name>
    <desc>name=Municipal; tourism=camp_site;
    id=node/1102349804</desc>
  </wpt>
  <wpt lat="47.015264" lon="5.127604">
    <ele>176.0</ele>
    <name>Les Sables</name>
    <desc>name=Les Sables; tourism=camp_site;
    id=node/1102349806</desc>
  </wpt>
  <wpt lat="43.5169558" lon="6.4790322">
    <ele>159.0</ele>
    <name>Camping de la Foux</name>
    <desc>caravans=yes; name=Camping de la Foux; stars=2;
    tents=yes; tourism=camp_site;
    website=https://www.camping-lafoux.com/;
    id=node/1102349826</desc>
    <link href="https://www.camping-lafoux.com/"></link>
  </wpt>
  <wpt lat="46.827807" lon="5.1101127">
    <ele>189.0</ele>
    <name>Ahimsa</name>
    <desc>name=Ahimsa; tourism=camp_site; id=node/1102349879</desc>
  </wpt>
  <wpt lat="47.6345806" lon="5.7561295">
    <ele>232.0</ele>
    <name>Camping La Fontaine aux fées</name>
    <desc>addr:city=Renaucourt; addr:postcode=70180; name=Camping
    La Fontaine aux fées; operator=municipal; tourism=camp_site;
    website=http://www.franche-comte.org/offre/fiche/camping-caravaning-la-fontaine-aux-fees/333000033;
    id=node/1102349887</desc>
    <link href="http://www.franche-comte.org/offre/fiche/camping-caravaning-la-fontaine-aux-fees/333000033">
    </link>
  </wpt>
  <wpt lat="43.6065134" lon="6.7712511">
    <ele>186.0</ele>
    <name>Les Chaumettes</name>
    <desc>name=Les Chaumettes; tourism=camp_site;
    id=node/1102349895</desc>
  </wpt>
  <wpt lat="46.7440571" lon="5.119546">
    <ele>203.0</ele>
    <name>Thurey</name>
    <desc>name=Thurey; tourism=camp_site; id=node/1102349926</desc>
  </wpt>
  <wpt lat="43.833302" lon="4.9460437">
    <ele>57.0</ele>
    <name>node/1104433380</name>
    <desc>tourism=camp_site; id=node/1104433380</desc>
  </wpt>
  <wpt lat="45.324372" lon="4.8359087">
    <ele>173.0</ele>
    <name>Les Guyots</name>
    <desc>name=Les Guyots; stars=3; tourism=camp_site;
    id=node/1104433385</desc>
  </wpt>
  <wpt lat="50.3310859" lon="1.8605078">
    <ele>9.0</ele>
    <name>Camping Municipal Le Marais</name>
    <desc>capacity=97; name=Camping Municipal Le Marais; phone=+33
    3 22 29 92 82; source=cadastre-dgi-fr source : Direction
    Générale des Impôts - Cadastre. Mise à jour : 2011; stars=2;
    tourism=camp_site;
    website=https://www.somme-tourisme.com/le-marais/dominois/hpapic0800010499;
    id=node/1106278353</desc>
    <link href="https://www.somme-tourisme.com/le-marais/dominois/hpapic0800010499">
    </link>
  </wpt>
  <wpt lat="47.5994603" lon="-3.1206548">
    <ele>19.0</ele>
    <name>Camping à la Ferme</name>
    <desc>name=Camping à la Ferme; tourism=camp_site;
    id=node/1107909114</desc>
  </wpt>
  <wpt lat="47.8709257" lon="5.3789055">
    <ele>383.0</ele>
    <name>Camping de la Liez - Ciela Village - Haute Marne</name>
    <desc>contact:city=Peigney; contact:phone=+33 4 82 78 00 23;
    contact:postcode=52200; contact:street=Rue des Voiliers;
    name=Camping de la Liez - Ciela Village - Haute Marne;
    opening_hours=Mo-Su 09:00-13:00, 14:00-19:00;
    phone=+33325902779; ref:FR:SIRET=44356436400018;
    tourism=camp_site; website=https://www.campingliez.com/fr;
    wheelchair=yes; id=node/1111852820</desc>
    <link href="https://www.campingliez.com/fr"></link>
  </wpt>
  <wpt lat="45.3727889" lon="1.880765">
    <ele>470.0</ele>
    <name>node/1117345770</name>
    <desc>tourism=camp_site; id=node/1117345770</desc>
  </wpt>
  <wpt lat="45.4738838" lon="3.7594437">
    <ele>562.0</ele>
    <name>Moulin de Pacros</name>
    <desc>name=Moulin de Pacros; tourism=camp_site;
    id=node/1132717248</desc>
  </wpt>
  <wpt lat="47.1043088" lon="-1.8664982">
    <ele>21.0</ele>
    <name>Camping municipal L'étoile</name>
    <desc>name=Camping municipal L'étoile; tourism=camp_site;
    id=node/1136356092</desc>
  </wpt>
  <wpt lat="44.9315167" lon="3.4509754">
    <ele>1129.0</ele>
    <name>node/1141000832</name>
    <desc>note=1965 : EUF BLR Vauban; scout=yes; tourism=camp_site;
    using=temporary; id=node/1141000832</desc>
  </wpt>
  <wpt lat="43.7509303" lon="0.9766752">
    <ele>162.0</ele>
    <name>Camping du Mouton Noir</name>
    <desc>name=Camping du Mouton Noir; tourism=camp_site;
    website=http://www.lapagana.fr/camping-du-mouton-noir;
    wheelchair=yes; id=node/1160942051</desc>
    <link href="http://www.lapagana.fr/camping-du-mouton-noir">
    </link>
  </wpt>
  <wpt lat="48.3839495" lon="-3.9158554">
    <ele>275.0</ele>
    <name>Camping municipal / Chalets / Salle communautaire</name>
    <desc>caravans=yes; name=Camping municipal / Chalets / Salle
    communautaire; name:br=Tachenn Gampiñ / Tiez Prenn / Sal ar
    Gumuniezh; tents=yes; tourism=camp_site;
    id=node/1199048252</desc>
  </wpt>
  <wpt lat="46.0089545" lon="-1.1770464">
    <ele>6.0</ele>
    <name>Camping du Fort de la Rade</name>
    <desc>caravans=no; name=Camping du Fort de la Rade;
    phone=+33546842828; tents=yes; tourism=camp_site;
    website=https://www.pierreetvacances.com/;
    id=node/1218707172</desc>
    <link href="https://www.pierreetvacances.com/"></link>
  </wpt>
  <wpt lat="43.8783373" lon="2.9954801">
    <ele>392.0</ele>
    <name>La Margue</name>
    <desc>name=La Margue; tourism=camp_site;
    id=node/1221972213</desc>
  </wpt>
  <wpt lat="43.8900941" lon="2.9811631">
    <ele>470.0</ele>
    <name>Champ de Mascourbe</name>
    <desc>caravans=no; impromptu=yes; name=Champ de Mascourbe;
    tents=yes; tourism=camp_site; id=node/1221995476</desc>
  </wpt>
  <wpt lat="44.6480418" lon="5.057393">
    <ele>368.0</ele>
    <name>La Briance</name>
    <desc>capacity:tents=27; caravans=yes; drinking_water=yes;
    fee=yes; mobile=+336 52 18 73 52; name=La Briance;
    opening_hours=nov-mar off; phone=+334 75 76 05 00;
    power_supply=yes; shower=yes; static_caravans=no; tents=yes;
    toilets=yes; tourism=camp_site; website=https://labriance.com/;
    id=node/1231612153</desc>
    <link href="https://labriance.com/"></link>
  </wpt>
  <wpt lat="45.4362025" lon="-1.0911765">
    <ele>8.0</ele>
    <name>Camping les Familles</name>
    <desc>contact:phone=+335 56 09 43 20; name=Camping les
    Familles; tourism=camp_site;
    website=https://campingdesfamilles.site-solocal.com/;
    id=node/1240724961</desc>
    <link href="https://campingdesfamilles.site-solocal.com/">
    </link>
  </wpt>
  <wpt lat="48.9398129" lon="7.029907">
    <ele>216.0</ele>
    <name>Camping Coer d'Alsace</name>
    <desc>fax=+33 3 88 00 96 13; name=Camping Coer d'Alsace;
    phone=+33 3 88703908; tourism=camp_site;
    website=https://camping-coeur-alsace.fr;
    id=node/1241710564</desc>
    <link href="https://camping-coeur-alsace.fr"></link>
  </wpt>
  <wpt lat="45.6686862" lon="2.989015">
    <ele>840.0</ele>
    <name>Camping et Chalet du Lac d'Aydat</name>
    <desc>addr:housenumber=16; addr:street=Boulevard du Lac;
    caravans=yes; drinking_water=yes; name=Camping et Chalet du Lac
    d'Aydat; phone=04 73 79 38 09,04 73 79 34 12; power_supply=yes;
    shower=yes; tents=yes; toilets=yes; tourism=camp_site;
    website=https://www.camping-lac-aydat.com/;
    id=node/1242061966</desc>
    <link href="https://www.camping-lac-aydat.com/"></link>
  </wpt>
  <wpt lat="49.8549674" lon="3.3091972">
    <ele>82.0</ele>
    <name>Camping de Saint-Quentin</name>
    <desc>capacity=64; caravans=yes;
    email=auberge.camping@ville-saint-quentin.fr; name=Camping de
    Saint-Quentin; operator=Municipalité; phone=+33 3 23 62 68 66;
    tents=yes; tourism=camp_site;
    website=https://www.saint-quentin-tourisme.fr/hebergement/camping-municipal-de-saint-quentin;
    id=node/1243620643</desc>
    <link href="https://www.saint-quentin-tourisme.fr/hebergement/camping-municipal-de-saint-quentin">
    </link>
  </wpt>
  <wpt lat="46.567965" lon="3.1170204">
    <ele>241.0</ele>
    <name>Camping La Caille</name>
    <desc>cabins=yes; capacity=6; email=leniddelacaille@gmail.com;
    name=Camping La Caille; phone=+33 4 70 48 06 36; shower=yes;
    tents=yes; toilets=yes; tourism=camp_site;
    website=https://www.lacaille.org/camping-2/;
    id=node/1248887381</desc>
    <link href="https://www.lacaille.org/camping-2/"></link>
  </wpt>
  <wpt lat="47.5138174" lon="-2.4351131">
    <ele>15.0</ele>
    <name>Camping de Kernéjeune</name>
    <desc>name=Camping de Kernéjeune; opening_hours=Apr-Oct;
    phone=+33 2 97450160; stars=3; tourism=camp_site;
    website=https://www.camping-de-kernejeune.com/;
    id=node/1262193222</desc>
    <link href="https://www.camping-de-kernejeune.com/"></link>
  </wpt>
  <wpt lat="48.7236101" lon="-3.5712485">
    <ele>4.0</ele>
    <name>Camping municipal de Keravilin</name>
    <desc>addr:city=Trédrez-Locquémeau; addr:postcode=22300;
    addr:street=Hent Gwaz ar Gouez; caravans=yes;
    drinking_water=yes; email=camping.keravilin@orange.fr;
    motorhome=yes; name=Camping municipal de Keravilin;
    opening_hours=Apr 6 - Oct 31; phone=+33 2 96 35 26 44;
    shower=yes; stars=2; tents=yes; toilets=yes; tourism=camp_site;
    website=http://www.tredrez-locquemeau.fr/Camping-municipal;
    id=node/1267666572</desc>
    <link href="http://www.tredrez-locquemeau.fr/Camping-municipal">
    </link>
  </wpt>
  <wpt lat="46.2529069" lon="4.010851">
    <ele>263.0</ele>
    <name>Aire naturelle d'Artaix</name>
    <desc>internet_access=no; internet_access:fee=no; name=Aire
    naturelle d'Artaix; tourism=camp_site;
    id=node/1268095012</desc>
  </wpt>
  <wpt lat="-20.3683301" lon="164.4388027">
    <ele>14.0</ele>
    <name>chez bouli</name>
    <desc>name=chez bouli; tourism=camp_site;
    id=node/1268887763</desc>
  </wpt>
  <wpt lat="49.4395929" lon="5.719201">
    <ele>314.0</ele>
    <name>Camping à la ferme</name>
    <desc>capacity:tents=6; charge=1.6 €; description=Camping à la
    ferme; fee=yes; internet_access=no; name=Camping à la ferme;
    phone=+33 3 82 89 77 40; stars=1; static_caravans=no;
    tents=yes; tourism=camp_site; id=node/1269705355</desc>
  </wpt>
  <wpt lat="45.0037812" lon="-1.1348614">
    <ele>34.0</ele>
    <name>L'Ermitage</name>
    <desc>contact:phone=+335 56 03 00 24; name=L'Ermitage;
    source=survey; stars=3; tourism=camp_site;
    website=http://www.ermitage-lacanau.com/;
    id=node/1279679016</desc>
    <link href="http://www.ermitage-lacanau.com/"></link>
  </wpt>
  <wpt lat="48.9696706" lon="1.9595762">
    <ele>65.0</ele>
    <name>Les Chesnets</name>
    <desc>addr:city=Verneuil-sur-Seine; addr:country=FR;
    addr:housenumber=8; addr:postcode=78480; addr:street=Chemin des
    Perons; name=Les Chesnets; phone=+33 1 39 71 99 60; stars=1;
    tourism=camp_site;
    website=https://www.campingfrance.com/recherchez-votre-camping/ile-de-france/yvelines/verneuil-sur-seine/les-chesnets;
    id=node/1281270189</desc>
    <link href="https://www.campingfrance.com/recherchez-votre-camping/ile-de-france/yvelines/verneuil-sur-seine/les-chesnets">
    </link>
  </wpt>
  <wpt lat="46.6826444" lon="2.7868416">
    <ele>236.0</ele>
    <name>Camping des Écossais</name>
    <desc>name=Camping des Écossais; tourism=camp_site;
    website=https://www.campingstroncais.com/;
    id=node/1290852026</desc>
    <link href="https://www.campingstroncais.com/"></link>
  </wpt>
  <wpt lat="43.4265737" lon="0.6135912">
    <ele>300.0</ele>
    <name>Camping Aux Mêmes</name>
    <desc>access=customers; addr:city=Bellegarde;
    addr:housenumber=Aux Mêmes; addr:postcode=32140; capacity=20;
    dog=leashed; ele=300; email=info@gascogne-camping.fr; fee=yes;
    internet_access=wlan; internet_access:ssid=CAM; name=Camping
    Aux Mêmes; opening_hours=Apr-Sep 00:00-24:00; payment:ancv=yes;
    payment:cash=yes; payment:contactless=yes;
    payment:credit_cards=yes; payment:debit_cards=yes; phone=+33
    562 669 145; power_supply=yes; reservation=yes;
    sanitary_dump_station=yes; shower=yes; source=local knowledge;
    stars=3; toilets=yes; tourism=camp_site;
    website=https://www.gascogne-camping.fr/; wheelchair=yes;
    id=node/1291493984</desc>
    <link href="https://www.gascogne-camping.fr/"></link>
  </wpt>
  <wpt lat="43.320379" lon="-0.7621061">
    <ele>122.0</ele>
    <name>Beau Rivage</name>
    <desc>name=Beau Rivage; name:en=Navarents; tourism=camp_site;
    id=node/1300225052</desc>
  </wpt>
  <wpt lat="43.017234" lon="-0.9519514">
    <ele>627.0</ele>
    <name>Ixtila</name>
    <desc>email=lysianefilhol@sfr.fr; internet_access=wlan;
    internet_access:fee=no; name=Ixtila; phone=+33 5 59 28 63 09;
    stars=2; tourism=camp_site;
    website=https://www.camping-ixtila.fr/;
    id=node/1323300335</desc>
    <link href="https://www.camping-ixtila.fr/"></link>
  </wpt>
  <wpt lat="44.8505153" lon="2.2316848">
    <ele>581.0</ele>
    <name>Camping Les Bouleaux</name>
    <desc>name=Camping Les Bouleaux; tourism=camp_site;
    id=node/1324672484</desc>
  </wpt>
  <wpt lat="44.9796358" lon="5.1637359">
    <ele>370.0</ele>
    <name>La Combe d'Oyans</name>
    <desc>name=La Combe d'Oyans; ref:FR:SIRET=89848489400016;
    stars=3; tourism=camp_site;
    website=https://www.lacombedoyans.com/;
    id=node/1325513288</desc>
    <link href="https://www.lacombedoyans.com/"></link>
  </wpt>
  <wpt lat="44.3372095" lon="3.4764007">
    <ele>503.0</ele>
    <name>Del Ron</name>
    <desc>cabins=yes; caravans=yes; email=camping.delron@orange.fr;
    fee=yes; name=Del Ron; phone=+33 466 485471; shower=yes;
    stars=3; swimming_pool=yes; tents=yes; toilets=yes;
    tourism=camp_site; website=https://camping-delron.com/;
    id=node/1329806956</desc>
    <link href="https://camping-delron.com/"></link>
  </wpt>
  <wpt lat="44.194577" lon="3.6578851">
    <ele>774.0</ele>
    <name>Camping municipal Bel Air</name>
    <desc>name=Camping municipal Bel Air; operator=Mairie Le
    Pompidou; tourism=camp_site; id=node/1329913609</desc>
  </wpt>
  <wpt lat="44.6369948" lon="4.9505336">
    <ele>216.0</ele>
    <name>Camping Gilles</name>
    <desc>internet_access=no; internet_access:fee=no; name=Camping
    Gilles; phone=+33 4 75 90 11 18; smoking=yes;
    source=cadastre-dgi-fr source : Direction Générale des Impôts -
    Cadastre. Mise à jour : 2011; stars=2; tourism=camp_site;
    wheelchair=no; id=node/1332068553</desc>
  </wpt>
  <wpt lat="43.9472368" lon="7.4158954">
    <ele>868.0</ele>
    <name>Camping à la Ferme du Seuillet</name>
    <desc>fee=yes; name=Camping à la Ferme du Seuillet;
    payment:cash=yes; payment:credit_cards=no; shower=yes;
    tents=yes; toilets=yes; tourism=camp_site;
    id=node/1335341063</desc>
  </wpt>
  <wpt lat="43.0368449" lon="-1.0493759">
    <ele>1162.0</ele>
    <name>Camping d'Iraty</name>
    <desc>backcountry=yes; bar=no; caravans=yes;
    internet_access=no; name=Camping d'Iraty; swimming_pool=no;
    tents=yes; tourism=camp_site;
    website=http://www.chalets-iraty.com/bungalow-meleze-1-2-3-et-4/;
    id=node/1336086010</desc>
    <link href="http://www.chalets-iraty.com/bungalow-meleze-1-2-3-et-4/">
    </link>
  </wpt>
  <wpt lat="43.6491936" lon="6.0611861">
    <ele>463.0</ele>
    <name>Le Troumpetoun</name>
    <desc>contact:email=raiola.loisirs@orange.fr; contact:phone=+33
    4 94 80 78 98; name=Le Troumpetoun; operator=Raiola Loisirs;
    stars=2; tourism=camp_site;
    website=https://sites.google.com/site/campingmontmeyan/;
    id=node/1347560837</desc>
    <link href="https://sites.google.com/site/campingmontmeyan/">
    </link>
  </wpt>
  <wpt lat="43.6386531" lon="6.0607157">
    <ele>513.0</ele>
    <name>Les Eouvières</name>
    <desc>name=Les Eouvières; tourism=camp_site;
    id=node/1347561743</desc>
  </wpt>
  <wpt lat="48.5684322" lon="1.9317864">
    <ele>119.0</ele>
    <name>node/1351141213</name>
    <desc>tourism=camp_site; id=node/1351141213</desc>
  </wpt>
  <wpt lat="43.9415887" lon="2.3834926">
    <ele>204.0</ele>
    <name>La mise à l'eau</name>
    <desc>amenity=restaurant; caravans=yes;
    check_date:opening_hours=2024-06-28; diet:vegetarian=yes;
    drinking_water=yes; indoor_seating=no; leisure=swimming_pool;
    name=La mise à l'eau; opening_hours:signed=no;
    outdoor_seating=yes; payment:credit_cards=yes;
    payment:debit_cards=yes; phone=+33563795829; power_supply=yes;
    shower=yes; tents=yes; toilets=yes; tourism=camp_site;
    id=node/1352699694</desc>
  </wpt>
  <wpt lat="42.9636856" lon="1.514943">
    <ele>512.0</ele>
    <name>node/1352920426</name>
    <desc>tourism=camp_site; id=node/1352920426</desc>
  </wpt>
  <wpt lat="46.3083202" lon="1.7671601">
    <ele>243.0</ele>
    <name>Les Sillons</name>
    <desc>name=Les Sillons; operator=Municipal; phone=+33 5 55 89
    10 77; tourism=camp_site;
    website=http://www.lacelledunoise.fr/index.php/tourisme-et-loisirs/tourisme/ou-se-loger/camping#sillons;
    id=node/1357728645</desc>
    <link href="http://www.lacelledunoise.fr/index.php/tourisme-et-loisirs/tourisme/ou-se-loger/camping#sillons">
    </link>
  </wpt>
  <wpt lat="47.9351876" lon="2.986394">
    <ele>116.0</ele>
    <name>node/1361050287</name>
    <desc>tents=yes; tourism=camp_site; id=node/1361050287</desc>
  </wpt>
  <wpt lat="-22.5426003" lon="167.4379072">
    <ele>5.0</ele>
    <name>Camping de la Baie des Crabes Chez Marie Odile</name>
    <desc>name=Camping de la Baie des Crabes Chez Marie Odile;
    tourism=camp_site; id=node/1363982821</desc>
  </wpt>
  <wpt lat="43.9511889" lon="3.2588295">
    <ele>759.0</ele>
    <name>Les Canoles</name>
    <desc>name=Les Canoles; tourism=camp_site;
    id=node/1364924018</desc>
  </wpt>
  <wpt lat="45.40644" lon="5.0972347">
    <ele>442.0</ele>
    <name>Camping La Bissera</name>
    <desc>name=Camping La Bissera; stars=3; tourism=camp_site;
    id=node/1365462573</desc>
  </wpt>
  <wpt lat="-21.8065463" lon="166.5082875">
    <ele>0.0</ele>
    <name>Camping Petit Borindi ( chez Georgette )</name>
    <desc>description=autre téléphone : 44.13.21; name=Camping
    Petit Borindi ( chez Georgette ); tourism=camp_site;
    id=node/1367936294</desc>
  </wpt>
  <wpt lat="44.5962763" lon="5.1112792">
    <ele>551.0</ele>
    <name>Camping le Couspeau</name>
    <desc>addr:street=Quartier Bellevue; ele=551; name=Camping le
    Couspeau; operator=Fabrice Hilaire; phone=+33 4 75 53 30 14;
    tourism=camp_site; website=https://www.couspeau.fr/;
    wheelchair=limited; id=node/1368307592</desc>
    <link href="https://www.couspeau.fr/"></link>
  </wpt>
  <wpt lat="49.7367439" lon="3.7399857">
    <ele>76.0</ele>
    <name>Berger du Val de Serre</name>
    <desc>email=Berger.vs@wanadoo.fr; fax=+33 3 23 20 01 86;
    name=Berger du Val de Serre; phone=+33 3 23 20 00 04;
    tourism=camp_site;
    website=https://www.accueil-paysan.com/fr/catalog/structure/1/;
    id=node/1376501157</desc>
    <link href="https://www.accueil-paysan.com/fr/catalog/structure/1/">
    </link>
  </wpt>
  <wpt lat="44.9341808" lon="1.6802016">
    <ele>116.0</ele>
    <name>Camping Les Granges</name>
    <desc>name=Camping Les Granges; tourism=camp_site;
    id=node/1376784659</desc>
  </wpt>
  <wpt lat="43.9443762" lon="2.4693641">
    <ele>211.0</ele>
    <name>Camping municipal</name>
    <desc>name=Camping municipal; tourism=camp_site;
    id=node/1383539703</desc>
  </wpt>
  <wpt lat="49.4699233" lon="5.398632">
    <ele>249.0</ele>
    <name>node/1384967053</name>
    <desc>source=cadastre-dgi-fr source : Direction Générale des
    Impôts - Cadastre. Mise à jour : 2011; tourism=camp_site;
    id=node/1384967053</desc>
  </wpt>
  <wpt lat="45.0699007" lon="1.430003">
    <ele>271.0</ele>
    <name>La Magaudie</name>
    <desc>name=La Magaudie; tourism=camp_site;
    id=node/1388903847</desc>
  </wpt>
  <wpt lat="44.7111868" lon="2.5620682">
    <ele>268.0</ele>
    <name>Camping de la Rivière</name>
    <desc>name=Camping de la Rivière; tourism=camp_site;
    id=node/1392368789</desc>
  </wpt>
  <wpt lat="44.8324601" lon="5.2822339">
    <ele>527.0</ele>
    <name>Le Moulin du Rivet</name>
    <desc>
    contact:facebook=https://www.facebook.com/LeMoulinDuRivet;
    description=Aire Naturelle; name=Le Moulin du Rivet;
    tourism=camp_site; website=http://moulindurivet.com/;
    id=node/1394458562</desc>
    <link href="http://moulindurivet.com/"></link>
  </wpt>
  <wpt lat="42.2022836" lon="9.554953">
    <ele>2.0</ele>
    <name>Camping Au Bord de Mer</name>
    <desc>name=Camping Au Bord de Mer; toilets:wheelchair=no;
    tourism=camp_site; wheelchair=yes; id=node/1402286169</desc>
  </wpt>
  <wpt lat="45.459944" lon="6.156555">
    <ele>645.0</ele>
    <name>Camping L'Aventure</name>
    <desc>name=Camping L'Aventure; tourism=camp_site;
    website=https://www.campinglaventure.com/fr/;
    id=node/1406998414</desc>
    <link href="https://www.campinglaventure.com/fr/"></link>
  </wpt>
  <wpt lat="44.2070182" lon="2.7793399">
    <ele>836.0</ele>
    <name>Camping á la Ferme</name>
    <desc>name=Camping á la Ferme; source=survey;
    tourism=camp_site; id=node/1409068428</desc>
  </wpt>
  <wpt lat="44.1912313" lon="2.773958">
    <ele>802.0</ele>
    <name>Le Touring</name>
    <desc>caravans=yes; drinking_water=yes; name=Le Touring;
    shower=yes; source=survey; stars=2; tents=yes;
    tourism=camp_site; id=node/1409068508</desc>
  </wpt>
  <wpt lat="44.9064879" lon="0.9742628">
    <ele>81.0</ele>
    <name>Le Val de la Marquise</name>
    <desc>caravans=yes; email=contact@levaldelamarquise.com;
    name=Le Val de la Marquise; opening_hours=Apr 13 - Sep 29;
    phone=+33 5 53 54 74 10; stars=4; tents=yes; tourism=camp_site;
    website=https://www.camping-dordogne-marquise.com/;
    id=node/1411137723</desc>
    <link href="https://www.camping-dordogne-marquise.com/"></link>
  </wpt>
  <wpt lat="44.455842" lon="-1.201817">
    <ele>34.0</ele>
    <name>Slow Village Biscarrosse Lac</name>
    <desc>capacity=100; contact:city=Biscarrosse;
    contact:housenumber=7141; contact:phone=+33 5 45 91 13 65;
    contact:postcode=40600; contact:street=Route des Lacs;
    email=contact.biscarrosselac@slow-village.fr; name=Slow Village
    Biscarrosse Lac; opening_hours=Mo-Su 08:30-20:30; phone=+33 5
    45 91 13 65; tourism=camp_site;
    website=https://www.slow-village.com/destinations/nouvelle-aquitaine/biscarrosse-lac/;
    id=node/1413887518</desc>
    <link href="https://www.slow-village.com/destinations/nouvelle-aquitaine/biscarrosse-lac/">
    </link>
  </wpt>
  <wpt lat="46.0905852" lon="3.8418213">
    <ele>792.0</ele>
    <name>node/1416036287</name>
    <desc>tourism=camp_site; id=node/1416036287</desc>
  </wpt>
  <wpt lat="45.1337541" lon="2.48698">
    <ele>929.0</ele>
    <name>Camping a la ferme d'Apcher, Salers</name>
    <desc>addr:city=Saint-Paul-de-Salers; addr:postcode=15140;
    capacity:pitches=25; caravans=yes; contact:phone=+33 4 71 40 72
    26; fee=yes; hot_water=yes; name=Camping a la ferme d'Apcher,
    Salers; opening_hours=Jun 25 - Sep 15; operator=Claudie et
    Jean-Claude Fruquière; payment:cash=yes; payment:cheque=yes;
    pets=allowed; shower=yes; tents=yes; toilets=yes;
    tourism=camp_site; id=node/1416055534</desc>
  </wpt>
  <wpt lat="3.6194619" lon="-53.2775495">
    <ele>232.0</ele>
    <name>Carbet Galbao</name>
    <desc>name=Carbet Galbao; operator=ONF; tourism=camp_site;
    id=node/1419192161</desc>
  </wpt>
  <wpt lat="45.4416531" lon="5.5148196">
    <ele>498.0</ele>
    <name>Camping Robert</name>
    <desc>name=Camping Robert; tourism=camp_site;
    id=node/1421805425</desc>
  </wpt>
  <wpt lat="41.6966898" lon="9.3430232">
    <ele>53.0</ele>
    <name>Santa Lucia</name>
    <desc>access=customers; addr:city=Sainte Lucie de
    Porto-Vecchio; addr:postcode=20144; addr:street=Lieu dit
    Mulindinu; caravans=yes; contact:phone=+33 4 95 71 45 28;
    contact:website=http://www.campingsantalucia.com; fee=yes;
    name=Santa Lucia; payment:cards=yes; payment:cash=yes;
    payment:coins=yes; payment:contactless=yes;
    payment:credit_cards=yes; payment:debit_cards=yes;
    payment:notes=yes; payment:visa=yes; payment:visa_debit=yes;
    payment:visa_electron=yes; tents=yes; tourism=camp_site;
    id=node/1427973168</desc>
    <link href="http://www.campingsantalucia.com"></link>
  </wpt>
  <wpt lat="47.1936861" lon="6.0369067">
    <ele>395.0</ele>
    <name>Camp de Scout</name>
    <desc>access=private; email=materiel@sgdf-franchecomte.fr;
    name=Camp de Scout; operator=Scouts et Guides de France -
    Territoire Franche-Comté; scout=yes; tourism=camp_site;
    id=node/1430512496</desc>
  </wpt>
  <wpt lat="44.7819034" lon="3.6341038">
    <ele>1167.0</ele>
    <name>Aire Naturelle : Le Valadio</name>
    <desc>name=Aire Naturelle : Le Valadio; tourism=camp_site;
    id=node/1431622808</desc>
  </wpt>
  <wpt lat="44.831202" lon="1.1489147">
    <ele>69.0</ele>
    <name>Le Pont de Fayrac</name>
    <desc>name=Le Pont de Fayrac; tourism=camp_site;
    id=node/1432543964</desc>
  </wpt>
  <wpt lat="42.439847" lon="9.5224555">
    <ele>8.0</ele>
    <name>U Ficajole</name>
    <desc>name=U Ficajole; tourism=camp_site;
    id=node/1438752035</desc>
  </wpt>
  <wpt lat="48.9463826" lon="0.5113494">
    <ele>169.0</ele>
    <name>Aire Naturelle La Planchette</name>
    <desc>camp_site=basic; name=Aire Naturelle La Planchette;
    tourism=camp_site;
    website=https://www.goodcamp.fr/fr/camping/aire-naturelle-la-planchette;
    id=node/1456602836</desc>
    <link href="https://www.goodcamp.fr/fr/camping/aire-naturelle-la-planchette">
    </link>
  </wpt>
  <wpt lat="44.0159292" lon="7.3105947">
    <ele>585.0</ele>
    <name>node/1466670106</name>
    <desc>tourism=camp_site; id=node/1466670106</desc>
  </wpt>
  <wpt lat="43.9450782" lon="7.0123222">
    <ele>309.0</ele>
    <name>Camping de l'Amitié</name>
    <desc>name=Camping de l'Amitié; tourism=camp_site;
    website=https://domainedelamitie.com; id=node/1466788083</desc>
    <link href="https://domainedelamitie.com"></link>
  </wpt>
  <wpt lat="42.9707057" lon="1.5729595">
    <ele>451.0</ele>
    <name>Camping Municipal de Cos</name>
    <desc>addr:ghanapostgps=42.9707057, 1.5729595; caravans=yes;
    contact:email=campingcos09@orange.fr; drinking_water=yes;
    email=bblazy@sfr.fr; name=Camping Municipal de Cos; phone=+33
    671 181 038; tents=yes; tourism=camp_site;
    website=http://camping-municipal-cos09.fr/;
    id=node/1469621685</desc>
    <link href="http://camping-municipal-cos09.fr/"></link>
  </wpt>
  <wpt lat="44.4194281" lon="4.295966">
    <ele>108.0</ele>
    <name>Camping de la Barque</name>
    <desc>name=Camping de la Barque; tourism=camp_site;
    id=node/1474176890</desc>
  </wpt>
  <wpt lat="44.4191092" lon="4.2953501">
    <ele>109.0</ele>
    <name>Camping de la Barque</name>
    <desc>name=Camping de la Barque; source=local knowlegde;
    tourism=camp_site; id=node/1475096650</desc>
  </wpt>
  <wpt lat="45.546871" lon="0.9550344">
    <ele>339.0</ele>
    <name>Vive la Vie</name>
    <desc>caravans=yes; fee=yes; name=Vive la Vie;
    payment:cash=yes; payment:credit_cards=yes;
    payment:debit_cards=yes; static_caravans=yes; tents=yes;
    tourism=camp_site; id=node/1479106762</desc>
  </wpt>
  <wpt lat="45.8230856" lon="1.4916412">
    <ele>262.0</ele>
    <name>Municipal de Beaufort</name>
    <desc>name=Municipal de Beaufort; tourism=camp_site;
    id=node/1479106771</desc>
  </wpt>
  <wpt lat="47.221603" lon="6.5327846">
    <ele>704.0</ele>
    <name>Ferme du Cret</name>
    <desc>email=camping.le.cret@club-internet.fr;
    internet_access=no; internet_access:fee=no; name=Ferme du Cret;
    nudism=no; payment:cash=yes; phone=+33 381 560 476; tents=no;
    tourism=camp_site; website=https://www.camping-lecret.fr/;
    wheelchair=limited; id=node/1487348908</desc>
    <link href="https://www.camping-lecret.fr/"></link>
  </wpt>
  <wpt lat="-22.5776119" lon="167.5240245">
    <ele>3.0</ele>
    <name>Chez Emile</name>
    <desc>name=Chez Emile; price=1000; tourism=camp_site;
    id=node/1492981655</desc>
  </wpt>
  <wpt lat="45.0392395" lon="4.6885592">
    <ele>298.0</ele>
    <name>Camping Les Berges du Doux</name>
    <desc>addr:housenumber=4640; addr:street=Route du Doux;
    email=accueil@camping-lesbergesdudoux.com; name=Camping Les
    Berges du Doux; operator=Camping les Berges du Doux; phone=+33
    4 75 06 79 10; ref=100 467; stars=3; tourism=camp_site;
    website=https://www.camping-lesbergesdudoux.com/;
    id=node/1499470914</desc>
    <link href="https://www.camping-lesbergesdudoux.com/"></link>
  </wpt>
  <wpt lat="-20.6871924" lon="164.9827033">
    <ele>3.0</ele>
    <name>Camping du centre de plongée Babou</name>
    <desc>fee=yes; internet_access=wlan; name=Camping du centre de
    plongée Babou; tourism=camp_site; id=node/1516089416</desc>
  </wpt>
  <wpt lat="46.0316524" lon="2.9568226">
    <ele>657.0</ele>
    <name>La Coccinelle</name>
    <desc>name=La Coccinelle; tourism=camp_site;
    website=https://campingcoccinelle.com/;
    id=node/1530126892</desc>
    <link href="https://campingcoccinelle.com/"></link>
  </wpt>
  <wpt lat="45.922034" lon="3.0128312">
    <ele>686.0</ele>
    <name>Camping du Colombier</name>
    <desc>name=Camping du Colombier; phone=+33473869457; stars=1;
    tourism=camp_site; website=https://www.campingducolombier.com/;
    id=node/1559361204</desc>
    <link href="https://www.campingducolombier.com/"></link>
  </wpt>
  <wpt lat="48.7397089" lon="-3.0990913">
    <ele>98.0</ele>
    <name>CSCA</name>
    <desc>name=CSCA; tourism=camp_site; id=node/1562247930</desc>
  </wpt>
  <wpt lat="48.3593629" lon="-3.8783285">
    <ele>235.0</ele>
    <name>Camping municipal de Nestavel</name>
    <desc>name=Camping municipal de Nestavel;
    name:br=Tachenn-gampiñ Nestavel; source:name:br=proper
    translation; tourism=camp_site; id=node/1568069492</desc>
  </wpt>
  <wpt lat="47.3425972" lon="-2.4721452">
    <ele>42.0</ele>
    <name>Sainte-Brigitte</name>
    <desc>name=Sainte-Brigitte; tourism=camp_site;
    id=node/1584416307</desc>
  </wpt>
  <wpt lat="44.7848734" lon="0.7561011">
    <ele>65.0</ele>
    <name>Le moulin de Surier</name>
    <desc>addr:city=Beaumont-du-Périgord; addr:postcode=24440;
    name=Le moulin de Surier; phone=+33 5 53 24 91 98; source=Bing
    , cadastre-dgi-fr source : Direction Générale des Impôts -
    Cadastre. Mise à jour : 2012; tourism=camp_site;
    website=https://www.lemoulindesurier.com/accueil/;
    id=node/1588117821</desc>
    <link href="https://www.lemoulindesurier.com/accueil/"></link>
  </wpt>
  <wpt lat="43.8717733" lon="3.3148308">
    <ele>746.0</ele>
    <name>Les 4 Templiers</name>
    <desc>name=Les 4 Templiers; tourism=camp_site;
    id=node/1589357835</desc>
  </wpt>
  <wpt lat="48.5130781" lon="0.7391688">
    <ele>169.0</ele>
    <name>Monaco Parc</name>
    <desc>internet_access=wlan; name=Monaco Parc; phone=+33 2 33 73
    59 59; tourism=camp_site;
    website=https://www.campingmonacoparc.com/;
    id=node/1589507891</desc>
    <link href="https://www.campingmonacoparc.com/"></link>
  </wpt>
  <wpt lat="48.4749436" lon="0.6572137">
    <ele>194.0</ele>
    <name>Les Bruyères</name>
    <desc>capacity=34; caravans=yes; drinking_water=yes; fee=yes;
    motorhome=designated; name=Les Bruyères; phone=+33 2 33 83 90
    43; power_supply=yes; shower=yes; tents=designated;
    toilets=yes; tourism=camp_site;
    website=http://www.chapelle-montligeon.fr/?page_id=159;
    id=node/1589775453</desc>
    <link href="http://www.chapelle-montligeon.fr/?page_id=159">
    </link>
  </wpt>
  <wpt lat="45.2014003" lon="2.1463527">
    <ele>614.0</ele>
    <name>Camping d'Auriac</name>
    <desc>name=Camping d'Auriac; tourism=camp_site;
    website=https://www.camping-lesbruyeres-auriac.com/;
    id=node/1596467529</desc>
    <link href="https://www.camping-lesbruyeres-auriac.com/">
    </link>
  </wpt>
  <wpt lat="45.8775874" lon="0.8640618">
    <ele>213.0</ele>
    <name>node/1609377990</name>
    <desc>source=cadastre-dgi-fr source : Direction Générale des
    Impôts - Cadastre , mise à jour : 2012; tourism=camp_site;
    id=node/1609377990</desc>
  </wpt>
  <wpt lat="48.2783923" lon="-3.4269977">
    <ele>190.0</ele>
    <name>Aire naturelle de camping de l'étang des Sources</name>
    <desc>name=Aire naturelle de camping de l'étang des Sources;
    operator=Ville de Mael-Carhaix; phone=+33 2 96 24 73 00;
    source=https://data.datatourisme.gouv.fr/38/50917296-6715-3d3c-874d-dd1133434beb;
    tourism=camp_site;
    website=https://www.mael-carhaix.fr/tourisme-hebergement-camping.php;
    id=node/1621290643</desc>
    <link href="https://www.mael-carhaix.fr/tourisme-hebergement-camping.php">
    </link>
  </wpt>
  <wpt lat="-22.3503054" lon="166.9525933">
    <ele>3.0</ele>
    <name>Camping de Port Boisé</name>
    <desc>fixme=mettre le veritable nom; name=Camping de Port
    Boisé; source=GPS; tourism=camp_site; id=node/1623343987</desc>
  </wpt>
  <wpt lat="43.2502972" lon="3.3005353">
    <ele>1.0</ele>
    <name>Marabouts</name>
    <desc>access=permissive; addr:city=Valras-Plage;
    addr:postcode=34350; addr:street=Chemin des Orpellières;
    capacity=32; internet_access=no; name=Marabouts;
    operator=CentrMer et Soleil; tourism=camp_site;
    id=node/1623822289</desc>
  </wpt>
  <wpt lat="5.0528321" lon="-53.0850869">
    <ele>50.0</ele>
    <name>Bache installée</name>
    <desc>name=Bache installée; tourism=camp_site;
    id=node/1631864927</desc>
  </wpt>
  <wpt lat="48.2730698" lon="7.2901867">
    <ele>277.0</ele>
    <name>Camping du Haut-Kœnigsbourg</name>
    <desc>cabin:rental=yes; contact:city=Lièpvre;
    contact:email=contact@camping-hautkoenigsbourg.com;
    contact:phone=+33 9 67 12 43 20; contact:postcode=68660;
    contact:street=Rue de la Vancelle;
    contact:website=https://www.camping-hautkoenigsbourg.com;
    dryer=yes; internet_access=wlan; name=Camping du
    Haut-Kœnigsbourg; source=cadastre-dgi-fr source : Direction
    Générale des Impôts - Cadastre. Mise à jour : 2012;
    sport=table_soccer,ping_pong; stars=3; tourism=camp_site;
    washing_machine=yes; id=node/1634362420</desc>
    <link href="https://www.camping-hautkoenigsbourg.com"></link>
  </wpt>
  <wpt lat="48.7207417" lon="3.7034716">
    <ele>169.0</ele>
    <name>Camping Municipal de Sézanne</name>
    <desc>caravans=yes; drinking_water=yes; name=Camping Municipal
    de Sézanne; shower=yes; tents=yes; tourism=camp_site;
    website=https://www.tourisme-en-champagne.com/camping-municipal-de-sezanne/sezanne/hpa0000000000099;
    id=node/1644266633</desc>
    <link href="https://www.tourisme-en-champagne.com/camping-municipal-de-sezanne/sezanne/hpa0000000000099">
    </link>
  </wpt>
  <wpt lat="42.6031277" lon="2.3982632">
    <ele>451.0</ele>
    <name>Camping Bellevue</name>
    <desc>addr:street=18 Rue Bellevue 66500 RIA-SIRACH;
    amenity=reception_desk; caravans=yes; check_date=2025-08-29;
    drinking_water=yes; name=Camping Bellevue; phone=06 82 11 85
    67; power_supply=yes; shower=yes; tents=yes; toilets=yes;
    tourism=camp_site; website=https://www.campingbellevue-66.fr/;
    id=node/1657306667</desc>
    <link href="https://www.campingbellevue-66.fr/"></link>
  </wpt>
  <wpt lat="44.5211487" lon="5.0593774">
    <ele>370.0</ele>
    <name>Domaine Provençal</name>
    <desc>alt_name=Camping municipal Dieulefit;
    email=contact@domaineprovencal.com; internet_access=wlan;
    internet_access:fee=yes; name=Domaine Provençal;
    phone=+33630570843; stars=3; tourism=camp_site;
    website=https://www.domaineprovencal.com/;
    id=node/1661647713</desc>
    <link href="https://www.domaineprovencal.com/"></link>
  </wpt>
  <wpt lat="43.8201648" lon="6.619951">
    <ele>1004.0</ele>
    <name>Centre Equestre la Grande Bastide</name>
    <desc>name=Centre Equestre la Grande Bastide;
    tourism=camp_site; id=node/1674749641</desc>
  </wpt>
  <wpt lat="44.360297" lon="3.2303478">
    <ele>820.0</ele>
    <name>Aire de camping naturelle du Bouquet</name>
    <desc>name=Aire de camping naturelle du Bouquet; operator=M Mme
    Bonnal; source=personal_knowledge; tourism=camp_site;
    id=node/1678118662</desc>
  </wpt>
  <wpt lat="43.4213127" lon="6.3373866">
    <ele>181.0</ele>
    <name>Domaine de la cigalière</name>
    <desc>addr:postcode=83340; addr:street=Route du Thoronet;
    internet_access=wlan; name=Domaine de la cigalière;
    phone=+33494738106,+33680543645; tourism=camp_site;
    website=https://www.domaine-lacigaliere.com/;
    id=node/1680929272</desc>
    <link href="https://www.domaine-lacigaliere.com/"></link>
  </wpt>
  <wpt lat="45.1587581" lon="0.27311">
    <ele>94.0</ele>
    <name>Camping du Lac</name>
    <desc>addr:city=La Jemaye; addr:postcode=24410; addr:street=Au
    Grand Étang; caravans=yes; name=Camping du Lac; phone=+33 5 53
    91 51 78; stars=2; tents=yes; tourism=camp_site;
    website=https://www.campingdulac-dordogne.com;
    id=node/1691127344</desc>
    <link href="https://www.campingdulac-dordogne.com"></link>
  </wpt>
  <wpt lat="48.8332846" lon="-1.038351">
    <ele>271.0</ele>
    <name>Camping municipal</name>
    <desc>name=Camping municipal; tourism=camp_site;
    id=node/1702595155</desc>
  </wpt>