<?xml version="1.0" encoding="utf-8"?>
<gpx xmlns="http://www.topografix.com/GPX/1/1"
xmlns:xsi="http://www.w3.org/2001/XMLSchema-instance"
xsi:schemaLocation="http://www.topografix.com/GPX/1/1 http://www.topografix.com/GPX/1/1/gpx.xsd"
version="1.1" creator="togpx">
  <metadata>
    <copyright>
      <license>"osm3s": { "timestamp_osm_base":
      "2025-07-07T17:37:21Z", "timestamp_areas_base":
      "2025-07-07T15:06:26Z", "copyright": "The data included in
      this document is from www.openstreetmap.org. The data is made
      available under ODbL." } // SRTM: { Elevation data missing in
      OSM was added by the NASA Shuttle Radar Topography Mission as
      public release version, if available there. } // { Check for
      latest version of this file on:
      https://github.com/GpxFeed/campgrounds }</license>
    </copyright>
  </metadata>
  <wpt lat="46.4031503" lon="18.1722235">
    <ele>120.0</ele>
    <name>Bad Gunaras</name>
    <desc>name=Bad Gunaras; tourism=camp_site;
    id=node/26861240</desc>
  </wpt>
  <wpt lat="47.2008344" lon="19.7355602">
    <ele>113.0</ele>
    <name>Castrum</name>
    <desc>created_by=Potlatch 0.4a; name=Castrum;
    tourism=camp_site; id=node/26861244</desc>
  </wpt>
  <wpt lat="47.4800513" lon="20.5889401">
    <ele>83.0</ele>
    <name>Füzes</name>
    <desc>name=Füzes; tourism=camp_site; id=node/26861251</desc>
  </wpt>
  <wpt lat="47.3783467" lon="16.7820695">
    <ele>174.0</ele>
    <name>Gyógycamping</name>
    <desc>fixme=1) fix name 2) refine location with imagery;
    name=Gyógycamping; tourism=camp_site; wheelchair=yes;
    id=node/26861254</desc>
  </wpt>
  <wpt lat="47.8047083" lon="18.9677983">
    <ele>105.0</ele>
    <name>om</name>
    <desc>fixme=resurvey; name=om; tourism=camp_site;
    id=node/26861280</desc>
  </wpt>
  <wpt lat="46.2033285" lon="20.456147">
    <ele>84.0</ele>
    <name>Camping Motel Makó</name>
    <desc>addr:city=Makó; addr:housenumber=2; addr:postcode=6900;
    addr:street=Kemping út; capacity=100 fő a campingben - 75 fő
    szobákban; caravans=yes; drinking_water=yes;
    email=camping1mako@gmail.com; internet_access=wlan;
    internet_access:fee=no; name=Camping Motel Makó; operator=Tóth
    István és családja; phone=+36 62 211 914,+36 30 499 9898;
    power_supply=yes; shower=yes; tents=yes; tourism=camp_site;
    website=https://www.campingmako.hu/; wheelchair=limited;
    id=node/26861282</desc>
    <link href="https://www.campingmako.hu/"></link>
  </wpt>
  <wpt lat="46.864879" lon="20.2008513">
    <ele>86.0</ele>
    <name>Thermalcamping</name>
    <desc>name=Thermalcamping; tourism=camp_site;
    id=node/26861288</desc>
  </wpt>
  <wpt lat="48.1215497" lon="21.4153033">
    <ele>94.0</ele>
    <name>Tisza</name>
    <desc>created_by=Potlatch 0.8c; name=Tisza; tourism=camp_site;
    id=node/26861291</desc>
  </wpt>
  <wpt lat="48.1180466" lon="21.4166183">
    <ele>94.0</ele>
    <name>Spori Sport</name>
    <desc>name=Spori Sport; tourism=camp_site;
    id=node/260809049</desc>
  </wpt>
  <wpt lat="46.5641092" lon="20.6285585">
    <ele>87.0</ele>
    <name>Gyopárosi Kemping</name>
    <desc>name=Gyopárosi Kemping; tourism=camp_site;
    id=node/342869441</desc>
  </wpt>
  <wpt lat="46.5423742" lon="17.9435631">
    <ele>169.0</ele>
    <name>Hőforrás Kemping és Ifjúsági szálló</name>
    <desc>addr:city=Igal; addr:housenumber=1; addr:postcode=7275;
    addr:street=Acsai utca; contact:fax=+36 82 372 025;
    email=info@hoforrascamping.hu; name=Hőforrás Kemping és
    Ifjúsági szálló; phone=+36 82 372 025; source=turistautak.hu;
    source:date=2013-07-16; tourism=camp_site;
    url=http://turistautak.hu/poi.php?id=15784;
    website=http://www.hoforrascamping.hu; id=node/362862829</desc>
    <link href="http://www.hoforrascamping.hu"></link>
  </wpt>
  <wpt lat="47.3934637" lon="16.5430793">
    <ele>274.0</ele>
    <name>Camping Gyöngyvirág</name>
    <desc>name=Camping Gyöngyvirág; source=survey;
    tourism=camp_site; id=node/410834219</desc>
  </wpt>
  <wpt lat="48.3318773" lon="21.2480986">
    <ele>179.0</ele>
    <name>Teka tabor</name>
    <desc>name=Teka tabor; tourism=camp_site;
    id=node/442515454</desc>
  </wpt>
  <wpt lat="47.6479905" lon="20.6661243">
    <ele>89.0</ele>
    <name>Camping Bella</name>
    <desc>name=Camping Bella; tourism=camp_site;
    id=node/548131015</desc>
  </wpt>
  <wpt lat="47.8074657" lon="18.9896729">
    <ele>100.0</ele>
    <name>https://kisoroszionline.hu/szigetcsucs</name>
    <desc>camp_site=basic; ele=100; fee=yes; tourism=camp_site;
    website=https://kisoroszionline.hu/szigetcsucs;
    id=node/708374905</desc>
    <link href="https://kisoroszionline.hu/szigetcsucs"></link>
  </wpt>
  <wpt lat="47.6275428" lon="19.0933969">
    <ele>100.0</ele>
    <name>5-ös kő, evezős táborhely</name>
    <desc>description:hu=picnic_site; motor_vehicle=no; name=5-ös
    kő, evezős táborhely; operator=vadkemping; tourism=camp_site;
    id=node/736032646</desc>
  </wpt>
  <wpt lat="46.0702935" lon="18.7518705">
    <ele>111.0</ele>
    <name>Aréna</name>
    <desc>addr:city=Dunaszekcső; addr:housenumber=146;
    addr:postcode=7712; addr:street=Petőfi utca;
    email=dunarena2015@gmail.com; name=Aréna; operator=Permanently
    closed; phone=+36 70 670 9187; tourism=camp_site;
    website=http://dunarena.hu; id=node/842390987</desc>
    <link href="http://dunarena.hu"></link>
  </wpt>
  <wpt lat="47.8850378" lon="17.3228421">
    <ele>119.0</ele>
    <name>Party Kemping</name>
    <desc>name=Party Kemping; name:hu=Party Kemping;
    tourism=camp_site; id=node/862943372</desc>
  </wpt>
  <wpt lat="48.1408379" lon="21.4013556">
    <ele>92.0</ele>
    <name>node/917106655</name>
    <desc>tourism=camp_site; id=node/917106655</desc>
  </wpt>
  <wpt lat="47.2039154" lon="18.4002275">
    <ele>110.0</ele>
    <name>Bregyó-Közi Kemping</name>
    <desc>addr:city=Székesfehérvár; addr:housenumber=1;
    addr:postcode=8000; addr:street=Bregyó köz; contact:fax=+36 22
    513 497; email=isk.camping@varosgondnoksag.hu; name=Bregyó-Közi
    Kemping; phone=+36 22 513 480; tourism=camp_site;
    website=http://bregyokozi-kemping.internettudakozo.hu/;
    id=node/973821227</desc>
    <link href="http://bregyokozi-kemping.internettudakozo.hu/">
    </link>
  </wpt>
  <wpt lat="47.652177" lon="16.657007">
    <ele>145.0</ele>
    <name>Sopron-Balf</name>
    <desc>addr:city=Sopron; addr:housenumber=59-61;
    addr:postcode=9494; addr:street=Fürdő sor; addr:suburb=Balf;
    name=Sopron-Balf; phone=+36 99 339 124; tourism=camp_site;
    url=http://sopron-balf-camping.hu/;
    website=http://sopron-balf-camping.hu/;
    id=node/1111932725</desc>
    <link href="http://sopron-balf-camping.hu/"></link>
  </wpt>
  <wpt lat="45.8561188" lon="18.2386805">
    <ele>94.0</ele>
    <name>Termál Kemping</name>
    <desc>addr:city=Harkány; addr:housenumber=6;
    addr:postcode=7815; addr:street=Bajcsy-Zsilinszky Endre utca;
    contact:email=thermal@campingharkany.hu;
    contact:facebook=apartman.camp; contact:fax=+36 72 580 964;
    contact:phone=+36 72 580 965;
    contact:website=http://campingharkany.hu/; name=Termál Kemping;
    operator=Dráva Hotel; tourism=camp_site;
    id=node/1259612350</desc>
    <link href="http://campingharkany.hu/"></link>
  </wpt>
  <wpt lat="47.3182" lon="16.5650458">
    <ele>291.0</ele>
    <name>Tipi camp indiántábor</name>
    <desc>name=Tipi camp indiántábor; tourism=camp_site;
    id=node/1294581023</desc>
  </wpt>
  <wpt lat="46.8121418" lon="18.9266895">
    <ele>92.0</ele>
    <name>Kék Duna Kemping</name>
    <desc>addr:city=Dunaföldvár; addr:housenumber=23;
    addr:postcode=7020; addr:street=Hősök tere; alt_name=Kék-Duna
    Camping; contact:email=kemping@tolna.net; contact:mobile=+36 30
    881 1295; contact:phone=+36 75 541 107;
    contact:website=https://dunafoldvarfurdo.hu/; name=Kék Duna
    Kemping; tourism=camp_site; id=node/1310017252</desc>
    <link href="https://dunafoldvarfurdo.hu/"></link>
  </wpt>
  <wpt lat="46.6216565" lon="19.273808">
    <ele>96.0</ele>
    <name>Kemping</name>
    <desc>name=Kemping; tourism=camp_site;
    website=https://koroskom.hu/korosszolg/kiskoros-gyogy-es-strandfurdo/kemping;
    id=node/1352366955</desc>
    <link href="https://koroskom.hu/korosszolg/kiskoros-gyogy-es-strandfurdo/kemping">
    </link>
  </wpt>
  <wpt lat="45.7931093" lon="17.9816029">
    <ele>94.0</ele>
    <name>Vizitúra táborozóhely</name>
    <desc>name=Vizitúra táborozóhely; tourism=camp_site;
    id=node/1373300107</desc>
  </wpt>
  <wpt lat="45.8103945" lon="17.82729">
    <ele>97.0</ele>
    <name>Vizitúra táborozóhely</name>
    <desc>name=Vizitúra táborozóhely; tourism=camp_site;
    id=node/1373300279</desc>
  </wpt>
  <wpt lat="46.0855049" lon="17.2240558">
    <ele>107.0</ele>
    <name>node/1373305735</name>
    <desc>note=vizitúra táborozóhely; tourism=camp_site;
    id=node/1373305735</desc>
  </wpt>
  <wpt lat="46.2967959" lon="16.8876371">
    <ele>132.0</ele>
    <name>node/1373305747</name>
    <desc>note=Vizitúra táborozóhely; tourism=camp_site;
    id=node/1373305747</desc>
  </wpt>
  <wpt lat="47.7438355" lon="18.1311269">
    <ele>110.0</ele>
    <name>Solaris Kemping és Üdülőházak</name>
    <desc>caravans=yes; name=Solaris Kemping és Üdülőházak;
    tents=yes; tourism=camp_site;
    website=http://www.komthermal.hu/szallas/solaris-kemping-es-udulohazak;
    id=node/1373749670</desc>
    <link href="http://www.komthermal.hu/szallas/solaris-kemping-es-udulohazak">
    </link>
  </wpt>
  <wpt lat="47.4802668" lon="19.0986974">
    <ele>116.0</ele>
    <name>Bikercamp</name>
    <desc>addr:city=Budapest; addr:housenumber=40;
    addr:postcode=1089; addr:street=Benyovszky Móric utca;
    caravans=no; drinking_water=yes; internet_access=wlan;
    motorcycle:theme=yes; name=Bikercamp; power_supply=yes;
    shower=yes; tents=yes; toilets=yes; tourism=camp_site;
    website=http://www.bikercamp.hu; id=node/1377214646</desc>
    <link href="http://www.bikercamp.hu"></link>
  </wpt>
  <wpt lat="48.3581283" lon="21.6940124">
    <ele>97.0</ele>
    <name>Bodrog Turistaház és Kemping</name>
    <desc>addr:housename=2; addr:postcode=3985;
    addr:street=Töltésalja utca;
    email=bodrog.turistahaz@zemplen.net; name=Bodrog Turistaház és
    Kemping; phone=+36 47 325 936,+36 30 501 2238; source=survey;
    source:date=2013-04-21; tourism=camp_site;
    url=http://turistautak.hu/poi.php?id=15094;
    website=https://www.zemplen.net/bodrog;
    id=node/1385112147</desc>
    <link href="https://www.zemplen.net/bodrog"></link>
  </wpt>
  <wpt lat="47.5812269" lon="21.176329">
    <ele>88.0</ele>
    <name>Ökotúra Vendégház** és Kemping**</name>
    <desc>addr:city=Hortobágy; addr:housenumber=12;
    addr:postcode=4071; addr:street=Borsósi út; description=Sátras
    kirándulótól a hotelt kedvelő turistáig minden vendég számára
    igényének megfelelő szálláshely. Október végétől április
    közepéig téli álmát alussza!; email=info@okotura.hu;
    name=Ökotúra Vendégház** és Kemping**; operator=Kőhíd-Hortobágy
    Szolgáltató Bt. Üzletvezető : Boda Mihály; phone=+36 30 206
    9770,+36 52 369 075; stars=2; tourism=camp_site;
    url=https://www.hnp.hu/hu/szervezeti-egyseg/turizmus/oldal/szallas-etkezes;
    website=https://okotura.hu/; id=node/1598963246</desc>
    <link href="https://okotura.hu/"></link>
  </wpt>
  <wpt lat="48.1598238" lon="20.6109684">
    <ele>203.0</ele>
    <name>node/1656976938</name>
    <desc>tourism=camp_site; id=node/1656976938</desc>
  </wpt>
  <wpt lat="47.2841147" lon="19.1029855">
    <ele>95.0</ele>
    <name>node/1808233192</name>
    <desc>tourism=camp_site; id=node/1808233192</desc>
  </wpt>
  <wpt lat="47.6243869" lon="20.7320616">
    <ele>85.0</ele>
    <name>Albatrosz kemping</name>
    <desc>name=Albatrosz kemping; tourism=camp_site;
    id=node/1853492280</desc>
  </wpt>
  <wpt lat="47.6242495" lon="20.7437668">
    <ele>86.0</ele>
    <name>Tóparti Camping</name>
    <desc>addr:city=Tiszafüred; addr:housenumber=1-3;
    addr:postcode=5350; addr:street=Kistisza út; name=Tóparti
    Camping; tourism=camp_site; id=node/1853492290; ;
    id=way/1097409540</desc>
  </wpt>
  <wpt lat="47.7744118" lon="19.104427">
    <ele>104.0</ele>
    <name>node/1856951966</name>
    <desc>tourism=camp_site; id=node/1856951966</desc>
  </wpt>
  <wpt lat="46.9860243" lon="20.2571095">
    <ele>82.0</ele>
    <name>Gyógyvizű strandfürdő és kemping</name>
    <desc>name=Gyógyvizű strandfürdő és kemping; tourism=camp_site;
    id=node/1868517605</desc>
  </wpt>
  <wpt lat="46.2339086" lon="18.3086565">
    <ele>229.0</ele>
    <name>Camping Máré Vára</name>
    <desc>addr:city=Magyaregregy; addr:housenumber=2;
    addr:postcode=7332; addr:street=Várvölgyi út; name=Camping Máré
    Vára; toilets:wheelchair=yes; tourism=camp_site;
    wheelchair=yes; id=node/1882171500</desc>
  </wpt>
  <wpt lat="46.8858798" lon="17.7064922">
    <ele>140.0</ele>
    <name>node/1886611088</name>
    <desc>fixme=duplicated POI &amp; multipoly; tourism=camp_site;
    type=multipolygon; id=relation/2782678; ;
    id=node/1886611088</desc>
  </wpt>
  <wpt lat="46.2543316" lon="20.1618245">
    <ele>77.0</ele>
    <name>Partfürdő Kemping</name>
    <desc>camp_site=serviced; caravans=yes;
    contact:email=szegedcamping@ihrk.hu; contact:mobile=+36 20 527
    4539,+36 30 610 6603; contact:phone=+36 62 430 843;
    contact:website=https://www.szegedkemping.hu/; fee=yes;
    internet_access=wlan; name=Partfürdő Kemping; opening_hours=May
    01-Sep 30; tents=yes; tourism=camp_site;
    id=node/1976468914</desc>
    <link href="https://www.szegedkemping.hu/"></link>
  </wpt>
  <wpt lat="46.6679031" lon="19.6342754">
    <ele>111.0</ele>
    <name>Bugac Puszta</name>
    <desc>name=Bugac Puszta; operator=Bugac Puszta Kft; tents=yes;
    tourism=camp_site; id=node/1976469772</desc>
  </wpt>
  <wpt lat="46.8665838" lon="16.8186749">
    <ele>170.0</ele>
    <name>AQUTHERMA Termálfalu és kemping</name>
    <desc>name=AQUTHERMA Termálfalu és kemping; tourism=camp_site;
    id=node/1976493281</desc>
  </wpt>
  <wpt lat="48.3326797" lon="21.5821461">
    <ele>109.0</ele>
    <name>Tengerszem Camping</name>
    <desc>addr:city=Sárospatak; addr:housenumber=2;
    addr:postcode=3950; addr:street=Herczeg Ferenc utca;
    capacity=300; fee=yes; internet_access=wlan;
    internet_access:fee=no; internet_access:ssid=Tengerszem;
    name=Tengerszem Camping; phone=+36 20 959 5064;
    tourism=camp_site; website=https://www.tengerszem-camping.hu/;
    wheelchair=limited; id=node/1976557820; ;
    id=way/525143392</desc>
    <link href="https://www.tengerszem-camping.hu/"></link>
  </wpt>
  <wpt lat="46.7649897" lon="17.285985">
    <ele>107.0</ele>
    <name>Tündérkert Kemping</name>
    <desc>access=yes; addr:city=Gyenesdiás; addr:housenumber=68;
    addr:postcode=8315; addr:street=Béke utca; camp_site=serviced;
    caravans=yes; contact:mobile=+36 70 379 8781;
    email=info@tunderkemping.hu; name=Tündérkert Kemping;
    opening_hours=01:01-31:12; tents=yes; tourism=camp_site;
    website=https://tkcamping.my.canva.site/magyar;
    website:1=https://tkcamping.my.canva.site/english;
    id=node/2112223647</desc>
    <link href="https://tkcamping.my.canva.site/magyar"></link>
  </wpt>
  <wpt lat="46.7538048" lon="17.3167068">
    <ele>107.0</ele>
    <name>Eldorádó Kemping, Campsite</name>
    <desc>access=customers; caravans=yes; drinking_water=yes;
    internet_access=wlan; name=Eldorádó Kemping, Campsite;
    power_supply=yes; shower=yes; tents=yes; tourism=camp_site;
    wheelchair=limited; id=node/2119239151</desc>
  </wpt>
  <wpt lat="48.0528118" lon="22.6548003">
    <ele>112.0</ele>
    <name>Vízicsiga Kemping</name>
    <desc>addr:city=Túristvándi; addr:housenumber=11;
    addr:postcode=4944; addr:street=Petőfi utca;
    email=info@vizicsiga.hu; name=Vízicsiga Kemping; phone=+36 20
    416 4142; tents=yes; tourism=camp_site;
    website=http://www.vizicsiga.hu; id=node/2295895105</desc>
    <link href="http://www.vizicsiga.hu"></link>
  </wpt>
  <wpt lat="46.1537216" lon="18.1519607">
    <ele>193.0</ele>
    <name>Orfü Private</name>
    <desc>addr:city=Orfű; addr:housenumber=22; addr:postcode=7677;
    addr:street=Béke utca; name=Orfü Private; tourism=camp_site;
    id=node/2343121182</desc>
  </wpt>
  <wpt lat="46.1907964" lon="18.1418984">
    <ele>143.0</ele>
    <name>Camping Forrás</name>
    <desc>addr:city=Magyarhertelend; addr:housenumber=105;
    addr:postcode=7394; addr:street=Bokréta utca; capacity=45;
    caravans=yes;
    contact:facebook=https://www.facebook.com/Forr%C3%A1s-Camping-1793868077530801/;
    dog=yes; email=forrascamping@gmail.com; name=Camping Forrás;
    phone=+36 72 521 110; reservation=recommended;
    sanitary_dump_station=no; survey:date=2022-06-10; tents=yes;
    tourism=camp_site;
    website=http://www.forrascamping.hu/?lang=hu;
    id=node/2344637781; ; access=customers; capacity:caravans=45;
    fee=yes; name=Forrás Camping; payment:cash=yes;
    id=way/1130971165</desc>
    <link href="http://www.forrascamping.hu/?lang=hu"></link>
  </wpt>
  <wpt lat="46.1748501" lon="18.2232624">
    <ele>197.0</ele>
    <name>Mediano Thermal Camping</name>
    <desc>addr:city=Komló; addr:housenumber=8; addr:postcode=7300;
    addr:street=Fürdő utca; addr:suburb=Sikonda; name=Mediano
    Thermal Camping; tourism=camp_site; id=node/2344637782</desc>
  </wpt>
  <wpt lat="47.112832" lon="17.5563063">
    <ele>226.0</ele>
    <name>Kemping Rowainemi</name>
    <desc>addr:city=Ajka; addr:conscriptionnumber=1320/1;
    addr:postcode=8400; addr:street=Városliget; name=Kemping
    Rowainemi; tourism=camp_site; id=node/2347344626</desc>
  </wpt>
  <wpt lat="46.8944921" lon="17.2317573">
    <ele>212.0</ele>
    <name>St. Vendel Camping</name>
    <desc>addr:city=Zalaszántó; addr:housenumber=192/3;
    addr:postcode=8353; addr:street=Fő utca; name=St. Vendel
    Camping; tourism=camp_site; id=node/2347344632</desc>
  </wpt>
  <wpt lat="46.434782" lon="16.7250185">
    <ele>149.0</ele>
    <name>Thermalcamping Letenye</name>
    <desc>addr:city=Letenye;
    image=https://drive.google.com/drive/folders/1SXHQ4Nad2a5j60nsBjAHyV4umjwTct_Q?usp=sharing;
    name=Thermalcamping Letenye; tourism=camp_site;
    website=http://www.letenye.hu/index.php/hu/turizmus/content-page.html;
    id=node/2347344634</desc>
    <link href="http://www.letenye.hu/index.php/hu/turizmus/content-page.html">
    </link>
  </wpt>
  <wpt lat="46.6216689" lon="17.0457414">
    <ele>160.0</ele>
    <name>Állati Jó Réti Tábor</name>
    <desc>name=Állati Jó Réti Tábor; tourism=camp_site;
    id=node/2358566652</desc>
  </wpt>
  <wpt lat="47.7055288" lon="20.9617923">
    <ele>90.0</ele>
    <name>node/2360455816</name>
    <desc>tourism=camp_site; id=node/2360455816</desc>
  </wpt>
  <wpt lat="47.6044478" lon="20.7108375">
    <ele>88.0</ele>
    <name>Szabics kemping</name>
    <desc>name=Szabics kemping; tourism=camp_site;
    id=node/2364086475</desc>
  </wpt>
  <wpt lat="47.8423709" lon="17.2853782">
    <ele>120.0</ele>
    <name>Kis-Duna Camping</name>
    <desc>name=Kis-Duna Camping; tourism=camp_site;
    id=node/2429216654</desc>
  </wpt>
  <wpt lat="46.8783215" lon="16.5488404">
    <ele>225.0</ele>
    <name>Vadása Camping</name>
    <desc>name=Vadása Camping; tourism=camp_site;
    id=node/2506207745</desc>
  </wpt>
  <wpt lat="47.1921559" lon="18.5899345">
    <ele>105.0</ele>
    <name>Park Strand Camping</name>
    <desc>addr:city=Gárdony; addr:housenumber=51-52;
    addr:postcode=2484; addr:street=Chernel István utca;
    addr:suburb=Agárd; contact:website=https://parkkemping.hu/;
    name=Park Strand Camping; tourism=camp_site;
    id=node/2677066298</desc>
    <link href="https://parkkemping.hu/"></link>
  </wpt>
  <wpt lat="48.1235685" lon="21.418372">
    <ele>95.0</ele>
    <name>Tiszavirág kemping</name>
    <desc>name=Tiszavirág kemping; toilets:wheelchair=yes;
    tourism=camp_site; wheelchair=yes; id=node/2860017359</desc>
  </wpt>
  <wpt lat="47.2518843" lon="19.1022995">
    <ele>92.0</ele>
    <name>Tavirózsa Kemping</name>
    <desc>addr:city=Délegyháza; addr:housenumber=4;
    addr:postcode=2337; addr:street=Nomád part; capacity=50;
    dog=yes;
    image=https://www.tavirozsakemping.hu/gfx/tavirozsa_kemping_foto.jpg;
    internet_access=wlan; name=Tavirózsa Kemping; phone=+36 30 416
    6426; power_supply=yes; shower=yes; smoking=outside;
    toilets=yes; tourism=camp_site;
    website=https://www.tavirozsakemping.hu/; wheelchair=yes;
    id=node/3029094885</desc>
    <link href="https://www.tavirozsakemping.hu/"></link>
  </wpt>
  <wpt lat="48.2860846" lon="21.116782">
    <ele>130.0</ele>
    <name>Hernád-party camping</name>
    <desc>email=info@hernad-party.hu; name=Hernád-party camping;
    phone=+36 70 311 0017; tourism=camp_site;
    website=http://www.hernad-party.hu; id=node/3030239410</desc>
    <link href="http://www.hernad-party.hu"></link>
  </wpt>
  <wpt lat="48.026188" lon="19.0494193">
    <ele>187.0</ele>
    <name>Drégelyvár Nomád Tábor</name>
    <desc>addr:city=Drégelypalánk; addr:conscriptionnumber=088/54;
    addr:postcode=2646; addr:street=Külterület;
    email=nomad.dregely@freemail.hu; name=Drégelyvár Nomád Tábor;
    phone=+36 35 367 409,+36 30 914 9895; source=turistautak.hu;
    source:date=2014-10-16; tourism=camp_site;
    url=http://turistautak.hu/poi.php?id=15086;
    website=https://www.dregelyvar.hu/; id=node/3183091962</desc>
    <link href="https://www.dregelyvar.hu/"></link>
  </wpt>
  <wpt lat="46.6553081" lon="21.2653987">
    <ele>88.0</ele>
    <name>Tó menti kiülő</name>
    <desc>name=Tó menti kiülő; tourism=camp_site;
    id=node/3203214231</desc>
  </wpt>
  <wpt lat="47.398979" lon="16.6768295">
    <ele>199.0</ele>
    <name>Bene-hegy Camping</name>
    <desc>name=Bene-hegy Camping; tourism=camp_site;
    id=node/3238647692</desc>
  </wpt>
  <wpt lat="47.1265571" lon="18.9927661">
    <ele>95.0</ele>
    <name>node/3311821680</name>
    <desc>tourism=camp_site; id=node/3311821680</desc>
  </wpt>
  <wpt lat="47.2046169" lon="17.6272112">
    <ele>390.0</ele>
    <name>Boroszlán Motel és Kemping</name>
    <desc>addr:city=Farkasgyepű; addr:housenumber=47;
    addr:postcode=8582; addr:street=Petőfi Sándor utca;
    fixme=resurvey (possible duplicate?); name=Boroszlán Motel és
    Kemping; phone=+36 89 358 012; source=turistautak.hu;
    tourism=camp_site; url=http://turistautak.hu/poi.php?id=16141;
    website=http://www.hotels.hu/boroszlanfogado;
    id=node/3327566809</desc>
    <link href="http://www.hotels.hu/boroszlanfogado"></link>
  </wpt>
  <wpt lat="47.461934" lon="17.0911128">
    <ele>132.0</ele>
    <name>Eldorádó kemping</name>
    <desc>fixme=exact position?; name=Eldorádó kemping;
    source=turistautak.hu; tourism=camp_site;
    url=http://turistautak.hu/poi.php?id=121304;
    id=node/3355520728</desc>
    <link href="http://turistautak.hu/poi.php?id=121304"></link>
  </wpt>
  <wpt lat="46.789" lon="16.68218">
    <ele>196.0</ele>
    <name>Göcsej Camping</name>
    <desc>addr:postcode=8919; addr:street=Dózsa György utca;
    dog=yes; email=info@gocsej-camping.hu; name=Göcsej Camping;
    phone=+36 93 363 463,+36 30 937 7562; source=turistautak.hu;
    tourism=camp_site; url=http://turistautak.hu/poi.php?id=15155;
    website=https://www.gocsejvolgyekemping.hu/;
    id=node/3383419378; ; type=multipolygon;
    id=relation/12212615</desc>
    <link href="https://www.gocsejvolgyekemping.hu/"></link>
  </wpt>
  <wpt lat="47.5813098" lon="20.6093909">
    <ele>87.0</ele>
    <name>ADLER Camping</name>
    <desc>addr:city=Sarud; addr:postcode=3386; fee=yes; name=ADLER
    Camping; source=turistautak.hu; tourism=camp_site;
    id=node/3404934810</desc>
    <link href="turistautak.hu"></link>
  </wpt>
  <wpt lat="48.1437126" lon="19.8537154">
    <ele>519.0</ele>
    <name>Ifjúsági tábor</name>
    <desc>name=Ifjúsági tábor; tourism=camp_site;
    id=node/3404947086</desc>
  </wpt>
  <wpt lat="46.221233" lon="18.461117">
    <ele>191.0</ele>
    <name>Csillag Kemping és vendégház</name>
    <desc>addr:city=Mecseknádasd; addr:housenumber=5;
    addr:postcode=7695; addr:street=Zrínyi utca; contact:fax=+36 72
    463 029;
    description=http://aktiv.itthon.hu/kempingek/-/netaview/63261/csillag-kemping-es-vendeghaz;
    disused:website=http://www.csillagvendeghazak.ini.hu;
    email=erdeihaz@freemail.hu; name=Csillag Kemping és vendégház;
    opening_hours=Jun 01-Aug 31; phone=+36 72 463 029,+36 30 947
    1198; source=turistautak.hu; tourism=camp_site;
    url=http://turistautak.hu/poi.php?id=15164;
    id=node/3411522301</desc>
    <link href="http://www.csillagvendeghazak.ini.hu"></link>
  </wpt>
  <wpt lat="46.270263" lon="18.627472">
    <ele>152.0</ele>
    <name>Kemping</name>
    <desc>name=Kemping; source=turistautak.hu; tourism=camp_site;
    url=http://turistautak.hu/poi.php?id=77997;
    id=node/3414916351</desc>
    <link href="http://turistautak.hu/poi.php?id=77997"></link>
  </wpt>
  <wpt lat="46.5526528" lon="17.1259907">
    <ele>131.0</ele>
    <name>Termál Kemping Zalatour</name>
    <desc>addr:city=Zalakaros; addr:housenumber=6;
    addr:postcode=8749; addr:street=Gyógyfürdő tér; contact:fax=+36
    93 541 907; email=thermal@zalatour.hu; name=Termál Kemping
    Zalatour; name:en=Thermal Camping; opening_hours=Apr 01-Oct 31:
    00:00-24:00; phone=+36 93 541 900,+36 30 302 0265;
    source=turistautak.hu; tourism=camp_site;
    url=http://turistautak.hu/poi.php?id=15261;
    website=http://www.zalatour.hu; id=node/3423391965; ;
    name=Balatontourist Termál Kemping Zalakaros;
    id=way/119883568</desc>
    <link href="http://www.zalatour.hu"></link>
  </wpt>
  <wpt lat="47.508461" lon="21.637834">
    <ele>115.0</ele>
    <name>Kerekes Telepi Kemping</name>
    <desc>addr:city=Debrecen; addr:housenumber=2-4;
    addr:postcode=4030; addr:street=Lomnic utca; name=Kerekes
    Telepi Kemping; phone=+36 52 470 745; source=turistautak.hu;
    source:date=2012-07-23; tourism=camp_site;
    url=http://turistautak.hu/poi.php?id=17702;
    id=node/3437027364</desc>
    <link href="http://turistautak.hu/poi.php?id=17702"></link>
  </wpt>
  <wpt lat="46.2675675" lon="20.0163742">
    <ele>80.0</ele>
    <name>Sziksósfürdői Naturista Kemping</name>
    <desc>access=private; addr:city=Szeged; addr:housenumber=1;
    addr:postcode=6791; addr:street=Vereshomok dűlő;
    contact:fax=+36 62 463 988; email=info@natours.hu; fee=yes;
    fixme=position; name=Sziksósfürdői Naturista Kemping;
    nudism=designated; opening_hours=24/7; operator=Sziki-Natours
    Kft. 6791 Szeged-Kiskundorozsma, Pf.: 26.; phone=+36 62 463
    988; source=turistautak.hu; tourism=camp_site;
    website=https://natours.hu/hu/; id=node/3437116572</desc>
    <link href="https://natours.hu/hu/"></link>
  </wpt>
  <wpt lat="48.1145361" lon="20.6567677">
    <ele>214.0</ele>
    <name>Bodnár Gábor Cserkésztábor</name>
    <desc>description=A Majáslis parktól nem messze az erdő tövőben
    lévő cserkésztábor "bejárata".; name=Bodnár Gábor
    Cserkésztábor; source=turistautak.hu; source:date=2011-07-04;
    tourism=camp_site; url=http://turistautak.hu/poi.php?id=1640;
    id=node/3437148025</desc>
    <link href="http://turistautak.hu/poi.php?id=1640"></link>
  </wpt>
  <wpt lat="47.8374019" lon="19.0040156">
    <ele>147.0</ele>
    <name>Kismaros-Börzsönyligeti Gyermek- és Ifjúsági Tábor
    (PMGYIA)</name>
    <desc>addr:city=Kismaros; addr:housenumber=128;
    addr:postcode=2623; addr:street=Szokolyai út;
    addr:suburb=Börzsönyliget; description=Egy nagyobb kőépület és
    több 5 férőhelyes faház, érdeklődni a 06-1/266-1051 számon
    lehet, gondnok:Schottner Györgyné 06-30/283-2514;
    name=Kismaros-Börzsönyligeti Gyermek- és Ifjúsági Tábor
    (PMGYIA); source=turistautak.hu; source:date=2011-06-28;
    tourism=camp_site; url=http://turistautak.hu/poi.php?id=71159;
    id=node/3439051231</desc>
    <link href="http://turistautak.hu/poi.php?id=71159"></link>
  </wpt>
  <wpt lat="47.8479505" lon="19.0555664">
    <ele>151.0</ele>
    <name>Sátorhely</name>
    <desc>addr:suburb=Magyarkút; mapillary:image=262349872926207;
    name=Sátorhely; source=turistautak.hu; source:date=2013-06-22;
    tourism=camp_site; url=http://turistautak.hu/poi.php?id=2941;
    id=node/3439051324</desc>
    <link href="http://turistautak.hu/poi.php?id=2941"></link>
  </wpt>
  <wpt lat="47.8016142" lon="18.9679915">
    <ele>104.0</ele>
    <name>Sólyomsziget Kemping</name>
    <desc>addr:city=Nagymaros; addr:housenumber=67;
    addr:postcode=2626; addr:street=Sólyomszigeti út;
    contact:email=info@solyomyacht.hu; contact:fax=+36 27 594 321;
    contact:mobile=+36 30 368 8688; contact:phone=+36 27 594
    320,+36 27 355 575; contact:website=http://www.solyomyacht.hu;
    name=Sólyomsziget Kemping; official_name=Sólyom- szigeti
    kemping és jacht kikötő; opening_hours=Mo-Su 08:00-22:00;
    source=turistautak.hu; source:date=2013-06-22;
    tourism=camp_site; id=node/3439051326</desc>
    <link href="http://www.solyomyacht.hu"></link>
  </wpt>
  <wpt lat="47.8049803" lon="18.9242042">
    <ele>161.0</ele>
    <name>Erdei Sátortábor</name>
    <desc>name=Erdei Sátortábor; operator=Ipolyerdő Zrt.;
    source=turistautak.hu; source:date=2014-10-16;
    tourism=camp_site; url=http://turistautak.hu/poi.php?id=168178;
    website=http://www.erdeihazak.hu/erdei-ifjusagi-szallok/zebegeny_sator;
    id=node/3439051378</desc>
    <link href="http://www.erdeihazak.hu/erdei-ifjusagi-szallok/zebegeny_sator">
    </link>
  </wpt>
  <wpt lat="47.93025" lon="18.8406964">
    <ele>246.0</ele>
    <name>Nagybörzsönyi Ifjúsági Tábor</name>
    <desc>name=Nagybörzsönyi Ifjúsági Tábor; source=turistautak.hu;
    source:date=2014-10-16; tourism=camp_site;
    url=http://turistautak.hu/poi.php?id=5380;
    id=node/3439051424</desc>
    <link href="http://turistautak.hu/poi.php?id=5380"></link>
  </wpt>
  <wpt lat="47.211446" lon="17.696248">
    <ele>344.0</ele>
    <name>Sátortábor (időszakos)</name>
    <desc>backcountry=yes; fee=no; name=Sátortábor (időszakos);
    source=turistautak.hu,local knowledge; source:date=2013-04-14;
    tourism=camp_site; url=http://turistautak.hu/poi.php?id=81972;
    id=node/3439631901</desc>
    <link href="http://turistautak.hu/poi.php?id=81972"></link>
  </wpt>
  <wpt lat="48.266419" lon="21.180182">
    <ele>117.0</ele>
    <name>Sport Kemping</name>
    <desc>addr:city=Abaújszántó; addr:housenumber=8;
    addr:postcode=3881; addr:street=Fürdő utca;
    email=abaujszanto@tourinform.hu; name=Sport Kemping; phone=+36
    47 330 053; source=turistautak.hu; source:date=2012-08-21;
    tourism=camp_site; url=http://turistautak.hu/poi.php?id=18533;
    id=node/3439664592</desc>
    <link href="http://turistautak.hu/poi.php?id=18533"></link>
  </wpt>
  <wpt lat="48.333192" lon="21.249189">
    <ele>187.0</ele>
    <name>Téka tábor</name>
    <desc>name=Téka tábor; source=turistautak.hu;
    source:date=2013-07-13; tourism=camp_site;
    url=http://turistautak.hu/poi.php?id=156234;
    id=node/3439664725</desc>
    <link href="http://turistautak.hu/poi.php?id=156234"></link>
  </wpt>
  <wpt lat="46.0858299" lon="18.2630014">
    <ele>168.0</ele>
    <name>Família Kemping</name>
    <desc>addr:city=Pécs; addr:housenumber=6; addr:postcode=7629;
    addr:street=Gyöngyösi István utca; name=Família Kemping;
    phone=+36 72 327 034; source=turistautak.hu;
    source:date=2015-01-12; tourism=camp_site;
    url=http://turistautak.hu/poi.php?id=15551;
    id=node/3440859577</desc>
    <link href="http://turistautak.hu/poi.php?id=15551"></link>
  </wpt>
  <wpt lat="47.740517" lon="17.7579">
    <ele>114.0</ele>
    <name>Aranykert Jurtatábor</name>
    <desc>contact:email=kultour@citromail.hu; contact:phone=+36 96
    358 760,+36 30 500 6096; fixme=resurvey (source was old);
    name=Aranykert Jurtatábor; source=turistautak.hu;
    source:date=2008-02-12; tourism=camp_site;
    url=http://turistautak.hu/poi.php?id=11569;
    id=node/3441397570</desc>
    <link href="http://turistautak.hu/poi.php?id=11569"></link>
  </wpt>
  <wpt lat="47.736013" lon="17.759858">
    <ele>114.0</ele>
    <name>Camping, Vének</name>
    <desc>name=Camping, Vének; source=turistautak.hu;
    source:date=2015-01-30; tourism=camp_site;
    url=http://turistautak.hu/poi.php?id=21405;
    id=node/3441411600</desc>
    <link href="http://turistautak.hu/poi.php?id=21405"></link>
  </wpt>
  <wpt lat="47.588819" lon="17.646642">
    <ele>164.0</ele>
    <name>Győri Gyermektábor</name>
    <desc>name=Győri Gyermektábor; source=turistautak.hu;
    source:date=2015-01-30; tourism=camp_site;
    url=http://turistautak.hu/poi.php?id=36513;
    id=node/3441411631</desc>
    <link href="http://turistautak.hu/poi.php?id=36513"></link>
  </wpt>
  <wpt lat="47.7606995" lon="17.5429881">
    <ele>115.0</ele>
    <name>Vízitúra sátorozóhely</name>
    <desc>name=Vízitúra sátorozóhely; tourism=camp_site;
    id=node/3441412055</desc>
  </wpt>
  <wpt lat="47.7340291" lon="17.5433783">
    <ele>112.0</ele>
    <name>Vízitúra táborhely</name>
    <desc>name=Vízitúra táborhely; tourism=camp_site;
    id=node/3441412056</desc>
  </wpt>
  <wpt lat="47.7813828" lon="17.5009793">
    <ele>111.0</ele>
    <name>node/3441412937</name>
    <desc>tourism=camp_site; id=node/3441412937</desc>
  </wpt>
  <wpt lat="46.8415705" lon="17.854779">
    <ele>105.0</ele>
    <name>node/3441436388</name>
    <desc>source=turistautak.hu; source:date=2012-10-14;
    tourism=camp_site; url=http://turistautak.hu/poi.php?id=120976;
    id=node/3441436388</desc>
    <link href="http://turistautak.hu/poi.php?id=120976"></link>
  </wpt>
  <wpt lat="46.8735493" lon="17.9049388">
    <ele>103.0</ele>
    <name>KFKI Camping</name>
    <desc>name=KFKI Camping; source=turistautak.hu;
    source:date=2012-10-14; tourism=camp_site;
    url=http://turistautak.hu/poi.php?id=74365;
    id=node/3441442854</desc>
    <link href="http://turistautak.hu/poi.php?id=74365"></link>
  </wpt>
  <wpt lat="47.7975227" lon="18.9941658">
    <ele>268.0</ele>
    <name>Jurta Kemping</name>
    <desc>addr:city=Visegrád; addr:postcode=2025;
    addr:street=Mogyoróhegy; contact:fax=+36 26 398 237;
    contact:mobile=+36 20 399 7002; contact:phone=+36 26 398 217;
    email=jurta.kemping@t-online.hu; name=Jurta Kemping;
    note=Bejelentkezés: Kozsa Csaba +36 20 399 7002 Recepció a
    büfében található!; source=turistautak.hu;
    source:date=2014-02-06; tourism=camp_site;
    url=http://turistautak.hu/poi.php?id=15257;
    website=http://www.kemping.hu/jurta; id=node/3441690573</desc>
    <link href="http://www.kemping.hu/jurta"></link>
  </wpt>
  <wpt lat="47.7679" lon="19.07735">
    <ele>98.0</ele>
    <name>node/3441705153</name>
    <desc>backcountry=yes; source=turistautak.hu;
    source:date=2014-02-06; tourism=camp_site;
    url=http://turistautak.hu/poi.php?id=26669;
    id=node/3441705153</desc>
    <link href="http://turistautak.hu/poi.php?id=26669"></link>
  </wpt>
  <wpt lat="47.801344" lon="18.996819">
    <ele>230.0</ele>
    <name>Vándortábor</name>
    <desc>name=Vándortábor; source=turistautak.hu;
    source:date=2014-02-06; tourism=camp_site;
    url=http://turistautak.hu/poi.php?id=157990;
    id=node/3441705173</desc>
    <link href="http://turistautak.hu/poi.php?id=157990"></link>
  </wpt>
  <wpt lat="47.796893" lon="19.031989">
    <ele>102.0</ele>
    <name>node/3441705782</name>
    <desc>source=turistautak.hu; source:date=2011-04-07;
    tourism=camp_site; url=http://turistautak.hu/poi.php?id=56823;
    id=node/3441705782</desc>
    <link href="http://turistautak.hu/poi.php?id=56823"></link>
  </wpt>
  <wpt lat="47.921762" lon="20.561643">
    <ele>187.0</ele>
    <name>Ifjúsági tábor</name>
    <desc>name=Ifjúsági tábor; source=turistautak.hu;
    source:date=2013-12-02; tourism=camp_site;
    url=http://turistautak.hu/poi.php?id=8583;
    id=node/3445462422</desc>
    <link href="http://turistautak.hu/poi.php?id=8583"></link>
  </wpt>
  <wpt lat="47.911683" lon="20.530533">
    <ele>175.0</ele>
    <name>Karaván Kemping</name>
    <desc>addr:city=Bogács; addr:housenumber=6; addr:postcode=3412;
    addr:street=Őz utca; description=Kutya, macska bevihető * 24
    órás portaszolgálat * Zárt parkoló * Garantált, ellenőrzött
    pihenés 21.00-07.00 között *; name=Karaván Kemping; phone=+36
    70 317 8322; source=turistautak.hu; source:date=2011-07-04;
    tourism=camp_site; url=http://turistautak.hu/poi.php?id=15055;
    id=node/3445462458</desc>
    <link href="http://turistautak.hu/poi.php?id=15055"></link>
  </wpt>
  <wpt lat="46.7630093" lon="17.602423">
    <ele>106.0</ele>
    <name>Fonyódligeti Gyermektábor</name>
    <desc>contact:email=postmaster@gyermektabor.t-online.hu;
    name=Fonyódligeti Gyermektábor; tourism=camp_site;
    id=node/3445485608</desc>
  </wpt>
  <wpt lat="46.674028" lon="17.659295">
    <ele>153.0</ele>
    <name>Kék-tó Kemping</name>
    <desc>addr:postcode=8693; contact:fax=+36 85 330 278;
    email=hotel@kek-to.hu; name=Kék-tó Kemping; phone=+36 85 330
    422; source=turistautak.hu; source:date=2012-10-14;
    tourism=camp_site; url=http://turistautak.hu/poi.php?id=15157;
    website=https://www.kek-to.hu/; id=node/3445485668</desc>
    <link href="https://www.kek-to.hu/"></link>
  </wpt>
  <wpt lat="47.805783" lon="20.244883">
    <ele>128.0</ele>
    <name>Debrő vendégház</name>
    <desc>addr:city=Feldebrő; addr:housenumber=32;
    addr:postcode=3352; addr:street=Toldi út; contact:fax=+36 36
    460 007; email=debrovendeghaz@t-online.hu; name=Debrő
    vendégház; phone=+36 36 460 007,+36 30 653 3400;
    source=turistautak.hu; source:date=2013-12-02;
    tourism=camp_site; url=http://turistautak.hu/poi.php?id=15093;
    website=http://www.debrovendeghaz.hu; id=node/3446585488</desc>
    <link href="http://www.debrovendeghaz.hu"></link>
  </wpt>
  <wpt lat="47.94823" lon="20.4634">
    <ele>317.0</ele>
    <name>Nomád Camping</name>
    <desc>addr:city=Noszvaj; addr:housenumber=5-7;
    addr:postcode=3325; addr:street=Sikfőkút út; contact:fax=+36 36
    563 008; email=nomad@nomadhotel.hu; fixme=resurvey (source was
    old); name=Nomád Camping; phone=+36 36 463 363;
    source=turistautak.hu; source:date=2008-06-07;
    tourism=camp_site; url=http://turistautak.hu/poi.php?id=15179;
    website=https://nomadhotel.hu/; id=node/3446587144</desc>
    <link href="https://nomadhotel.hu/"></link>
  </wpt>
  <wpt lat="46.9879865" lon="17.5645097">
    <ele>249.0</ele>
    <name>Napfény kemping</name>
    <desc>name=Napfény kemping; source=turistautak.hu
    http://www.napfenycamping.hu/; source:date=2011-11-01;
    tourism=camp_site; url=http://turistautak.hu/poi.php?id=127186;
    id=node/3448565446</desc>
    <link href="http://turistautak.hu/poi.php?id=127186"></link>
  </wpt>
  <wpt lat="46.951322" lon="17.605983">
    <ele>206.0</ele>
    <name>Kapolcsi sÜvegTIGRIS kemping</name>
    <desc>name=Kapolcsi sÜvegTIGRIS kemping; source=turistautak.hu;
    source:date=2013-01-01; tourism=camp_site;
    url=http://turistautak.hu/poi.php?id=27591;
    id=node/3448565542</desc>
    <link href="http://turistautak.hu/poi.php?id=27591"></link>
  </wpt>
  <wpt lat="46.882945" lon="17.605472">
    <ele>170.0</ele>
    <name>Köveskáli Diákkemping</name>
    <desc>addr:city=Köveskál; addr:housenumber=7;
    addr:postcode=8274; addr:street=Iskola utca; contact:fax=+36 87
    478 052; name=Köveskáli Diákkemping; phone=+36 87 478 044;
    source=turistautak.hu; source:date=2011-05-26;
    tourism=camp_site; url=http://turistautak.hu/poi.php?id=17551;
    id=node/3448565566</desc>
    <link href="http://turistautak.hu/poi.php?id=17551"></link>
  </wpt>
  <wpt lat="47.7897502" lon="18.7325632">
    <ele>107.0</ele>
    <name>Gran-Camping &amp; Bungalow</name>
    <desc>addr:city=Esztergom; addr:housenumber=4;
    addr:postcode=2500; addr:street=Nagy-Duna sétány; caravans=yes;
    description=http://grancamping-fortanex.hu; fee=yes;
    internet_access=wlan; name=Gran-Camping &amp; Bungalow;
    payment:cash=yes; payment:credit_cards=yes; phone=+36 33 311
    327; shower=yes; source=turistautak.hu; source:date=2013-01-18;
    swimming_pool=outdoor; tents=yes; toilets=yes;
    tourism=camp_site; url=http://turistautak.hu/poi.php?id=17537;
    id=node/3454422366</desc>
    <link href="http://turistautak.hu/poi.php?id=17537"></link>
  </wpt>
  <wpt lat="46.983483" lon="18.944507">
    <ele>94.0</ele>
    <name>node/3454478408</name>
    <desc>tourism=camp_site;
    url=http://www.szalkisziget.hu/kemping/;
    id=node/3454478408</desc>
    <link href="http://www.szalkisziget.hu/kemping/"></link>
  </wpt>
  <wpt lat="46.764878" lon="17.289977">
    <ele>108.0</ele>
    <name>Caravan Camping</name>
    <desc>addr:city=Gyenesdiás; addr:housenumber=43;
    addr:postcode=8315; addr:street=Madách utca; contact:fax=+36 83
    316 382; email=caravancamping@freemail.hu; name=Caravan
    Camping; phone=+36 83 316 020,+36 30 391 8307;
    source=turistautak.hu; source:date=2011-05-26; stars=3;
    tourism=camp_site; url=http://turistautak.hu/poi.php?id=15426;
    website=http://www.caravancamping.hu/; id=node/3454647468; ;
    id=way/1200912900</desc>
    <link href="http://www.caravancamping.hu/"></link>
  </wpt>
  <wpt lat="46.760695" lon="17.316278">
    <ele>125.0</ele>
    <name>Eldorádó Fogadó-Kemping</name>
    <desc>addr:city=Vonyarcvashegy; addr:housenumber=2;
    addr:postcode=8314; addr:street=Fürdő utca; contact:fax=+36 83
    348 714; email=elan97@t-online.hu; name=Eldorádó
    Fogadó-Kemping; phone=+36 83 348 714,+36 20 476 1984;
    source=turistautak.hu; source:date=2011-05-26;
    tourism=camp_site; url=http://turistautak.hu/poi.php?id=17553;
    website=http://www.eldorado.tar.hu; id=node/3454647482</desc>
    <link href="http://www.eldorado.tar.hu"></link>
  </wpt>
  <wpt lat="46.808033" lon="17.21215">
    <ele>156.0</ele>
    <name>Panoráma Camping</name>
    <desc>addr:city=Cserszegtomaj; addr:housenumber=1;
    addr:postcode=8372; addr:street=Panoráma köz; contact:fax=+36
    83 330 215; email=matuska78@freemail.hu; name=Panoráma Camping;
    phone=+36 83 330 215,+36 20 435 0174; source=turistautak.hu;
    source:date=2013-03-31; tourism=camp_site;
    url=http://turistautak.hu/poi.php?id=15128;
    website=http://www.panoramacamping.com/;
    id=node/3454648831</desc>
    <link href="http://www.panoramacamping.com/"></link>
  </wpt>
  <wpt lat="46.7615877" lon="17.162678">
    <ele>186.0</ele>
    <name>Siesta</name>
    <desc>addr:postcode=8394; addr:street=Szőlőhegy 1071.;
    contact:fax=+36 83 340 981; email=siestacamp@freemail.hu;
    name=Siesta; phone=+36 83 340 981,+36 30 986 5128;
    source=turistautak.hu; source:date=2011-05-26;
    tourism=camp_site; url=http://turistautak.hu/poi.php?id=15027;
    id=node/3454648850</desc>
    <link href="http://turistautak.hu/poi.php?id=15027"></link>
  </wpt>
  <wpt lat="46.781983" lon="17.282933">
    <ele>144.0</ele>
    <name>Szent Ilona Kemping</name>
    <desc>addr:city=Gyenesdiás; addr:housenumber=36;
    addr:postcode=8315; addr:street=Lőtéri utca; contact:fax=+36 83
    316 803; email=st.ilona@freemail.hu; name=Szent Ilona Kemping;
    phone=+36 83 316 803,+36 30 480 0010; source=turistautak.hu;
    source:date=2012-11-01; tourism=camp_site;
    url=http://turistautak.hu/poi.php?id=146639;
    website=http://sz-grof.wix.com/st_ilona_camping2;
    id=node/3454648855</desc>
    <link href="http://sz-grof.wix.com/st_ilona_camping2"></link>
  </wpt>
  <wpt lat="46.76486" lon="17.290883">
    <ele>109.0</ele>
    <name>Tulipán kemping</name>
    <desc>name=Tulipán kemping; source=turistautak.hu;
    source:date=2011-05-26; tourism=camp_site;
    url=http://turistautak.hu/poi.php?id=27451; id=node/3454648876;
    ; id=way/1200912072</desc>
    <link href="http://turistautak.hu/poi.php?id=27451"></link>
  </wpt>
  <wpt lat="46.76415" lon="17.302783">
    <ele>114.0</ele>
    <name>Wellness Park Panzió &amp; Camping</name>
    <desc>addr:city=Gyenesdiás; addr:housenumber=6;
    addr:postcode=8315; addr:street=Napfény utca; contact:fax=+36
    83 316 483; description=Josef Apartmanház;
    email=josef@josef.hu; fixme=resurvey (source was old);
    name=Wellness Park Panzió &amp; Camping; phone=+36 83 316
    483,+36 70 384 8633; source=turistautak.hu;
    source:date=2008-02-12; tourism=camp_site;
    url=http://turistautak.hu/poi.php?id=15106;
    website=http://www.josef.hu; id=node/3454649794</desc>
    <link href="http://www.josef.hu"></link>
  </wpt>
  <wpt lat="47.86037" lon="19.07299">
    <ele>192.0</ele>
    <name>Táborozó hely</name>
    <desc>name=Táborozó hely; source=turistautak.hu;
    source:date=2014-10-16; tourism=camp_site;
    url=http://turistautak.hu/poi.php?id=2944;
    id=node/3456335636</desc>
    <link href="http://turistautak.hu/poi.php?id=2944"></link>
  </wpt>
  <wpt lat="47.299526" lon="21.35647">
    <ele>89.0</ele>
    <name>node/3456353819</name>
    <desc>source=turistautak.hu; source:date=2012-08-01;
    tourism=camp_site; url=http://turistautak.hu/poi.php?id=72054;
    id=node/3456353819</desc>
    <link href="http://turistautak.hu/poi.php?id=72054"></link>
  </wpt>
  <wpt lat="47.320389" lon="21.100169">
    <ele>84.0</ele>
    <name>Árnyas Kemping és Motel</name>
    <desc>addr:city=Püspökladány; addr:housenumber=62;
    addr:postcode=4150; addr:street=Petőfi Sándor utca;
    contact:fax=+36 54 451 329; email=arnyascamping@externet.hu;
    name=Árnyas Kemping és Motel; phone=+36 54 451 329,+36 20 325
    7424; source=turistautak.hu; source:date=2009-03-01;
    tourism=camp_site; url=http://turistautak.hu/poi.php?id=15192;
    website=http://www.arnyascamping.hu; id=node/3456353871</desc>
    <link href="http://www.arnyascamping.hu"></link>
  </wpt>
  <wpt lat="47.921236" lon="19.181432">
    <ele>171.0</ele>
    <name>Nádas Kemping</name>
    <desc>addr:city=Bánk; addr:housenumber=85; addr:postcode=2653;
    addr:street=Petőfi út; email=csizmar.gabor@hotmail.com;
    name=Nádas Kemping; phone=+36 30 351 3818;
    source=turistautak.hu; source:date=2012-05-01;
    tourism=camp_site; url=http://turistautak.hu/poi.php?id=56084;
    id=node/3456392141</desc>
    <link href="http://turistautak.hu/poi.php?id=56084"></link>
  </wpt>
  <wpt lat="48.0141532" lon="19.0747547">
    <ele>225.0</ele>
    <name>Szent Kristóf Motel és Kemping</name>
    <desc>addr:postcode=2645; addr:street=Tó utca; name=Szent
    Kristóf Motel és Kemping; operator=ZÁRVA; phone=+36 35 374 267;
    source=turistautak.hu; source:date=2013-06-22;
    tourism=camp_site; url=http://turistautak.hu/poi.php?id=17543;
    id=node/3456392182</desc>
    <link href="http://turistautak.hu/poi.php?id=17543"></link>
  </wpt>
  <wpt lat="48.417417" lon="21.607867">
    <ele>146.0</ele>
    <name>Smaragdvölgy- Pihenőpark</name>
    <desc>contact:fax=+36 47 323 888; email=info@smaragdvolgy.hu;
    name=Smaragdvölgy- Pihenőpark; phone=+36 47 324 324,+36 30 975
    4700; source=turistautak.hu; source:date=2012-08-21;
    tourism=camp_site; url=http://turistautak.hu/poi.php?id=15202;
    website=https://www.smaragdvolgy.hu/; id=node/3456414235</desc>
    <link href="https://www.smaragdvolgy.hu/"></link>
  </wpt>
  <wpt lat="47.855887" lon="17.311399">
    <ele>117.0</ele>
    <name>Sátorozóhely</name>
    <desc>name=Sátorozóhely; source=turistautak.hu;
    source:date=2010-05-02; tourism=camp_site;
    url=http://turistautak.hu/poi.php?id=65099;
    id=node/3456418353</desc>
    <link href="http://turistautak.hu/poi.php?id=65099"></link>
  </wpt>
  <wpt lat="47.8050497" lon="17.4364985">
    <ele>115.0</ele>
    <name>Vízitúra táborhely</name>
    <desc>name=Vízitúra táborhely; tourism=camp_site;
    id=node/3456418402</desc>
  </wpt>
  <wpt lat="47.8427" lon="17.287855">
    <ele>127.0</ele>
    <name>Vízitúra táborhely</name>
    <desc>name=Vízitúra táborhely; source=turistautak.hu;
    source:date=2015-01-30; tourism=camp_site;
    url=http://turistautak.hu/poi.php?id=54419;
    id=node/3456418403</desc>
    <link href="http://turistautak.hu/poi.php?id=54419"></link>
  </wpt>
  <wpt lat="47.959504" lon="17.34868">
    <ele>121.0</ele>
    <name>node/3456418697</name>
    <desc>source=turistautak.hu; source:date=2015-01-30;
    tourism=camp_site; url=http://turistautak.hu/poi.php?id=84275;
    id=node/3456418697</desc>
    <link href="http://turistautak.hu/poi.php?id=84275"></link>
  </wpt>
  <wpt lat="47.27605" lon="17.715833">
    <ele>273.0</ele>
    <name>Kemping Bakonybél mellett</name>
    <desc>description=Szépen karbantartott kemping Bakonybélhez
    nagyon közel. A Gerence-patak mellett találjátok. Bővebb
    információt nem találtam róla a helyszínen. Egyébként eladó,
    ill kiadó.; name=Kemping Bakonybél mellett;
    source=turistautak.hu; source:date=2013-04-14;
    tourism=camp_site; url=http://turistautak.hu/poi.php?id=16347;
    id=node/3458274139</desc>
    <link href="http://turistautak.hu/poi.php?id=16347"></link>
  </wpt>
  <wpt lat="46.190817" lon="18.160733">
    <ele>148.0</ele>
    <name>G&amp;N</name>
    <desc>name=G&amp;N; source=turistautak.hu;
    source:date=2015-01-12; tourism=camp_site;
    url=http://turistautak.hu/poi.php?id=118234;
    id=node/3458289141</desc>
    <link href="http://turistautak.hu/poi.php?id=118234"></link>
  </wpt>
  <wpt lat="46.983783" lon="17.932517">
    <ele>152.0</ele>
    <name>Mandel Camping</name>
    <desc>addr:city=Paloznak; addr:housenumber=5;
    addr:postcode=8229; addr:street=Görbe utca; contact:fax=+36 87
    446 830; email=mandelcamping@t-online.hu; name=Mandel Camping;
    phone=+36 87 446 830,+36 20 342 0305; source=turistautak.hu;
    source:date=2008-02-12; tourism=camp_site;
    url=http://turistautak.hu/poi.php?id=15185;
    website=https://www.mandelcamping.hu/;
    id=node/3458341633</desc>
    <link href="https://www.mandelcamping.hu/"></link>
  </wpt>
  <wpt lat="46.65137" lon="20.2473896">
    <ele>76.0</ele>
    <name>Termál Kemping</name>
    <desc>addr:city=Szentes; addr:housenumber=4;
    addr:postcode=6600; addr:street=Csallány Gábor part;
    contact:fax=+36 63 314 167; email=udulohazak@szentes.hu;
    name=Termál Kemping; phone=+36 63 314 167;
    source=turistautak.hu; source:date=2014-02-23;
    tourism=camp_site; url=http://turistautak.hu/poi.php?id=15214;
    website=https://www.szentesinfo.hu/mozaik;
    id=node/3458377990</desc>
    <link href="https://www.szentesinfo.hu/mozaik"></link>
  </wpt>
  <wpt lat="47.28532" lon="17.87265">
    <ele>401.0</ele>
    <name>Csalogány Kemping</name>
    <desc>addr:city=Zirc; addr:housenumber=16; addr:postcode=8420;
    addr:street=Győri utca; name=Csalogány Kemping; phone=+36 88
    416 788; source=turistautak.hu; source:date=2012-03-29;
    tourism=camp_site; url=http://turistautak.hu/poi.php?id=15258;
    id=node/3459862588</desc>
    <link href="http://turistautak.hu/poi.php?id=15258"></link>
  </wpt>
  <wpt lat="46.8957891" lon="16.5453593">
    <ele>236.0</ele>
    <name>Fenyves Camping és vendégház</name>
    <desc>addr:city=Őrimagyarósd; addr:housenumber=1;
    addr:postcode=9933; addr:street=Dózsa György utca; name=Fenyves
    Camping és vendégház; phone=+36 94 426 033,+36 30 281 2468;
    source=turistautak.hu; source:date=2012-12-10;
    tourism=camp_site; url=http://turistautak.hu/poi.php?id=23907;
    id=node/3459862899</desc>
    <link href="http://turistautak.hu/poi.php?id=23907"></link>
  </wpt>
  <wpt lat="46.826083" lon="16.464883">
    <ele>215.0</ele>
    <name>Varga Tanya Kemping és vendégház</name>
    <desc>addr:city=Nagyrákos; addr:housenumber=42;
    addr:postcode=9938; addr:street=Belsőszer; name=Varga Tanya
    Kemping és vendégház; phone=+36 94 428 511,+36 20 936 8127;
    source=turistautak.hu; source:date=2012-12-10;
    tourism=camp_site; url=http://turistautak.hu/poi.php?id=23902;
    website=https://www.maganszallashely.hu/vargatanyaorseg;
    id=node/3459863022</desc>
    <link href="https://www.maganszallashely.hu/vargatanyaorseg">
    </link>
  </wpt>
  <wpt lat="46.947024" lon="20.773966">
    <ele>80.0</ele>
    <name>Haliday kemping</name>
    <desc>name=Haliday kemping; source=turistautak.hu;
    source:date=2012-12-27; tourism=camp_site;
    url=http://turistautak.hu/poi.php?id=87119;
    id=node/3459957844</desc>
    <link href="http://turistautak.hu/poi.php?id=87119"></link>
  </wpt>
  <wpt lat="46.936903" lon="20.83835">
    <ele>82.0</ele>
    <name>Liget fürdő és kemping</name>
    <desc>addr:city=Gyomaendrőd; addr:housenumber=2;
    addr:postcode=5500; addr:street=Erzsébet liget;
    addr:suburb=Gyoma; contact:fax=+36 66 283 750;
    email=ligetfurdo@internet-x.hu; name=Liget fürdő és kemping;
    phone=+36 66 386 039; source=turistautak.hu;
    source:date=2010-02-18; tourism=camp_site;
    url=http://turistautak.hu/poi.php?id=15107;
    website=https://www.ligetfurdo.hu/; id=node/3459957887</desc>
    <link href="https://www.ligetfurdo.hu/"></link>
  </wpt>
  <wpt lat="46.946655" lon="20.7688">
    <ele>82.0</ele>
    <name>Pájer Kemping</name>
    <desc>addr:postcode=5500; addr:street=Templom-zug;
    contact:fax=+36 66 282 684; name=Pájer Kemping; phone=+36 66
    386 505,+36 30 967 2741; source=turistautak.hu;
    source:date=2012-08-01; tourism=camp_site;
    url=http://turistautak.hu/poi.php?id=15108;
    website=https://www.pajerkemping.hu/; id=node/3459957921</desc>
    <link href="https://www.pajerkemping.hu/"></link>
  </wpt>
  <wpt lat="47.991958" lon="20.169745">
    <ele>207.0</ele>
    <name>Bükkszéki Ifjúsági Tábor</name>
    <desc>name=Bükkszéki Ifjúsági Tábor; source=turistautak.hu;
    source:date=2013-12-02; tourism=camp_site;
    url=http://turistautak.hu/poi.php?id=91956;
    id=node/3459967141</desc>
    <link href="http://turistautak.hu/poi.php?id=91956"></link>
  </wpt>
  <wpt lat="47.993517" lon="20.181183">
    <ele>198.0</ele>
    <name>Camping</name>
    <desc>name=Camping; source=turistautak.hu;
    source:date=2011-07-04; tourism=camp_site;
    url=http://turistautak.hu/poi.php?id=80472;
    id=node/3459967148</desc>
    <link href="http://turistautak.hu/poi.php?id=80472"></link>
  </wpt>
  <wpt lat="47.918083" lon="20.05535">
    <ele>256.0</ele>
    <name>Parádi tábor</name>
    <desc>name=Parádi tábor; source=turistautak.hu;
    source:date=2013-06-22; tourism=camp_site;
    url=http://turistautak.hu/poi.php?id=34736; id=node/3459967853;
    ; barrier=fence; name=Tábor; id=way/385634192</desc>
    <link href="http://turistautak.hu/poi.php?id=34736"></link>
  </wpt>
  <wpt lat="47.9245746" lon="20.070329">
    <ele>202.0</ele>
    <name>Recski ifjúsági tábor</name>
    <desc>name=Recski ifjúsági tábor; source=turistautak.hu;
    source:date=2013-07-20; tourism=camp_site;
    url=http://turistautak.hu/poi.php?id=9537;
    id=node/3459967872</desc>
    <link href="http://turistautak.hu/poi.php?id=9537"></link>
  </wpt>
  <wpt lat="46.058998" lon="17.933828">
    <ele>125.0</ele>
    <name>Camping Idyll</name>
    <desc>addr:city=Nagyváty; addr:housenumber=28;
    addr:postcode=7912; addr:street=Petőfi utca;
    email=info@campingidyll.hu; name=Camping Idyll; phone=+36 73
    546 612,+36 20 471 4654; source=turistautak.hu;
    source:date=2011-09-08; tourism=camp_site;
    url=http://turistautak.hu/poi.php?id=15552;
    website=http://www.campingidyll.hu; id=node/3461967443</desc>
    <link href="http://www.campingidyll.hu"></link>
  </wpt>
  <wpt lat="46.18275" lon="17.836417">
    <ele>133.0</ele>
    <name>Horgásztanya Kemping</name>
    <desc>addr:city=Boldogasszonyfa; addr:housenumber=53;
    addr:postcode=7937; addr:street=Petőfi Sándor utca;
    name=Horgásztanya Kemping; phone=+36 73 702 003;
    source=turistautak.hu; source:date=2015-01-12;
    tourism=camp_site; url=http://turistautak.hu/poi.php?id=17496;
    id=node/3461967480</desc>
    <link href="http://turistautak.hu/poi.php?id=17496"></link>
  </wpt>
  <wpt lat="46.179253" lon="17.837532">
    <ele>135.0</ele>
    <name>Horgásztanya és Kemping</name>
    <desc>addr:city=Boldogasszonyfa; addr:housenumber=53;
    addr:postcode=7937; addr:street=Petőfi Sándor utca;
    contact:fax=+36 73 702 030; email=horgasztanya@horgasztanya.hu;
    name=Horgásztanya és Kemping; phone=+36 73 702 003,+36 30 937
    1677; source=turistautak.hu; source:date=2011-09-08;
    tourism=camp_site; url=http://turistautak.hu/poi.php?id=17889;
    website=http://www.horgasztanya.hu; id=node/3461967481</desc>
    <link href="http://www.horgasztanya.hu"></link>
  </wpt>
  <wpt lat="46.0575" lon="17.7924">
    <ele>118.0</ele>
    <name>Termál Camping és Motel</name>
    <desc>addr:city=Szigetvár; addr:postcode=7900;
    addr:street=Szent István lakótelep; name=Termál Camping és
    Motel; source=turistautak.hu; source:date=2015-01-12;
    tourism=camp_site; url=http://turistautak.hu/poi.php?id=100139;
    id=node/3461967565</desc>
    <link href="http://turistautak.hu/poi.php?id=100139"></link>
  </wpt>
  <wpt lat="48.1784735" lon="21.3023118">
    <ele>125.0</ele>
    <name>Bortó Panzió és kemping</name>
    <desc>contact:fax=+36 47 369 477;
    email=bortopanzio@t-online.hu; name=Bortó Panzió és kemping;
    phone=+36 47 369 476; source=turistautak.hu;
    source:date=2012-08-21; tourism=camp_site;
    url=http://turistautak.hu/poi.php?id=15167;
    website=https://www.szallasinfo.hu/bortopanzio;
    id=node/3462206403; ; type=multipolygon;
    id=relation/13455889</desc>
    <link href="https://www.szallasinfo.hu/bortopanzio"></link>
  </wpt>
  <wpt lat="46.148963" lon="18.396199">
    <ele>227.0</ele>
    <name>Zengő Ifjúsági Tábor</name>
    <desc>addr:postcode=7720; addr:street=Tóvölgy 14.;
    email=kotsch@freemail.hu; name=Zengő Ifjúsági Tábor; phone=+36
    72 466 346,+36 70 382 6332; source=turistautak.hu;
    source:date=2015-01-12; tourism=camp_site;
    url=http://turistautak.hu/poi.php?id=15188;
    website=http://www.zengotabor.hu; id=node/3464280005</desc>
    <link href="http://www.zengotabor.hu"></link>
  </wpt>
  <wpt lat="48.119583" lon="22.347017">
    <ele>108.0</ele>
    <name>Diófa Kemping és Étterem</name>
    <desc>addr:city=Vásárosnamény; addr:housenumber=71;
    addr:postcode=4803; addr:street=Gulácsi út;
    addr:suburb=Gergelyiugornya; contact:fax=+36 45 478 319;
    email=diofakemping@vipmail.hu; fixme=resurvey (source was old);
    name=Diófa Kemping és Étterem; phone=+36 45 712 298,+36 70 335
    2757; source=turistautak.hu; source:date=2008-06-06;
    tourism=camp_site; url=http://turistautak.hu/poi.php?id=15255;
    website=http://www.namenynet.hu/~diofakemping/index1.html;
    id=node/3465100663</desc>
    <link href="http://www.namenynet.hu/~diofakemping/index1.html">
    </link>
  </wpt>
  <wpt lat="48.11909" lon="22.337819">
    <ele>109.0</ele>
    <name>Garabonciás kemping</name>
    <desc>name=Garabonciás kemping; source=turistautak.hu;
    source:date=2013-04-29; tourism=camp_site;
    url=http://turistautak.hu/poi.php?id=64754; id=node/3465100673;
    ; type=multipolygon; id=relation/18014139</desc>
    <link href="http://turistautak.hu/poi.php?id=64754"></link>
  </wpt>
  <wpt lat="46.724639" lon="18.657894">
    <ele>126.0</ele>
    <name>Ifjúsági tábor</name>
    <desc>contact:phone=+36 25 229 010; name=Ifjúsági tábor;
    source=turistautak.hu; source:date=2015-01-12;
    tourism=camp_site; url=http://turistautak.hu/poi.php?id=63207;
    id=node/3465129524</desc>
    <link href="http://turistautak.hu/poi.php?id=63207"></link>
  </wpt>
  <wpt lat="47.37565" lon="16.762767">
    <ele>174.0</ele>
    <name>Piroska kemping</name>
    <desc>addr:city=Bük; addr:housenumber=60; addr:postcode=9737;
    addr:street=Kossuth Lajos utca; contact:fax=+36 94 359 269;
    email=info@piroska.hu; name=Piroska kemping; phone=+36 94 558
    200; source=turistautak.hu; source:date=2013-07-30;
    tourism=camp_site; url=http://turistautak.hu/poi.php?id=15064;
    website=http://www.piroska.hu; id=node/3465143485</desc>
    <link href="http://www.piroska.hu"></link>
  </wpt>
  <wpt lat="47.3772256" lon="16.7837875">
    <ele>172.0</ele>
    <name>Thermál Gyógykemping</name>
    <desc>addr:city=Bük; addr:housenumber=2; addr:postcode=9740;
    addr:street=Termál körút; contact:fax=+36 94 558 359;
    email=camping@spabuk.hu; name=Thermál Gyógykemping; phone=+36
    94 558 356; source=turistautak.hu; source:date=2015-03-03;
    tourism=camp_site; url=http://turistautak.hu/poi.php?id=15066;
    website=https://www.bukfurdo.hu/; wheelchair=yes;
    id=node/3465143511</desc>
    <link href="https://www.bukfurdo.hu/"></link>
  </wpt>
  <wpt lat="48.106946" lon="22.824505">
    <ele>118.0</ele>
    <name>Albatrosz Kemping</name>
    <desc>addr:city=Tiszabecs; addr:housenumber=83;
    addr:postcode=4951; addr:street=Kis utca;
    email=info@csiposztura.hu; name=Albatrosz Kemping; phone=+36 44
    310 822,+36 30 976 9981; source=turistautak.hu;
    source:date=2013-04-21; tourism=camp_site;
    url=http://turistautak.hu/poi.php?id=15227;
    website=http://www.csiposztura.hu; id=node/3465156319</desc>
    <link href="http://www.csiposztura.hu"></link>
  </wpt>
  <wpt lat="48.105701" lon="22.825329">
    <ele>118.0</ele>
    <name>Dióliget Kemping</name>
    <desc>addr:city=Tiszabecs; addr:housenumber=53;
    addr:postcode=4951; addr:street=Kis utca; contact:fax=+36 44
    421 611; email=gentlemen@gentlementours.t-online.hu;
    name=Dióliget Kemping; phone=+36 44 378 282,+36 30 945 0194;
    source=turistautak.hu; source:date=2014-07-28;
    tourism=camp_site; url=http://turistautak.hu/poi.php?id=15228;
    website=http://www.gentlementours.hu; id=node/3465156333</desc>
    <link href="http://www.gentlementours.hu"></link>
  </wpt>
  <wpt lat="48.096333" lon="22.62235">
    <ele>112.0</ele>
    <name>Tiszapart ifjúsági szálló és kemping</name>
    <desc>description=Nyitvatartás: 05.01.-09.30. 70-387-2589
    70-387-2591; fixme=resurvey (source was old); name=Tiszapart
    ifjúsági szálló és kemping; source=turistautak.hu;
    source:date=2008-08-03; tourism=camp_site;
    url=http://turistautak.hu/poi.php?id=51300;
    id=node/3465156715</desc>
    <link href="http://turistautak.hu/poi.php?id=51300"></link>
  </wpt>
  <wpt lat="48.091583" lon="22.678917">
    <ele>115.0</ele>
    <name>Túr-Bukó Camping</name>
    <desc>name=Túr-Bukó Camping; source=turistautak.hu;
    source:date=2013-04-21; tourism=camp_site;
    url=http://turistautak.hu/poi.php?id=8596;
    id=node/3465156726</desc>
    <link href="http://turistautak.hu/poi.php?id=8596"></link>
  </wpt>
  <wpt lat="47.9653001" lon="22.8521864">
    <ele>116.0</ele>
    <name>Túr-Túra Kemping és Ifjúsági Tábor</name>
    <desc>addr:city=Nagyhódos; addr:housenumber=18;
    addr:postcode=4977; addr:street=Kertalja utca;
    contact:email=info@turturaszallas.hu;
    contact:facebook=https://www.facebook.com/turtura1;
    contact:instagram=https://www.instagram.com/turturakemping/;
    contact:mobile=+36 30 473 0818;
    contact:website=https://turturaszallas.hu/;
    contact:youtube=https://www.youtube.com/@turturakemping_nagyhodvizitura;
    name=Túr-Túra Kemping és Ifjúsági Tábor; source=osm notes;
    source:date=2024-03-17; tourism=camp_site;
    id=node/3465156727</desc>
    <link href="https://turturaszallas.hu/"></link>
  </wpt>
  <wpt lat="48.049983" lon="22.642917">
    <ele>110.0</ele>
    <name>Túr-Party Kemping</name>
    <desc>name=Túr-Party Kemping; source=turistautak.hu;
    source:date=2011-09-23; tourism=camp_site;
    url=http://turistautak.hu/poi.php?id=124090;
    id=node/3465156728</desc>
    <link href="http://turistautak.hu/poi.php?id=124090"></link>
  </wpt>
  <wpt lat="47.958275" lon="22.877159">
    <ele>120.0</ele>
    <name>Vadvízország tábor</name>
    <desc>name=Vadvízország tábor; source=turistautak.hu;
    source:date=2012-12-13; tourism=camp_site;
    url=http://turistautak.hu/poi.php?id=148531;
    id=node/3465156735</desc>
    <link href="http://turistautak.hu/poi.php?id=148531"></link>
  </wpt>
  <wpt lat="46.239248" lon="17.364006">
    <ele>127.0</ele>
    <name>Nagyatádi Castrum Termálkemping</name>
    <desc>addr:city=Nagyatád; addr:housenumber=75;
    addr:postcode=7500; addr:street=Zrínyi Miklós utca;
    caravans=yes; contact:fax=+36 83 314 422;
    email=nagyatad@castrum-gruo.hu; name=Nagyatádi Castrum
    Termálkemping; phone=+36 82 452 136; source=turistautak.hu;
    source:date=2013-08-15; tents=no; tourism=camp_site;
    url=http://turistautak.hu/poi.php?id=15173;
    website=http://www.castrum-group.hu; id=node/3465201703</desc>
    <link href="http://www.castrum-group.hu"></link>
  </wpt>
  <wpt lat="47.6239456" lon="16.8709312">
    <ele>124.0</ele>
    <name>Dori Hotel-Camping Restaurant</name>
    <desc>addr:city=Fertőd; addr:housenumber=1; addr:postcode=9431;
    addr:street=Pomogyi út; contact:fax=+36 99 370 838;
    email=info@dorihotel.hu; name=Dori Hotel-Camping Restaurant;
    phone=+36 99 370 838,+36 20 549 2403; source=turistautak.hu;
    source:date=2015-01-15; tourism=camp_site;
    url=http://turistautak.hu/poi.php?id=15097;
    website=http://www.dorihotel.hu; id=node/3466253183</desc>
    <link href="http://www.dorihotel.hu"></link>
  </wpt>
  <wpt lat="46.125533" lon="17.657883">
    <ele>157.0</ele>
    <name>Camping Farkas</name>
    <desc>name=Camping Farkas; phone=+36 70 573 5346;
    source=turistautak.hu; source:date=2013-08-28;
    tourism=camp_site; url=http://turistautak.hu/poi.php?id=158542;
    website=https://campingfarkas.nl/?page_id=80;
    id=node/3468119974</desc>
    <link href="https://campingfarkas.nl/?page_id=80"></link>
  </wpt>
  <wpt lat="46.1054499" lon="17.4354075">
    <ele>139.0</ele>
    <name>Thermal Camping</name>
    <desc>addr:postcode=7555; addr:street=Fürdő tér;
    contact:fax=+36 82 475 024; email=csokonya@t-online.hu;
    name=Thermal Camping; phone=+36 82 475 024;
    source=turistautak.hu; source:date=2012-10-14;
    tourism=camp_site; url=http://turistautak.hu/poi.php?id=15074;
    website=https://www.csokonyavisontafurdo.hu/;
    id=node/3468120051</desc>
    <link href="https://www.csokonyavisontafurdo.hu/"></link>
  </wpt>
  <wpt lat="48.116183" lon="21.41355">
    <ele>99.0</ele>
    <name>Kékcápák</name>
    <desc>addr:city=Tokaj; addr:housenumber=11; addr:postcode=3910;
    addr:street=Malom utca; email=info@turak.hu; name=Kékcápák;
    phone=+36 47 353 227,+36 30 214 3942; source=turistautak.hu;
    source:date=2011-05-08; tourism=camp_site;
    url=http://turistautak.hu/poi.php?id=15922;
    id=node/3469930490</desc>
    <link href="http://turistautak.hu/poi.php?id=15922"></link>
  </wpt>
  <wpt lat="46.713383" lon="17.311">
    <ele>107.0</ele>
    <name>Naturista Camping</name>
    <desc>addr:city=Balatonberény; addr:housenumber=2;
    addr:postcode=8649; addr:street=Hétvezér utca; contact:fax=+36
    85 377 715;
    contact:website=https://turizmus.balatonbereny.hu/strandok/naturista-strand;
    email=naturista@t-online.hu; name=Naturista Camping;
    nudism=obligatory; opening_hours=09:00-19:00; phone=+36 85 377
    715,+36 70 379 7901; source=turistautak.hu;
    source:date=2012-10-14; tourism=camp_site;
    url=http://turistautak.hu/poi.php?id=15038;
    id=node/3469977698</desc>
    <link href="https://turizmus.balatonbereny.hu/strandok/naturista-strand">
    </link>
  </wpt>
  <wpt lat="47.062867" lon="16.7456492">
    <ele>176.0</ele>
    <name>Táborhely</name>
    <desc>ele=176; name=Táborhely; source=turistautak.hu;
    source:date=2015-03-03; tourism=camp_site;
    url=http://turistautak.hu/poi.php?id=158875;
    id=node/3469987504</desc>
    <link href="http://turistautak.hu/poi.php?id=158875"></link>
  </wpt>
  <wpt lat="46.96385" lon="16.755449">
    <ele>175.0</ele>
    <name>node/3469987536</name>
    <desc>source=turistautak.hu; source:date=2012-01-20;
    tourism=camp_site; url=http://turistautak.hu/poi.php?id=57358;
    id=node/3469987536</desc>
    <link href="http://turistautak.hu/poi.php?id=57358"></link>
  </wpt>
  <wpt lat="48.0893507" lon="19.4746752">
    <ele>146.0</ele>
    <name>Robinson Szigetek Kemping</name>
    <desc>name=Robinson Szigetek Kemping; source=turistautak.hu;
    source:date=2014-10-15; tourism=camp_site;
    url=http://turistautak.hu/poi.php?id=170603;
    id=node/3469996004</desc>
    <link href="http://turistautak.hu/poi.php?id=170603"></link>
  </wpt>
  <wpt lat="46.83954" lon="17.099423">
    <ele>116.0</ele>
    <name>Veronika Camping</name>
    <desc>addr:city=Kehidakustány; addr:housenumber=44;
    addr:postcode=8784; addr:street=Kossuth Lajos utca;
    email=veronikahotel@t-online.hu; name=Veronika Camping;
    phone=+36 83 534 020,+36 20 324 8451; source=turistautak.hu;
    source:date=2011-09-19; tourism=camp_site;
    url=http://turistautak.hu/poi.php?id=18111;
    website=http://www.veronikawellnesshotel.hu;
    id=node/3470021804</desc>
    <link href="http://www.veronikawellnesshotel.hu"></link>
  </wpt>
  <wpt lat="46.755341" lon="18.99029">
    <ele>91.0</ele>
    <name>Kenutúra táborhely</name>
    <desc>name=Kenutúra táborhely; source=turistautak.hu;
    source:date=2013-12-03; tourism=camp_site;
    url=http://turistautak.hu/poi.php?id=163508;
    id=node/3470101924</desc>
    <link href="http://turistautak.hu/poi.php?id=163508"></link>
  </wpt>
  <wpt lat="48.24252" lon="21.904318">
    <ele>100.0</ele>
    <name>Liget camping</name>
    <desc>name=Liget camping; source=turistautak.hu;
    source:date=2013-04-29; tourism=camp_site;
    url=http://turistautak.hu/poi.php?id=48838;
    id=node/3471770326</desc>
    <link href="http://turistautak.hu/poi.php?id=48838"></link>
  </wpt>
  <wpt lat="47.748317" lon="18.02382">
    <ele>126.0</ele>
    <name>Fenyves Tábor</name>
    <desc>name=Fenyves Tábor; source=turistautak.hu;
    source:date=2015-01-30; tourism=camp_site;
    url=http://turistautak.hu/poi.php?id=54807;
    id=node/3471787653</desc>
    <link href="http://turistautak.hu/poi.php?id=54807"></link>
  </wpt>
  <wpt lat="47.723067" lon="18.0396">
    <ele>117.0</ele>
    <name>Natura Kemping</name>
    <desc>addr:city=Ács; addr:postcode=2941; addr:street=Országos
    1-es főút 93,5 km; name=Natura Kemping; phone=+36 30 946 7361;
    source=turistautak.hu; source:date=2015-01-30;
    tourism=camp_site; url=http://turistautak.hu/poi.php?id=15016;
    id=node/3471787675; ; id=way/508269084</desc>
    <link href="http://turistautak.hu/poi.php?id=15016"></link>
  </wpt>
  <wpt lat="47.6749299" lon="18.2057705">
    <ele>123.0</ele>
    <name>Oázis Szabadidőpark</name>
    <desc>addr:postcode=2911; addr:street=Kavicsbányatavak;
    name=Oázis Szabadidőpark; phone=+36 20 942 4894;
    source=turistautak.hu; source:date=2015-01-30;
    tourism=camp_site; url=http://turistautak.hu/poi.php?id=15171;
    id=node/3471787678</desc>
    <link href="http://turistautak.hu/poi.php?id=15171"></link>
  </wpt>
  <wpt lat="47.5999489" lon="19.2603232">
    <ele>231.0</ele>
    <name>Marcel Panzió- Pizzéria- Camping</name>
    <desc>addr:city=Mogyoród; addr:housenumber=5;
    addr:postcode=2146; addr:street=Sörfőző utca; contact:fax=+36
    28 540 646; email=marcelpanzio@vnet.hu; name=Marcel Panzió-
    Pizzéria- Camping; phone=+36 28 540 645,+36 70 210 8023;
    source=turistautak.hu; source:date=2011-05-16;
    tourism=camp_site; url=http://turistautak.hu/poi.php?id=15170;
    website=http://www.marcelpanzio.vnet.hu;
    id=node/3471889592</desc>
    <link href="http://www.marcelpanzio.vnet.hu"></link>
  </wpt>
  <wpt lat="47.348517" lon="16.741983">
    <ele>186.0</ele>
    <name>Vándortábor (faházak)</name>
    <desc>name=Vándortábor (faházak); source=turistautak.hu;
    source:date=2015-03-03; tourism=camp_site;
    url=http://turistautak.hu/poi.php?id=78166;
    id=node/3474961066</desc>
    <link href="http://turistautak.hu/poi.php?id=78166"></link>
  </wpt>
  <wpt lat="46.764575" lon="19.314782">
    <ele>100.0</ele>
    <name>Indián tábor</name>
    <desc>description=El Bronco lovasfarm; name=Indián tábor;
    source=turistautak.hu; source:date=2013-06-24;
    tourism=camp_site; url=http://turistautak.hu/poi.php?id=155451;
    id=node/3474965012</desc>
    <link href="http://turistautak.hu/poi.php?id=155451"></link>
  </wpt>
  <wpt lat="48.213187" lon="20.405733">
    <ele>237.0</ele>
    <name>Amedi Kemping</name>
    <desc>addr:city=Borsodbóta; addr:housenumber=181;
    addr:postcode=3658; addr:street=Rákóczi utca; contact:fax=+36
    48 438 468; email=info@campingamedi.hu; name=Amedi Kemping;
    phone=+36 48 438 468; source=turistautak.hu;
    source:date=2013-08-20; tourism=camp_site;
    url=http://turistautak.hu/poi.php?id=15058;
    website=http://www.campingamedi.hu; id=node/3484798414</desc>
    <link href="http://www.campingamedi.hu"></link>
  </wpt>
  <wpt lat="45.853222" lon="17.69825">
    <ele>100.0</ele>
    <name>Camping de Ommekeer</name>
    <desc>description=A terület saját felelősségre használható. A
    tulajdonosok nem felelősek az esetleges kárért, lopásért vagy
    balesetekért. Amennyiben nem tartózkodunk itt, hívj az alábbi
    telefonon: +36303775968; name=Camping de Ommekeer;
    source=turistautak.hu; source:date=2011-09-08;
    tourism=camp_site; url=http://turistautak.hu/poi.php?id=84581;
    id=node/3484805302</desc>
    <link href="http://turistautak.hu/poi.php?id=84581"></link>
  </wpt>
  <wpt lat="46.2390909" lon="16.9906963">
    <ele>124.0</ele>
    <name>Kék Tó Kemping</name>
    <desc>addr:city=Gyékényes; addr:housenumber=100;
    addr:postcode=8851; addr:street=Petőfi utca;
    email=kekto@send.hu; name=Kék Tó Kemping; phone=+36 30 227
    3289; source=turistautak.hu; source:date=2012-10-14;
    tourism=camp_site; url=http://turistautak.hu/poi.php?id=17890;
    website=http://www.kekto.uw.hu; id=node/3485076816</desc>
    <link href="http://www.kekto.uw.hu"></link>
  </wpt>
  <wpt lat="46.6995556" lon="21.268067">
    <ele>88.0</ele>
    <name>Doboz-Szanazugi Ifjúsági Központ</name>
    <desc>addr:postcode=5624; addr:street=Kőrösjobbpart 63.;
    contact:fax=+36 66 441 060; email=bmgyik@bekasmegye.hu;
    name=Doboz-Szanazugi Ifjúsági Központ; phone=+36 66 441 060,+36
    30 677 1720; source=turistautak.hu; source:date=2012-12-27;
    tourism=camp_site; url=http://turistautak.hu/poi.php?id=15076;
    website=http://www.nusz.hu; id=node/3485099555</desc>
    <link href="http://www.nusz.hu"></link>
  </wpt>
  <wpt lat="46.647142" lon="21.285632">
    <ele>87.0</ele>
    <name>Márk Camping</name>
    <desc>addr:city=Gyula; addr:housenumber=5; addr:postcode=5700;
    addr:street=Vár utca; description=Telefon: Márk Tivadarné;
    name=Márk Camping; phone=+36 66 463 380; source=turistautak.hu;
    source:date=2011-05-11; stars=3; tourism=camp_site;
    url=http://turistautak.hu/poi.php?id=16127;
    website=https://www.travelport.hu/szallas/EHotel.vd?ml=31&amp;mi=1&amp;xcnl9727&amp;lang=hu;
    id=node/3485100694</desc>
    <link href="https://www.travelport.hu/szallas/EHotel.vd?ml=31%26mi=1%26xcnl9727%26lang=hu">
    </link>
  </wpt>
  <wpt lat="46.674133" lon="21.293783">
    <ele>83.0</ele>
    <name>Remete-Farm Kemping</name>
    <desc>addr:city=Gyula; addr:housenumber=11; addr:postcode=5700;
    addr:street=Remete utca; description=Gyula és Sarkad közötti
    műútról az N 46° 40,426 E 21° 18,053 poziciónál kell letérni.;
    email=remete-farm@freemail.hu; name=Remete-Farm Kemping;
    phone=+36 20 978 9344; source=turistautak.hu;
    source:date=2012-08-01; tourism=camp_site;
    url=http://turistautak.hu/poi.php?id=15114;
    website=http://www.remetefarm.uw.hu; id=node/3485100704</desc>
    <link href="http://www.remetefarm.uw.hu"></link>
  </wpt>
  <wpt lat="46.404633" lon="18.169283">
    <ele>126.0</ele>
    <name>Gunarasi Castrum Gyógykemping</name>
    <desc>addr:city=Dombóvár; addr:housenumber=5;
    addr:postcode=7200; addr:street=Tó utca; contact:fax=+36 74 465
    523; name=Gunarasi Castrum Gyógykemping; phone=+36 74 465 523;
    source=turistautak.hu; source:date=2013-08-02;
    tourism=camp_site; url=http://turistautak.hu/poi.php?id=15081;
    website=http://www.castrum-group.hu; id=node/3485110198</desc>
    <link href="http://www.castrum-group.hu"></link>
  </wpt>
  <wpt lat="48.1155932" lon="21.4094334">
    <ele>102.0</ele>
    <name>Hegyalja Kemping</name>
    <desc>addr:city=Tokaj; addr:housenumber=2; addr:postcode=3910;
    addr:street=Hegyalja utca; name=Hegyalja Kemping; phone=+36 1
    513 4078,+36 20 923 8036; source=turistautak.hu;
    source:date=2011-05-03; tourism=camp_site;
    url=http://turistautak.hu/poi.php?id=15245;
    id=node/3485121898</desc>
    <link href="http://turistautak.hu/poi.php?id=15245"></link>
  </wpt>
  <wpt lat="48.114604" lon="21.419435">
    <ele>99.0</ele>
    <name>Tutajos kemping</name>
    <desc>name=Tutajos kemping; source=turistautak.hu;
    source:date=2012-01-12; toilets:wheelchair=limited;
    tourism=camp_site; url=http://turistautak.hu/poi.php?id=132009;
    wheelchair=yes; id=node/3485121935</desc>
    <link href="http://turistautak.hu/poi.php?id=132009"></link>
  </wpt>
  <wpt lat="47.2029982" lon="18.6130839">
    <ele>103.0</ele>
    <name>Brenner Gold Kemping</name>
    <desc>addr:city=Gárdony; addr:housenumber=17;
    addr:postcode=2484; addr:street=Üdülők útja; addr:suburb=Agárd;
    contact:facebook=https://www.facebook.com/Brenner-Gold-Kemping-472140942862159/;
    contact:fax=+36 22 579 188; email=brennergold@freemail.hu;
    internet_access:ssid=KEMPP free wifi; name=Brenner Gold
    Kemping; phone=+36 22 579 187,+36 70 547 8371;
    source=turistautak.hu; source:date=2011-06-29;
    tourism=camp_site; url=http://turistautak.hu/poi.php?id=15017;
    id=node/3485134520</desc>
    <link href="http://turistautak.hu/poi.php?id=15017"></link>
  </wpt>
  <wpt lat="47.199028" lon="18.611445">
    <ele>107.0</ele>
    <name>Nemeskócsag Kemping</name>
    <desc>addr:city=Gárdony; addr:housenumber=2;
    addr:postcode=2484; addr:street=Akácfa utca; addr:suburb=Agárd;
    contact:fax=+36 22 370 016; name=Nemeskócsag Kemping; phone=+36
    22 370 016; source=turistautak.hu; source:date=2011-06-29;
    tourism=camp_site; url=http://turistautak.hu/poi.php?id=17547;
    id=node/3485134552</desc>
    <link href="http://turistautak.hu/poi.php?id=17547"></link>
  </wpt>
  <wpt lat="47.1933" lon="18.593617">
    <ele>104.0</ele>
    <name>Pákász Tanya Kemping</name>
    <desc>addr:city=Gárdony; addr:housenumber=54;
    addr:postcode=2484; addr:street=Chernel István utca;
    addr:suburb=Agárd; contact:fax=+36 22 271 053;
    email=info@pakasz.hu; name=Pákász Tanya Kemping; phone=+36 22
    271 053,+36 20 965 7331; source=turistautak.hu;
    source:date=2011-06-29; tourism=camp_site;
    url=http://turistautak.hu/poi.php?id=15019;
    website=https://pakasz.hu/; id=node/3485134559</desc>
    <link href="https://pakasz.hu/"></link>
  </wpt>
  <wpt lat="47.201583" lon="18.609383">
    <ele>104.0</ele>
    <name>Tini Kemping</name>
    <desc>access=private; addr:postcode=2484; addr:street=Üdülők
    útja; addr:suburb=Agárd; contact:fax=+36 22 355 099;
    email=velencetours@invitel.hu; name=Tini Kemping; phone=+36 22
    355 075; source=turistautak.hu; source:date=2011-06-29;
    tourism=camp_site; url=http://turistautak.hu/poi.php?id=15022;
    id=node/3485134575</desc>
    <link href="http://turistautak.hu/poi.php?id=15022"></link>
  </wpt>
  <wpt lat="46.4322701" lon="19.4702329">
    <ele>121.0</ele>
    <name>Napfény Termál Kemping</name>
    <desc>addr:city=Kiskunhalas; addr:housenumber=1;
    addr:postcode=6400; addr:street=Nagy Szeder István utca;
    name=Napfény Termál Kemping; phone=+36 77 422 590;
    source=turistautak.hu; source:date=2011-06-24;
    tourism=camp_site; url=http://turistautak.hu/poi.php?id=15607;
    id=node/3487611717</desc>
    <link href="http://turistautak.hu/poi.php?id=15607"></link>
  </wpt>
  <wpt lat="46.375133" lon="19.400167">
    <ele>137.0</ele>
    <name>Tó Kemping</name>
    <desc>addr:city=Kunfehértó; addr:housenumber=26;
    addr:postcode=6413; addr:street=Tábor utca;
    addr:suburb=Üdülőterület; contact:fax=+36 77 507 131;
    description=Információt a camping gondnokságán a 30/635-25-83,
    30/689-98-06 mobil-telefonszámon kaphatnak.;
    email=kunfehertopk@emitel.hu; name=Tó Kemping; phone=+36 77 507
    100,+36 30 635 2583; source=turistautak.hu;
    source:date=2011-06-24; tourism=camp_site;
    url=http://turistautak.hu/poi.php?id=15156;
    website=https://kunfehertoinyar.hu/kemping/;
    id=node/3487611733</desc>
    <link href="https://kunfehertoinyar.hu/kemping/"></link>
  </wpt>
  <wpt lat="47.652096" lon="20.157614">
    <ele>106.0</ele>
    <name>Tarnamérai Strandfürdő-Kemping</name>
    <desc>addr:city=Tarnaméra; addr:housenumber=2/A;
    addr:postcode=3284; addr:street=Dobó István út;
    contact:email=tarnafurdo@gmail.com; contact:phone=+36 30 429
    3947; name=Tarnamérai Strandfürdő-Kemping;
    source=turistautak.hu; source:date=2008-12-02;
    tourism=camp_site; url=http://turistautak.hu/poi.php?id=15224;
    id=node/3487687975</desc>
    <link href="http://turistautak.hu/poi.php?id=15224"></link>
  </wpt>
  <wpt lat="47.320191" lon="17.0438">
    <ele>161.0</ele>
    <name>node/3487697765</name>
    <desc>source=turistautak.hu; source:date=2015-03-03;
    tourism=camp_site; url=http://turistautak.hu/poi.php?id=121064;
    id=node/3487697765</desc>
    <link href="http://turistautak.hu/poi.php?id=121064"></link>
  </wpt>
  <wpt lat="46.178909" lon="18.936789">
    <ele>86.0</ele>
    <name>Sátorhely vízitúrázóknak</name>
    <desc>name=Sátorhely vízitúrázóknak; source=turistautak.hu;
    source:date=2013-08-31; tourism=camp_site;
    url=http://turistautak.hu/poi.php?id=158631;
    id=node/3487703916</desc>
    <link href="http://turistautak.hu/poi.php?id=158631"></link>
  </wpt>
  <wpt lat="46.0882108" lon="18.7695669">
    <ele>86.0</ele>
    <name>Zöldpart Kemping</name>
    <desc>name=Zöldpart Kemping; source=turistautak.hu;
    source:date=2013-08-31; tourism=camp_site;
    url=http://turistautak.hu/poi.php?id=158643;
    id=node/3487703932</desc>
    <link href="http://turistautak.hu/poi.php?id=158643"></link>
  </wpt>
  <wpt lat="47.626683" lon="20.7493">
    <ele>89.0</ele>
    <name>Tiszafüred</name>
    <desc>addr:city=Tiszafüred; addr:housenumber=2;
    addr:postcode=5350; addr:street=Pankotay Jósa György utca;
    description=További információ, jelentkezés: Jordán Józsefné,
    5350 Tiszafüred, Húszöles út 133. Tel.: 59/353-339. E-mail:
    tiszafured@tourinform.hu . Weboldal: http://www.tiszafured.hu;
    phone=+36 59 353 339,+36 30 448 2880; source=turistautak.hu;
    source:date=2012-10-28; tourism=camp_site;
    url=http://turistautak.hu/poi.php?id=15236;
    id=node/3487710210</desc>
    <link href="http://turistautak.hu/poi.php?id=15236"></link>
  </wpt>
  <wpt lat="46.86205" lon="19.991667">
    <ele>89.0</ele>
    <name>Tőserdő Autóskemping</name>
    <desc>addr:city=Lakitelek; addr:housenumber=1;
    addr:postcode=6065; addr:street=Zalán utca;
    contact:email=idegenforgalom@lakitelek.hu; name=Tőserdő
    Autóskemping; name:en=Camp site for car tourists; phone=+36 76
    449 012,+36 70 4508742; source=turistautak.hu;
    source:date=2011-06-24; tourism=camp_site;
    url=http://turistautak.hu/poi.php?id=16720;
    id=node/3488383727</desc>
    <link href="http://turistautak.hu/poi.php?id=16720"></link>
  </wpt>
  <wpt lat="46.86435" lon="19.99619">
    <ele>87.0</ele>
    <name>node/3488383744</name>
    <desc>description=Nem autós; description:en=Not for car
    tourists; source=turistautak.hu; source:date=2011-06-24;
    tourism=camp_site; url=http://turistautak.hu/poi.php?id=74644;
    id=node/3488383744</desc>
    <link href="http://turistautak.hu/poi.php?id=74644"></link>
  </wpt>
  <wpt lat="46.9016334" lon="20.047186">
    <ele>85.0</ele>
    <name>Kerekdombi Kemping</name>
    <desc>addr:postcode=6060; addr:street=Kerekdomb 1.;
    contact:fax=+36 76 441 568; description=A termálfürdő bejárata:
    N46 54.155 E20 02.835; name=Kerekdombi Kemping; phone=+36 76
    441 568,+36 20 569 5974; source=turistautak.hu;
    source:date=2011-04-24; tourism=camp_site;
    url=http://turistautak.hu/poi.php?id=15240;
    id=node/3488383747</desc>
    <link href="http://turistautak.hu/poi.php?id=15240"></link>
  </wpt>
  <wpt lat="46.568976" lon="20.623491">
    <ele>87.0</ele>
    <name>Erdei Kemping</name>
    <desc>name=Erdei Kemping; source=turistautak.hu;
    source:date=2012-08-01; tourism=camp_site;
    url=http://turistautak.hu/poi.php?id=91861;
    id=node/3488445947</desc>
    <link href="http://turistautak.hu/poi.php?id=91861"></link>
  </wpt>
  <wpt lat="46.436608" lon="18.870667">
    <ele>89.0</ele>
    <name>Bungalows Kemping</name>
    <desc>addr:city=Fadd; addr:housenumber=5; addr:postcode=7133;
    addr:street=Nyírfa utca; name=Bungalows Kemping;
    source=turistautak.hu; source:date=2012-01-01;
    tourism=camp_site; url=http://turistautak.hu/poi.php?id=52897;
    id=node/3488458801; ; type=multipolygon;
    id=relation/17885380</desc>
    <link href="http://turistautak.hu/poi.php?id=52897"></link>
  </wpt>
  <wpt lat="46.6999789" lon="21.2667411">
    <ele>88.0</ele>
    <name>Nádas kemping</name>
    <desc>addr:postcode=5624; addr:street=Doboz-Szanazug Gyulai
    oldal; name=Nádas kemping; phone=+36 30 403 3651,+36 30 383
    3399; source=turistautak.hu; source:date=2012-12-27;
    tourism=camp_site; url=http://turistautak.hu/poi.php?id=16139;
    website=https://www.gyula.hu/index.php?apps=cikk&amp;cikk=1491&amp;r=28;
    id=node/3488479970</desc>
    <link href="https://www.gyula.hu/index.php?apps=cikk%26cikk=1491%26r=28">
    </link>
  </wpt>
  <wpt lat="48.013067" lon="21.169823">
    <ele>97.0</ele>
    <name>Horgásztábor</name>
    <desc>addr:city=Tiszadob; addr:housenumber=2-7;
    addr:postcode=4456; addr:street=Ady Endre utca; fixme=resurvey
    (source was old); name=Horgásztábor; phone=+36 42 722 921;
    source=turistautak.hu; source:date=2008-06-11;
    tourism=camp_site; url=http://turistautak.hu/poi.php?id=17888;
    id=node/3490651616</desc>
    <link href="http://turistautak.hu/poi.php?id=17888"></link>
  </wpt>
  <wpt lat="47.633652" lon="19.997512">
    <ele>97.0</ele>
    <name>Palóc Üdülő Camping</name>
    <desc>addr:city=Jászárokszállás; addr:housenumber=50;
    addr:postcode=5123; addr:street=Örsi út; contact:fax=+36 57 431
    775; email=gergely.zoltan@mail.jaszsag.hu; fixme=resurvey
    (source was old); name=Palóc Üdülő Camping; phone=+36 57 431
    128; source=turistautak.hu; source:date=2008-06-11;
    tourism=camp_site; url=http://turistautak.hu/poi.php?id=18536;
    id=node/3490658503</desc>
    <link href="http://turistautak.hu/poi.php?id=18536"></link>
  </wpt>
  <wpt lat="47.5806135" lon="20.1711112">
    <ele>99.0</ele>
    <name>Termálfürdő és Kemping</name>
    <desc>addr:city=Jászszentandrás; addr:housenumber=14;
    addr:postcode=5136; addr:street=Mártírok út; contact:fax=+36 57
    446 730; contact:phone=+36 57 446 025;
    contact:website=http://www.jaszszentandras-strand.hu/;
    name=Termálfürdő és Kemping; operator=Andrástermál Kft.;
    source=turistautak.hu; source:date=2008-06-11;
    tourism=camp_site; url=http://turistautak.hu/poi.php?id=15136;
    id=node/3490663519</desc>
    <link href="http://www.jaszszentandras-strand.hu/"></link>
  </wpt>
  <wpt lat="47.477783" lon="20.5882">
    <ele>87.0</ele>
    <name>Baráthy kemping</name>
    <desc>addr:city=Abádszalók; addr:housenumber=6;
    addr:postcode=5241; addr:street=József Attila körút;
    contact:fax=+36 53 355 818; name=Baráthy kemping; phone=+36 53
    552 306,+36 30 480 6184; source=turistautak.hu;
    source:date=2008-06-11; tourism=camp_site;
    url=http://turistautak.hu/poi.php?id=15014;
    id=node/3490698978</desc>
    <link href="http://turistautak.hu/poi.php?id=15014"></link>
  </wpt>
  <wpt lat="47.8324" lon="21.42078">
    <ele>96.0</ele>
    <name>Termál Kemping</name>
    <desc>addr:city=Hajdúnánás; addr:housenumber=7;
    addr:postcode=4080; addr:street=Fürdő utca;
    contact:email=hepszolg@nanaskabel.hu; contact:fax=+36 52 570
    723; contact:phone=+36 52 381 858,+36 30 626 8855,+36 52 381
    806; contact:website=http://www.nanasfurdo.hu; fixme=resurvey
    (source was old); name=Termál Kemping; name:de=Termalbad
    Kemping; source=turistautak.hu; source:date=2008-06-06;
    tourism=camp_site; id=node/3490706545</desc>
    <link href="http://www.nanasfurdo.hu"></link>
  </wpt>
  <wpt lat="48.316117" lon="22.244385">
    <ele>103.0</ele>
    <name>node/3490721368</name>
    <desc>source=turistautak.hu; source:date=2011-09-23;
    tourism=camp_site; url=http://turistautak.hu/poi.php?id=106836;
    id=node/3490721368</desc>
    <link href="http://turistautak.hu/poi.php?id=106836"></link>
  </wpt>
  <wpt lat="47.9748694" lon="21.9522188">
    <ele>116.0</ele>
    <name>Vándor Üdülőház és Kemping</name>
    <desc>addr:city=Levelek; addr:housenumber=60;
    addr:postcode=4555; addr:street=Vándor utca; name=Vándor
    Üdülőház és Kemping; source=turistautak.hu;
    source:date=2013-04-21; tourism=camp_site;
    url=http://turistautak.hu/poi.php?id=17489;
    id=node/3490733199</desc>
    <link href="http://turistautak.hu/poi.php?id=17489"></link>
  </wpt>
  <wpt lat="46.3505682" lon="20.0608045">
    <ele>83.0</ele>
    <name>Kemping Motel</name>
    <desc>addr:city=Szatymaz; addr:housenumber=130;
    addr:postcode=6763; addr:street=IV. körzet; name=Kemping Motel;
    phone=+36 62 283 116; source=turistautak.hu; tourism=camp_site;
    url=http://turistautak.hu/poi.php?id=17473;
    id=node/3586527985</desc>
    <link href="http://turistautak.hu/poi.php?id=17473"></link>
  </wpt>
  <wpt lat="46.2955562" lon="18.2024885">
    <ele>154.0</ele>
    <name>Camping Klok</name>
    <desc>addr:city=Ág; fee=yes; name=Camping Klok;
    operator=http://www.campingklok.nl/; tourism=camp_site;
    id=node/3634003091</desc>
  </wpt>
  <wpt lat="47.4907323" lon="20.6292327">
    <ele>87.0</ele>
    <name>Abádszalóki kemping</name>
    <desc>name=Abádszalóki kemping; tourism=camp_site;
    id=node/3662323880</desc>
  </wpt>
  <wpt lat="46.9530023" lon="17.607726">
    <ele>189.0</ele>
    <name>Kecske-kő sátorhely</name>
    <desc>addr:city=Kapolcs; addr:housenumber=59;
    addr:postcode=8294; addr:street=Dózsa György utca;
    name=Kecske-kő sátorhely; tourism=camp_site;
    id=node/3669178040</desc>
  </wpt>
  <wpt lat="47.9394956" lon="19.4551676">
    <ele>219.0</ele>
    <name>node/3687914688</name>
    <desc>phone=+36 20 977 5111; tourism=camp_site;
    id=node/3687914688</desc>
  </wpt>
  <wpt lat="47.9864578" lon="17.2689047">
    <ele>124.0</ele>
    <name>Ördög tavi sátorozóhely (vadkemping)</name>
    <desc>name=Ördög tavi sátorozóhely (vadkemping);
    tourism=camp_site; id=node/3736886432</desc>
  </wpt>
  <wpt lat="48.047288" lon="22.642352">
    <ele>113.0</ele>
    <name>Vízimalom Kemping</name>
    <desc>addr:city=Túristvándi; addr:housenumber=3;
    addr:postcode=4944; addr:street=Malom utca;
    email=szallas@turvizimalom.hu; name=Vízimalom Kemping;
    phone=+36 44 434 075,+36 30 289 9808; source=turistautak.hu;
    tourism=camp_site; url=http://turistautak.hu/poi.php?id=18113;
    website=https://www.turvizimalom.hu/; id=node/3873394958</desc>
    <link href="https://www.turvizimalom.hu/"></link>
  </wpt>
  <wpt lat="47.191442" lon="18.5886954">
    <ele>105.0</ele>
    <name>Pákász Kemping</name>
    <desc>name=Pákász Kemping; tourism=camp_site;
    id=node/3901571015</desc>
  </wpt>
  <wpt lat="46.1849338" lon="18.3182026">
    <ele>362.0</ele>
    <name>Zobáki Nomád Táborhely</name>
    <desc>name=Zobáki Nomád Táborhely; source=survey;
    tourism=camp_site; url=http://turistautak.hu/poi.php?id=22543;
    id=node/3962040267</desc>
    <link href="http://turistautak.hu/poi.php?id=22543"></link>
  </wpt>
  <wpt lat="46.5902887" lon="18.1038102">
    <ele>125.0</ele>
    <name>Koppany Pines Kemping</name>
    <desc>addr:city=Koppányszántó; addr:housenumber=334;
    addr:postcode=7094; addr:street=Dózsa György utca;
    capacity:pitches=25; caravans=yes; charge=5000 HUF;
    description=Intimate campsite &amp; Lodge in the Koppany Valley
    Nature Park - Free wifi, showers and outdoor kitchen, dog
    accepted. Guests rooms for 2/3 person.;
    email=office@hungariancountrycamping.com; fee=yes;
    motorhome=yes; name=Koppany Pines Kemping; operator=Hungarian
    Country Camping; shower=yes; tents=yes; toilets=yes;
    tourism=camp_site;
    website=https://www.hungariancountrycamping.com/;
    id=node/4002528403</desc>
    <link href="https://www.hungariancountrycamping.com/"></link>
  </wpt>
  <wpt lat="46.864182" lon="20.529415">
    <ele>80.0</ele>
    <name>Szarvasi Nemzetközi Zsidó Ifjúsági Tábor</name>
    <desc>addr:postcode=5540; addr:street=Erzsébet Liget;
    contact:email=info@szarvas.camp; contact:facebook=szarvascamp;
    contact:phone=+36 66 313 277;
    contact:website=https://www.szarvastabor.hu/; name=Szarvasi
    Nemzetközi Zsidó Ifjúsági Tábor; name:en=Szarvas International
    Jewish Youth Camp; operator=JDC Magyarország Alapítvány;
    source=turistautak.hu; tourism=camp_site;
    url=http://turistautak.hu/poi.php?id=17474; id=way/269570985; ;
    fixme=duplicated POI &amp; multipoly; name=Lauder-Joint
    Camping; phone=+36 66 313 277; id=node/4017893403</desc>
    <link href="https://www.szarvastabor.hu/"></link>
  </wpt>
  <wpt lat="47.0965276" lon="20.7496274">
    <ele>81.0</ele>
    <name>Termál Kemping (gyógy- és strandfürdő)</name>
    <desc>addr:city=Túrkeve; addr:housenumber=11;
    addr:postcode=5420; addr:street=Kuthen király utca;
    contact:fax=+36 56 631 313; description=Nyitva áprilistól
    októberig; description:de=Offen vom April bis Oktober;
    description:en=Open from April to October;
    email=termal@externet.hu; name=Termál Kemping (gyógy- és
    strandfürdő); phone=+36 56 362 608; source=turistautak.hu;
    tourism=camp_site; url=http://turistautak.hu/poi.php?id=15249;
    website=http://www.turkevetermal.hu; id=node/4020211963; ;
    name=Túrkeve Termál Kemping; opening_hours=Apr 01-Oct 31
    00:00-24:00; id=way/360536582</desc>
    <link href="http://www.turkevetermal.hu"></link>
  </wpt>
  <wpt lat="47.9495249" lon="17.3438141">
    <ele>122.0</ele>
    <name>Ifjúsági tábor és kemping</name>
    <desc>name=Ifjúsági tábor és kemping; tourism=camp_site;
    id=node/4021611396</desc>
  </wpt>
  <wpt lat="46.7505998" lon="17.3498717">
    <ele>106.0</ele>
    <name>Camping Carina</name>
    <desc>name=Camping Carina; tourism=camp_site;
    id=node/4083290875</desc>
  </wpt>
  <wpt lat="47.8718342" lon="17.4808937">
    <ele>116.0</ele>
    <name>Vadludak</name>
    <desc>name=Vadludak; tourism=camp_site;
    id=node/4245013118</desc>
  </wpt>
  <wpt lat="46.9111509" lon="17.8254319">
    <ele>105.0</ele>
    <name>Örvényes</name>
    <desc>name=Örvényes; phone=+36 20 332 5779; tourism=camp_site;
    id=node/4364809338</desc>
  </wpt>
  <wpt lat="46.4147073" lon="19.611339">
    <ele>127.0</ele>
    <name>SVR Camping Oázis Tanya</name>
    <desc>caravans=yes; drinking_water=yes; name=SVR Camping Oázis
    Tanya; power_supply=yes; sanitary_dump_station=no; shower=yes;
    tents=yes; toilets=yes; tourism=camp_site;
    id=node/4456191189</desc>
  </wpt>
  <wpt lat="47.2633594" lon="19.0656161">
    <ele>91.0</ele>
    <name>Kamionos-tó</name>
    <desc>name=Kamionos-tó; tourism=camp_site;
    id=node/4583554389</desc>
  </wpt>
  <wpt lat="48.0641015" lon="22.5162649">
    <ele>110.0</ele>
    <name>Katica kemping</name>
    <desc>name=Katica kemping; name:hu=Katica kemping;
    tourism=camp_site; id=node/4657172789</desc>
  </wpt>
  <wpt lat="47.3300381" lon="17.8224001">
    <ele>347.0</ele>
    <name>gombás-tehenes rét, vadkemping</name>
    <desc>backcountry=yes; internet_access=no; name=gombás-tehenes
    rét, vadkemping; operator=vadkemping; sanitary_dump_station=no;
    tourism=camp_site; id=node/4772578837</desc>
  </wpt>
  <wpt lat="47.7559944" lon="19.0806761">
    <ele>101.0</ele>
    <name>evezős táborhely</name>
    <desc>backcountry=yes; description:en=picnic_site;
    description:hu=evezős hagyományos sátorozóhely, "vadkemping";
    name=evezős táborhely; tourism=camp_site;
    id=node/4807631121</desc>
  </wpt>
  <wpt lat="46.9743143" lon="17.9387275">
    <ele>106.0</ele>
    <name>Csopaki Üdülőfalu és Kemping</name>
    <desc>addr:city=Csopak; addr:housenumber=9; addr:postcode=8229;
    addr:street=Sport utca; capacity=50; caravans=yes;
    contact:fax=+36 87 799 108; drinking_water=yes;
    email=udulofalu@csopak.hu; fee=yes; internet_access=wlan;
    internet_access:fee=yes; name=Csopaki Üdülőfalu és Kemping;
    operator=Csopak Község Önkormányzata; phone=+36 20 240 3894;
    power_supply=yes; shower=yes; tents=yes; tourism=camp_site;
    website=http://csopakiudulofalu.hu/; id=node/4833449771</desc>
    <link href="http://csopakiudulofalu.hu/"></link>
  </wpt>
  <wpt lat="48.1102577" lon="20.3898982">
    <ele>342.0</ele>
    <name>Route 66</name>
    <desc>name=Route 66; tourism=camp_site;
    id=node/4848250787</desc>
  </wpt>
  <wpt lat="46.7761863" lon="17.1733428">
    <ele>113.0</ele>
    <name>Fiesta</name>
    <desc>name=Fiesta; tourism=camp_site; id=node/4855189850</desc>
  </wpt>
  <wpt lat="47.2524632" lon="19.1013659">
    <ele>92.0</ele>
    <name>Tavirózsa Kemping strand</name>
    <desc>dog=yes; name=Tavirózsa Kemping strand; phone=+36 30 416
    6426; toilets=yes; tourism=camp_site;
    website=https://www.tavirozsakemping.hu/;
    id=node/4888141939</desc>
    <link href="https://www.tavirozsakemping.hu/"></link>
  </wpt>
  <wpt lat="46.9646727" lon="17.2914666">
    <ele>185.0</ele>
    <name>Kovakő Camp</name>
    <desc>contact:facebook=https://facebook.com/mogyorosdomb/;
    contact:phone=+36 20 417 6346; dog=yes; fixme=verify;
    name=Kovakő Camp; tourism=camp_site; id=node/4891954621</desc>
  </wpt>
  <wpt lat="47.7698419" lon="18.9440721">
    <ele>107.0</ele>
    <name>vadkemping sátrazóhely</name>
    <desc>backcountry=yes; name=vadkemping sátrazóhely;
    operator=vadkemping; sanitary_dump_station=no;
    tourism=camp_site; wheelchair=limited;
    id=node/4901080753</desc>
  </wpt>
  <wpt lat="48.0629338" lon="22.518558">
    <ele>115.0</ele>
    <name>Diós Kemping</name>
    <desc>addr:city=Tivadar; addr:postcode=4921;
    addr:street=Üdülőpart; name=Diós Kemping; tourism=camp_site;
    id=node/4952401713</desc>
  </wpt>
  <wpt lat="47.633515" lon="21.8302414">
    <ele>146.0</ele>
    <name>Fekete Farm</name>
    <desc>name=Fekete Farm; name:hu=Fekete Farm; tourism=camp_site;
    id=node/4957697221</desc>
  </wpt>
  <wpt lat="47.6940754" lon="17.7365512">
    <ele>114.0</ele>
    <name>node/4975996740</name>
    <desc>description=Rustplek fietsers; internet_access=no;
    tourism=camp_site; id=node/4975996740</desc>
  </wpt>
  <wpt lat="46.5876258" lon="18.877379">
    <ele>93.0</ele>
    <name>node/5062085835</name>
    <desc>tourism=camp_site; id=node/5062085835</desc>
  </wpt>
  <wpt lat="46.7975109" lon="18.960388">
    <ele>90.0</ele>
    <name>node/5062085836</name>
    <desc>tourism=camp_site; id=node/5062085836</desc>
  </wpt>
  <wpt lat="47.2741437" lon="19.3049379">
    <ele>114.0</ele>
    <name>Kelet-Európa Misszió</name>
    <desc>name=Kelet-Európa Misszió; tourism=camp_site;
    id=node/5090024899</desc>
  </wpt>
  <wpt lat="48.3447627" lon="21.6856001">
    <ele>98.0</ele>
    <name>Ágóc Kemping és vendégház</name>
    <desc>addr:city=Alsóberecki; addr:housenumber=16;
    addr:postcode=3985; addr:street=Rózsa utca;
    contact:email=agocvendeghaz@gmail.com; contact:phone=+36 20 967
    2830; internet_access=wlan; name=Ágóc Kemping és vendégház;
    tourism=camp_site; id=node/5631143333</desc>
  </wpt>