<?xml version="1.0" encoding="utf-8"?>
<gpx xmlns="http://www.topografix.com/GPX/1/1"
xmlns:xsi="http://www.w3.org/2001/XMLSchema-instance"
xsi:schemaLocation="http://www.topografix.com/GPX/1/1 http://www.topografix.com/GPX/1/1/gpx.xsd"
version="1.1" creator="togpx">
  <metadata>
    <copyright>
      <license>"osm3s": { "timestamp_osm_base":
      "2025-10-01T10:11:00Z", "timestamp_areas_base":
      "2025-10-01T03:35:03Z", "copyright": "The data included in
      this document is from www.openstreetmap.org. The data is made
      available under ODbL." } // SRTM: { Elevation data missing in
      OSM was added by the NASA Shuttle Radar Topography Mission as
      public release version, if available there. } // { Check for
      latest version of this file on:
      https://github.com/GpxFeed/campgrounds }</license>
    </copyright>
  </metadata>
  <wpt lat="52.6418315" lon="-8.3604395">
    <ele>79.0</ele>
    <name>Thomond Scout Centre</name>
    <desc>name=Thomond Scout Centre; scout=yes; tourism=camp_site;
    id=node/390361120</desc>
  </wpt>
  <wpt lat="52.9259055" lon="-8.2745508">
    <ele>32.0</ele>
    <name>node/494340809</name>
    <desc>tourism=camp_site; wheelchair=yes;
    id=node/494340809</desc>
  </wpt>
  <wpt lat="52.5923727" lon="-8.877656">
    <ele>59.0</ele>
    <name>Curraghchase caravan and camping</name>
    <desc>name=Curraghchase caravan and camping; tourism=camp_site;
    id=node/1070129382</desc>
  </wpt>
  <wpt lat="53.5391787" lon="-9.2710164">
    <ele>22.0</ele>
    <name>Cong Camping Caravan &amp; Glamping Park</name>
    <desc>addr:city=Cong; addr:housename=Cong Camping Caravan &amp;
    Glamping Park; addr:postcode=F31XD56; addr:street=Quay Road;
    name=Cong Camping Caravan &amp; Glamping Park;
    phone=+353-94-954-6089; tourism=camp_site;
    website=https://www.congcamping.com/; id=node/1122768718</desc>
    <link href="https://www.congcamping.com/"></link>
  </wpt>
  <wpt lat="51.7285462" lon="-8.5175172">
    <ele>33.0</ele>
    <name>Motofeirme</name>
    <desc>addr:city=Kinsale; addr:housename=Motofeirme;
    addr:street=Browns Mill; capacity=5;
    contact:facebook=https://www.facebook.com/motofeirme/;
    email=sfadvmoto@gmail.com; fee=no; name=Motofeirme;
    operator=Phil; reservation=recommended; tents=yes; toilets=yes;
    tourism=camp_site;
    website=https://motofeirme.com/camping-at-motofeirme/;
    id=node/3765508760</desc>
    <link href="https://motofeirme.com/camping-at-motofeirme/">
    </link>
  </wpt>
  <wpt lat="53.8204348" lon="-7.1233812">
    <ele>85.0</ele>
    <name>Lough Ramor Caravan &amp; Camping Park</name>
    <desc>email=hello@loughramorcamping.ie; name=Lough Ramor
    Caravan &amp; Camping Park; phone=+353 85 261 7098; tents=yes;
    toilets=yes; tourism=camp_site;
    website=http://loughramorcamping.ie; id=node/4245047741</desc>
    <link href="http://loughramorcamping.ie"></link>
  </wpt>
  <wpt lat="54.6218778" lon="-8.4528034">
    <ele>50.0</ele>
    <name>Killybegs Holiday Park</name>
    <desc>caravans=yes; email=info@killybegsholidaypark.ie;
    motorhome=yes; name=Killybegs Holiday Park; phone=+353 87 276
    9765; shower=yes; tents=yes; toilets=yes; tourism=camp_site;
    website=https://www.killybegsholidaypark.ie/;
    id=node/4304422089; ; camp_site=serviced;
    website=https://killybegsholidaypark.ie/;
    id=way/1422294873</desc>
    <link href="https://www.killybegsholidaypark.ie/"></link>
  </wpt>
  <wpt lat="53.0076945" lon="-7.3702902">
    <ele>107.0</ele>
    <name>Laois Caravan &amp; Camping Park</name>
    <desc>name=Laois Caravan &amp; Camping Park; phone=+353 85
    2060612; tourism=camp_site;
    website=www.laoiscaravanandcamping.com;
    id=node/4317962289</desc>
    <link href="www.laoiscaravanandcamping.com"></link>
  </wpt>
  <wpt lat="54.6355816" lon="-8.6266804">
    <ele>45.0</ele>
    <name>Derrylahan Hostel</name>
    <desc>caravans=yes; email=derrylahan@eircom.net;
    internet_access=wlan; name=Derrylahan Hostel; name:gd=Brú Doire
    Learhan; phone=+353-74-9738079; reservation=recommended;
    shower=yes; tents=yes; toilets=yes; tourism=camp_site;
    website=https://derrylahanhostel.ie/; wheelchair=yes;
    id=node/4349830898</desc>
    <link href="https://derrylahanhostel.ie/"></link>
  </wpt>
  <wpt lat="52.250589" lon="-6.7685402">
    <ele>12.0</ele>
    <name>Roches Campervan and Camping</name>
    <desc>addr:street=Clonmines, WellingtonbridgeWexford,&#160;Co.
    Wexford,&#160;Republic of Ireland,&#160;Y35 R9P9&#160;;
    caravans=yes; drinking_water=yes; name=Roches Campervan and
    Camping; name:en=Roches Campervan and Camping; name:nl=Roches
    Campervan campsite; power_supply=yes;
    sanitary_dump_station=yes; shower=yes; tents=yes; toilets=yes;
    tourism=camp_site; id=node/4377590698</desc>
  </wpt>
  <wpt lat="52.0261406" lon="-9.6970908">
    <ele>142.0</ele>
    <name>Cronin's Yard Camping</name>
    <desc>cabins=yes; caravans=no; name=Cronin's Yard Camping;
    name:en=Cronin's Yard Camping; shower=yes; tents=yes;
    toilets=yes; tourism=camp_site;
    website=https://croninsyard.com/; id=node/4888127226</desc>
    <link href="https://croninsyard.com/"></link>
  </wpt>
  <wpt lat="52.4017228" lon="-6.3615299">
    <ele>19.0</ele>
    <name>Curracloe Caravan and Camping Park</name>
    <desc>
    addr:street=BallineskerCurracloe,&#160;Enniscorthy,&#160;Co.
    Wexford,&#160;Ireland; cabins=yes; caravans=yes;
    email=camping.curracloe@gmail.com; mobile=+353 87 256 8534;
    motorhome=yes; name=Curracloe Caravan and Camping Park;
    phone=+353 53 913 7241; shower=yes; tents=yes; toilets=yes;
    tourism=camp_site;
    website=http://curracloeholidayvillas.ie/dir/;
    id=node/5132989422</desc>
    <link href="http://curracloeholidayvillas.ie/dir/"></link>
  </wpt>
  <wpt lat="51.9949472" lon="-9.8577334">
    <ele>87.0</ele>
    <name>Climbers Inn Camping</name>
    <desc>caravans=no; description=Camp spot - 15€/Tent, shower
    1€/5min (prices as of 13/06/2025); name=Climbers Inn Camping;
    shower=yes; tents=yes; toilets=yes; tourism=camp_site;
    website=https://www.climbersinn.com/; id=node/5876472175</desc>
    <link href="https://www.climbersinn.com/"></link>
  </wpt>
  <wpt lat="53.5347561" lon="-7.467352">
    <ele>97.0</ele>
    <name>node/6419117979</name>
    <desc>description=free, no sanitary facilities;
    tourism=camp_site; id=node/6419117979</desc>
  </wpt>
  <wpt lat="54.2088266" lon="-9.0954157">
    <ele>5.0</ele>
    <name>Quirky Nights Glamping Village</name>
    <desc>name=Quirky Nights Glamping Village; phone=+353 87 093
    5915; tourism=camp_site; website=http://www.quirkyglamping.ie;
    id=node/6576687320</desc>
    <link href="http://www.quirkyglamping.ie"></link>
  </wpt>
  <wpt lat="52.234408" lon="-10.1813799">
    <ele>7.0</ele>
    <name>O'Connor's Campsite</name>
    <desc>caravans=yes; description=Food, Accommodations and camp
    site at the water site.; fee=yes; name=O'Connor's Campsite;
    operator=O'Connors Guesthouse; shower=yes; static_caravans=no;
    tents=yes; toilets=yes; tourism=camp_site;
    website=https://www.oconnorskerry.com/;
    id=node/6830283306</desc>
    <link href="https://www.oconnorskerry.com/"></link>
  </wpt>
  <wpt lat="53.0994223" lon="-7.5057262">
    <ele>354.0</ele>
    <name>Coillte</name>
    <desc>access=permissive; backcountry=yes; fee=no;
    operator=Coillte; tents=yes; tourism=camp_site;
    id=node/7800611913</desc>
  </wpt>
  <wpt lat="53.5825319" lon="-7.6594887">
    <ele>67.0</ele>
    <name>node/9155883271</name>
    <desc>backcountry=yes; description=Free camping close to
    village; tourism=camp_site; id=node/9155883271</desc>
  </wpt>
  <wpt lat="53.5820096" lon="-7.5382528">
    <ele>71.0</ele>
    <name>Harbour Camping</name>
    <desc>access=yes; description=Clost to village with food &amp;
    pub; name=Harbour Camping; tourism=camp_site;
    id=node/9155883407</desc>
  </wpt>
  <wpt lat="51.914893" lon="-7.9178373">
    <ele>6.0</ele>
    <name>Clonvilla caravan site</name>
    <desc>name=Clonvilla caravan site; tourism=camp_site;
    id=node/9442440618</desc>
  </wpt>
  <wpt lat="51.6337171" lon="-9.602276">
    <ele>34.0</ele>
    <name>Goats Path Pod Park</name>
    <desc>addr:city=Glenlough West Bantry; addr:country=IE;
    cabins=yes; email=goatspathpods@gmail.com;
    internet_access=wlan; name=Goats Path Pod Park; phone=+353 86
    8570186; shower=yes; tents=yes; toilets=yes; tourism=camp_site;
    website=http://www.goatspathpods.ie/; id=node/9525134641</desc>
    <link href="http://www.goatspathpods.ie/"></link>
  </wpt>
  <wpt lat="51.6616781" lon="-8.7369084">
    <ele>65.0</ele>
    <name>West Cork Secret</name>
    <desc>email=info@westcorksecret.ie; fee=yes; group_only=yes;
    name=West Cork Secret; phone=+353 87 833 1206;
    tourism=camp_site; website=https://www.westcorksecret.ie/;
    id=node/9657964117</desc>
    <link href="https://www.westcorksecret.ie/"></link>
  </wpt>
  <wpt lat="52.5865102" lon="-8.886277">
    <ele>46.0</ele>
    <name>Curraghchase Scout Centre</name>
    <desc>access=private; name=Curraghchase Scout Centre;
    scout=yes; tourism=camp_site; id=node/9964956308</desc>
  </wpt>
  <wpt lat="52.796881" lon="-8.4424937">
    <ele>39.0</ele>
    <name>5th/22nd Killaloe Scout Group</name>
    <desc>addr:city=Killaloe, Co. Clare; addr:street=Clarisford
    Park; group_only=yes; name=5th/22nd Killaloe Scout Group;
    operator=Scouting Ireland; tourism=camp_site;
    id=node/10289524283</desc>
  </wpt>
  <wpt lat="52.4331576" lon="-6.9226571">
    <ele>20.0</ele>
    <name>Riverhollow Wild Camping</name>
    <desc>backcountry=yes;
    contact:facebook=https://www.facebook.com/riverhollowwildcamping;
    name=Riverhollow Wild Camping; tourism=camp_site;
    id=node/10912654355</desc>
  </wpt>
  <wpt lat="52.2169713" lon="-6.7803589">
    <ele>16.0</ele>
    <name>Bridge House Bannow Bay</name>
    <desc>capacity:caravans=1; capacity:tents=1; caravans=yes;
    email=britta.bos2@gmail.com; name=Bridge House Bannow Bay;
    phone=+353 87 311 0332; tents=yes; tourism=camp_site;
    id=node/11048259581</desc>
  </wpt>
  <wpt lat="54.3515931" lon="-8.6690223">
    <ele>2.0</ele>
    <name>node/11104493436</name>
    <desc>backcountry=yes; camp_site=basic; description=A very soft
    patch of grass in front of a swimmable beach. Great spot to
    camp.; informal=yes; tents=3; tourism=camp_site;
    id=node/11104493436</desc>
  </wpt>
  <wpt lat="53.0896056" lon="-6.3568983">
    <ele>447.0</ele>
    <name>Wild camping spot (legal)</name>
    <desc>name=Wild camping spot (legal); tourism=camp_site;
    id=node/11935230969</desc>
  </wpt>
  <wpt lat="53.0871989" lon="-8.9461928">
    <ele>19.0</ele>
    <name>Kitty's Camping</name>
    <desc>contact:email=kittysbooking@yahoo.ie; name=Kitty's
    Camping; phone=+353852827108; tourism=camp_site;
    website=https://kittyscamping.com; id=node/12023122543</desc>
    <link href="https://kittyscamping.com"></link>
  </wpt>
  <wpt lat="51.6932619" lon="-9.9537631">
    <ele>38.0</ele>
    <name>Eyeries Motorhome Park</name>
    <desc>caravans=yes;
    facebook=https://www.facebook.com/eyeriesmotorhomepark/;
    name=Eyeries Motorhome Park; tents=no; tourism=camp_site;
    id=node/12804678753</desc>
  </wpt>
  <wpt lat="52.2724219" lon="-7.5052039">
    <ele>131.0</ele>
    <name>Crottys Lake Wild Camping</name>
    <desc>email=kcullinane8@gmail.com; name=Crottys Lake Wild
    Camping; phone=00353851491114; tourism=camp_site;
    id=node/13037590401</desc>
  </wpt>
  <wpt lat="51.6392983" lon="-9.8282222">
    <ele>6.0</ele>
    <name>Wild Atlantic Glamping</name>
    <desc>name=Wild Atlantic Glamping; tourism=camp_site;
    website=https://www.wildatlanticglamping.ie/;
    id=node/13064083701</desc>
    <link href="https://www.wildatlanticglamping.ie/"></link>
  </wpt>
  <wpt lat="53.9979917" lon="-8.071311">
    <ele>81.0</ele>
    <name>Drumhierny Woodland Hideaway</name>
    <desc>cabins=yes; caravans=no; name=Drumhierny Woodland
    Hideaway; tents=no; tourism=camp_site;
    id=node/13105791534</desc>
  </wpt>
  <wpt lat="54.307569650000005" lon="-8.5705001213368">
    <ele>15.0</ele>
    <name>Rosses Point Caravan &amp; Camping Park</name>
    <desc>caravans=yes; drinking_water=yes; motor_vehicle=yes;
    motorhome=yes; name=Rosses Point Caravan &amp; Camping Park;
    power_supply=yes; tents=yes; tourism=camp_site;
    type=multipolygon;
    website=https://www.sligocaravanandcamping.ie/;
    id=relation/2387248</desc>
    <link href="https://www.sligocaravanandcamping.ie/"></link>
  </wpt>
  <wpt lat="54.271938399999996" lon="-8.605735723533769">
    <ele>6.0</ele>
    <name>Strandhill Caravan &amp; Camping Park</name>
    <desc>name=Strandhill Caravan &amp; Camping Park;
    tourism=camp_site; type=multipolygon;
    website=https://www.sligocaravanandcamping.ie/strandhill-park/;
    id=relation/2833893</desc>
    <link href="https://www.sligocaravanandcamping.ie/strandhill-park/">
    </link>
  </wpt>
  <wpt lat="54.0088533" lon="-10.020457308877841">
    <ele>12.0</ele>
    <name>Seal Caves</name>
    <desc>caravans=yes; name=Seal Caves; tourism=camp_site;
    type=multipolygon; id=relation/8186855</desc>
  </wpt>
  <wpt lat="53.016636500000004" lon="-9.377977937523365">
    <ele>15.0</ele>
    <name>Aille River Hostel Campsite</name>
    <desc>caravans=no; description=Facilities of Hostel also
    available to campsite customers; fridge=yes; kitchen=yes;
    motorhome=no; name=Aille River Hostel Campsite; shower=yes;
    tents=yes; toilets=yes; tourism=camp_site; type=multipolygon;
    website=http://www.ailleriverhosteldoolin.ie/;
    id=relation/10132294</desc>
    <link href="http://www.ailleriverhosteldoolin.ie/"></link>
  </wpt>
  <wpt lat="52.851897449999996" lon="-8.478777178505277">
    <ele>52.0</ele>
    <name>Killaloe Camping</name>
    <desc>name=Killaloe Camping; tourism=camp_site;
    type=multipolygon; website=https://www.killaloecamping.com/;
    id=relation/16137982</desc>
    <link href="https://www.killaloecamping.com/"></link>
  </wpt>
  <wpt lat="53.557975" lon="-9.384309482196361">
    <ele>18.0</ele>
    <name>relation/19443557</name>
    <desc>tourism=camp_site; type=multipolygon;
    id=relation/19443557</desc>
  </wpt>
  <wpt lat="52.9271177" lon="-8.418507745668649">
    <ele>38.0</ele>
    <name>Lakeside Holiday Park</name>
    <desc>addr:city=Mountshannon; area=yes; caravans=yes;
    email=lakesidecamping@gmail.com; fax=+353-61-927-336;
    name=Lakeside Holiday Park; phone=+353-61-927-225;
    tourism=camp_site; id=way/48012239</desc>
  </wpt>
  <wpt lat="52.150250400000004" lon="-7.000792396354884">
    <ele>62.0</ele>
    <name>Dunmore East Caravan Park</name>
    <desc>name=Dunmore East Caravan Park; tourism=camp_site;
    id=way/60708579</desc>
  </wpt>
  <wpt lat="53.44862795" lon="-7.8913519864545485">
    <ele>39.0</ele>
    <name>Lough Ree East Caravan and Camping</name>
    <desc>caravans=yes; fee=yes; motorhome=yes; name=Lough Ree East
    Caravan and Camping; power_supply=yes; shower=yes; tents=yes;
    toilets=yes; tourism=camp_site;
    website=https://loughreeeast.wixsite.com/loughreeeast/;
    id=way/62095362</desc>
    <link href="https://loughreeeast.wixsite.com/loughreeeast/">
    </link>
  </wpt>
  <wpt lat="52.5630203" lon="-7.194479193091019">
    <ele>56.0</ele>
    <name>Nore Valley Park</name>
    <desc>name=Nore Valley Park; source=approximated to surveyed
    roads; tourism=camp_site; id=way/63451528</desc>
  </wpt>
  <wpt lat="53.80662045" lon="-9.540183279756324">
    <ele>17.0</ele>
    <name>Westport House Camping Site</name>
    <desc>name=Westport House Camping Site; tourism=camp_site;
    wheelchair=yes; id=way/69910688</desc>
  </wpt>
  <wpt lat="52.37899405" lon="-7.840917420731442">
    <ele>92.0</ele>
    <name>The Apple Farm</name>
    <desc>caravans=yes; name=The Apple Farm; phone=+353 52 7441459;
    power_supply=yes; shower=yes; tents=yes; toilets=yes;
    tourism=camp_site; website=https://www.theapplefarm.com/;
    id=way/70794768</desc>
    <link href="https://www.theapplefarm.com/"></link>
  </wpt>
  <wpt lat="52.05902995" lon="-9.931528126789406">
    <ele>29.0</ele>
    <name>Glenross Caravan &amp; Camping Park</name>
    <desc>caravans=yes; drinking_water=yes; fee=yes;
    internet_access=wlan; internet_access:fee=no; name=Glenross
    Caravan &amp; Camping Park; power_supply=yes;
    sanitary_dump_station=yes; shower=yes; tents=yes; toilets=yes;
    tourism=camp_site; website=https://www.campingkerry.com/;
    id=way/75313819</desc>
    <link href="https://www.campingkerry.com/"></link>
  </wpt>
  <wpt lat="52.3315243" lon="-8.183543443057555">
    <ele>219.0</ele>
    <name>Kings Yard</name>
    <desc>addr:city=Kilbehenny; addr:country=IE;
    addr:county=Limerick; landuse=farmyard; name=Kings Yard;
    phone=+353-25-84903; tourism=camp_site;
    website=https://kingsyard.wordpress.com/;
    id=way/75588389</desc>
    <link href="https://kingsyard.wordpress.com/"></link>
  </wpt>
  <wpt lat="54.2092861" lon="-9.10162713141349">
    <ele>9.0</ele>
    <name>Atlantic Caravan Park</name>
    <desc>caravans=yes; chalets=yes; fax=+353-96-36980;
    name=Atlantic Caravan Park; phone=+353-96-36132; shower=yes;
    tents=yes; tourism=camp_site;
    website=https://www.atlanticcaravanpark.com/;
    id=way/87251630</desc>
    <link href="https://www.atlanticcaravanpark.com/"></link>
  </wpt>
  <wpt lat="52.345486199999996" lon="-6.452104542634411">
    <ele>5.0</ele>
    <name>Ferrybank Caravan &amp; Camping</name>
    <desc>addr:city=Wexford; addr:street=Ferrybank;
    email=info@ferrybankcaravanpark.ie; name=Ferrybank Caravan
    &amp; Camping; phone=+353 53 9185 256; tourism=camp_site;
    website=https://wexfordswimmingpool.ie/wexford-caravan-park-home/;
    id=way/87456820</desc>
    <link href="https://wexfordswimmingpool.ie/wexford-caravan-park-home/">
    </link>
  </wpt>
  <wpt lat="52.640023400000004" lon="-7.230399661715111">
    <ele>68.0</ele>
    <name>Tree Grove Caravan and Camping Park</name>
    <desc>alt_name=Kilkenny Camping; cabins=yes; capacity=30;
    caravans=yes; contact:email=info@kilkennycamping.com;
    contact:phone=+353 86 830 8845;
    contact:tripadvisor=https://www.tripadvisor.ie/Hotel_Review-g186616-d213216-Reviews-Tree_Grove_Camping_Park-Kilkenny_County_Kilkenny.html;
    drinking_water=yes; fee=yes; fixme=Update capacity count, more
    plots were added.; internet_access=wlan;
    internet_access:description=Located at shower block;
    internet_access:fee=no; internet_access:operator=Vodafone;
    internet_access:password=yes; motorhome=yes; name=Tree Grove
    Caravan and Camping Park; note:name=Tree Grove name is signed,
    while Kilkenny Camping name is used as the main name on
    website.; power_supply=yes; sanitary_dump_station=yes;
    shower=yes; stars=3; tents=yes; toilets=yes; tourism=camp_site;
    website=http://kilkennycamping.com/; id=way/153795121</desc>
    <link href="http://kilkennycamping.com/"></link>
  </wpt>
  <wpt lat="52.93766155" lon="-6.227581691550279">
    <ele>82.0</ele>
    <name>way/158111376</name>
    <desc>tourism=camp_site; id=way/158111376</desc>
  </wpt>
  <wpt lat="52.9380786" lon="-6.226084090242333">
    <ele>76.0</ele>
    <name>way/158111393</name>
    <desc>tourism=camp_site; id=way/158111393</desc>
  </wpt>
  <wpt lat="54.49650655" lon="-8.171880882744661">
    <ele>31.0</ele>
    <name>Lakeside Caravan &amp; Camping</name>
    <desc>caravans=yes; drinking_water=yes; internet_access=yes;
    name=Lakeside Caravan &amp; Camping; picnic_table=yes;
    shower=yes; source=ACSI; tents=yes; tourism=camp_site;
    washing_machine=yes;
    website=https://lakesidecaravanandcamping.com;
    id=way/177550795</desc>
    <link href="https://lakesidecaravanandcamping.com"></link>
  </wpt>
  <wpt lat="53.975414549999996" lon="-10.075868817468098">
    <ele>4.0</ele>
    <name>Keel Camping</name>
    <desc>access=yes; addr:city=County Mayo; addr:housename=Achill
    Island; addr:postcode=F28 EA47; barrier=fence;
    camp_site=serviced; caravans=yes; email=info@keelcamping.ie;
    fee=yes; internet_access=wlan; internet_access:fee=yes;
    name=Keel Camping; opening_hours=08:00-01:00; phone=+353 87
    2555689; stars=4; tents=yes; tourism=camp_site;
    website=https://keelcamping.ie; id=way/177977586</desc>
    <link href="https://keelcamping.ie"></link>
  </wpt>
  <wpt lat="52.9523253" lon="-6.016385594660788">
    <ele>41.0</ele>
    <name>Wolohan's Silver Strand</name>
    <desc>addr:city=Wicklow; addr:housename=Silver Strand;
    addr:street=Dunbur Upper;
    contact:facebook=https://www.facebook.com/Wolohans-Silver-Strand-Caravan-and-Camping-Park-196367127067657;
    name=Wolohan's Silver Strand; operator=John Wolohan; phone=+353
    404 69404; tourism=camp_site;
    website=https://www.silverstrand.ie/; id=way/178361481</desc>
    <link href="https://www.silverstrand.ie/"></link>
  </wpt>
  <wpt lat="52.14098385" lon="-8.281196340119958">
    <ele>32.0</ele>
    <name>Fermoy Camping</name>
    <desc>name=Fermoy Camping; stars=3; tourism=camp_site;
    id=way/181729436</desc>
  </wpt>
  <wpt lat="51.54157225" lon="-9.260048139274073">
    <ele>6.0</ele>
    <name>Hideaway Camping &amp; Caravan Park</name>
    <desc>addr:city=Skibbereen; addr:postcode=P81 EV78;
    addr:province=Co. Cork; capacity:pitches=60; caravans=yes;
    dog=yes; email=skibbereencamping@gmail.com; fee=yes;
    internet_access=wlan; motor_vehicle=yes; motorhome=yes;
    name=Hideaway Camping &amp; Caravan Park; nudism=no;
    opening_hours=Apr 27-Sep 18; phone=+353 28 22254,+353 87 410
    2603; power_supply=yes; stars=4; tents=yes; tourism=camp_site;
    washing_machine=yes;
    website=https://www.campingireland.ie/categories-search/the-hideaway-camping-caravan-park/;
    id=way/187424721</desc>
    <link href="https://www.campingireland.ie/categories-search/the-hideaway-camping-caravan-park/">
    </link>
  </wpt>
  <wpt lat="51.6535697" lon="-8.593754078945611">
    <ele>53.0</ele>
    <name>Garrettstown House Holiday Park</name>
    <desc>cabins=yes; caravans=yes; fee=yes; internet_access=wlan;
    internet_access:fee=no; kitchen=yes; motor_vehicle=yes;
    motorhome=yes; name=Garrettstown House Holiday Park; nudism=no;
    phone=+353 21 477 8156; power_supply=yes; source=Bing;
    tents=yes; tourism=camp_site;
    website=http://www.garrettstownhouse.com;
    wheelchair=designated; id=way/188748865</desc>
    <link href="http://www.garrettstownhouse.com"></link>
  </wpt>
  <wpt lat="53.38262385" lon="-9.954034614836218">
    <ele>18.0</ele>
    <name>Gurteen Bay Caravan Park</name>
    <desc>caravans=yes; fee=yes; internet_access=wlan; name=Gurteen
    Bay Caravan Park; phone=+353 95-35882; shower=yes; tents=yes;
    toilets=yes; toilets:wheelchair=no; tourism=camp_site;
    website=https://roundstonevillage.ie/caravan-park/;
    wheelchair=limited; id=way/188765461</desc>
    <link href="https://roundstonevillage.ie/caravan-park/"></link>
  </wpt>
  <wpt lat="53.30566305" lon="-6.4154109033260855">
    <ele>86.0</ele>
    <name>Camac Valley Tourist Caravan &amp; Camping Park</name>
    <desc>caravans=yes; email=info@camacvalley.com; fax=+353 1
    4640643; motorhome=yes; name=Camac Valley Tourist Caravan &amp;
    Camping Park; phone=+353 1 4640644; tents=yes;
    tourism=camp_site; website=https://www.camacvalley.com/;
    id=way/191892353</desc>
    <link href="https://www.camacvalley.com/"></link>
  </wpt>
  <wpt lat="52.4538251" lon="-6.4016762233778">
    <ele>48.0</ele>
    <name>way/198647208</name>
    <desc>tourism=camp_site; id=way/198647208</desc>
  </wpt>
  <wpt lat="52.18619375" lon="-7.849641112977134">
    <ele>195.0</ele>
    <name>way/199711032</name>
    <desc>tourism=camp_site; id=way/199711032</desc>
  </wpt>
  <wpt lat="52.1733531" lon="-10.356048825810173">
    <ele>13.0</ele>
    <name>Campail Teach an Aragail</name>
    <desc>caravans=yes; fee=yes; name=Campail Teach an Aragail;
    name:en=Oratory House Camping; shower=yes; tents=yes;
    tourism=camp_site; washing_machine=yes;
    website=https://www.dinglecamping.ie/; id=way/200626897</desc>
    <link href="https://www.dinglecamping.ie/"></link>
  </wpt>
  <wpt lat="52.05085365" lon="-9.943825062688298">
    <ele>33.0</ele>
    <name>Falveys Caravan &amp; Mobile Home Park</name>
    <desc>caravans=no; name=Falveys Caravan &amp; Mobile Home Park;
    static_caravans=yes; tents=no; tourism=camp_site;
    website=http://kerrycaravanpark.ie/; id=way/210010178</desc>
    <link href="http://kerrycaravanpark.ie/"></link>
  </wpt>
  <wpt lat="52.055634600000005" lon="-9.946019323504625">
    <ele>14.0</ele>
    <name>Connor's Caravan Park</name>
    <desc>caravans=no; name=Connor's Caravan Park;
    static_caravans=yes; tents=no; tourism=camp_site;
    id=way/210010179</desc>
  </wpt>
  <wpt lat="52.261167799999996" lon="-9.704973550236954">
    <ele>5.0</ele>
    <name>Woodlands Park</name>
    <desc>caravans=yes; dog=leashed; fee=yes; internet_access=wlan;
    internet_access:fee=no; name=Woodlands Park; power_supply=yes;
    shower=yes; tents=yes; toilets=yes; tourism=camp_site;
    website=https://kingdomcamping.com/; id=way/210012557</desc>
    <link href="https://kingdomcamping.com/"></link>
  </wpt>
  <wpt lat="52.5382993" lon="-8.791635335753234">
    <ele>20.0</ele>
    <name>Adare Camping and Caravan Site</name>
    <desc>caravans=yes;
    contact:email=dohertycampingadare@eircom.net;
    contact:phone=+353-61-395376; name=Adare Camping and Caravan
    Site; source=survey; tents=yes; tourism=camp_site;
    website=https://www.adarecamping.com/; id=way/210724357</desc>
    <link href="https://www.adarecamping.com/"></link>
  </wpt>
  <wpt lat="53.01657925" lon="-9.381095844794675">
    <ele>16.0</ele>
    <name>Riverside Camping</name>
    <desc>caravans=yes; drinking_water=yes; internet_access=wlan;
    name=Riverside Camping; power_supply=yes; shower=yes;
    tents=yes; toilets=yes; tourism=camp_site;
    website=https://www.campingdoolin.com/; id=way/213530713</desc>
    <link href="https://www.campingdoolin.com/"></link>
  </wpt>
  <wpt lat="52.070905350000004" lon="-9.58535799803045">
    <ele>49.0</ele>
    <name>Fossa Caravan &amp; Camping Park</name>
    <desc>caravans=yes; name=Fossa Caravan &amp; Camping Park;
    tents=yes; tourism=camp_site; id=way/217849537</desc>
  </wpt>
  <wpt lat="52.0436407" lon="-9.498859613203805">
    <ele>27.0</ele>
    <name>Flesk Camping</name>
    <desc>contact:phone=+353 (0)64 6631704;
    contact:website=https://www.killarneyfleskcamping.com/;
    name=Flesk Camping; stars=4; tourism=camp_site;
    id=way/217936675</desc>
    <link href="https://www.killarneyfleskcamping.com/"></link>
  </wpt>
  <wpt lat="52.383427749999996" lon="-6.376288977136865">
    <ele>19.0</ele>
    <name>https://ravenholidayhomepark.com/</name>
    <desc>access=customers; addr:postcode=Y21 NP29; charge=40;
    email=ravenmobilehomepark@hotmail.com; fee=yes; mobile=+353 86
    279 4502; operator=Raven Holiday Home Park;
    static_caravans=yes; tourism=camp_site;
    website=https://ravenholidayhomepark.com/;
    id=way/221095288</desc>
    <link href="https://ravenholidayhomepark.com/"></link>
  </wpt>
  <wpt lat="51.434923850000004" lon="-9.504494918540917">
    <ele>25.0</ele>
    <name>Chléire Haven</name>
    <desc>internet_access=no; name=Chléire Haven;
    tourism=camp_site; website=http://www.chleire-haven.com;
    id=way/224220821</desc>
    <link href="http://www.chleire-haven.com"></link>
  </wpt>
  <wpt lat="53.5236034" lon="-10.133945595409948">
    <ele>7.0</ele>
    <name>Clifden eco Beach Camping &amp; Caravanning Park</name>
    <desc>capacity:pitches=43; caravans=yes; dog=leashed;
    drinking_water=yes; email=info@clifdenecocamping.ie;
    internet_access=no; motor_vehicle=yes; motorhome=yes;
    name=Clifden eco Beach Camping &amp; Caravanning Park;
    nudism=no; opening_hours=Mar 15-Sep 30; phone=+353 95
    44036,+353 87 126 7687; power_supply=yes; shower=yes;
    smoking=yes; tents=yes; toilets=yes; tourism=camp_site;
    website=https://clifdenecocamping.ie/; wheelchair=no;
    id=way/228211853</desc>
    <link href="https://clifdenecocamping.ie/"></link>
  </wpt>
  <wpt lat="53.0169307" lon="-9.40103429063505">
    <ele>8.0</ele>
    <name>Nagle's Camping &amp; Caravan Park</name>
    <desc>caravans=yes; fee=yes; name=Nagle's Camping &amp; Caravan
    Park; power_supply=yes; shower=yes; tents=yes; toilets=yes;
    tourism=camp_site; website=https://www.doolincamping.com/;
    id=way/232717936</desc>
    <link href="https://www.doolincamping.com/"></link>
  </wpt>
  <wpt lat="53.0686799" lon="-6.2215927318863695">
    <ele>227.0</ele>
    <name>Roundwood Caravan &amp; Camping Park</name>
    <desc>fee=yes; name=Roundwood Caravan &amp; Camping Park;
    stars=4; tents=yes; tourism=camp_site;
    website=https://www.dublinwicklowcamping.com/;
    id=way/234901423</desc>
    <link href="https://www.dublinwicklowcamping.com/"></link>
  </wpt>
  <wpt lat="51.7184864" lon="-9.454511483288682">
    <ele>10.0</ele>
    <name>Eagle Point Camping</name>
    <desc>capacity:pitches=125; caravans=yes;
    email=info@eaglepointcamping.com; fee=yes;
    internet_access=wlan; internet_access:fee=no;
    motor_vehicle=yes; motorhome=yes; name=Eagle Point Camping;
    nudism=no; opening_hours=Apr 26-Sep 18; phone=+353 27 50630;
    power_supply=yes; stars=4; tents=yes; tourism=camp_site;
    website=https://www.eaglepointcamping.com;
    wheelchair=designated; id=way/235955518</desc>
    <link href="https://www.eaglepointcamping.com"></link>
  </wpt>
  <wpt lat="51.94281205" lon="-10.244009972151712">
    <ele>1.0</ele>
    <name>Mannix Point Camping and Caravan Park</name>
    <desc>caravans=yes; drinking_water=yes;
    email=mortimer@campinginkerry.com; internet_access=wlan;
    name=Mannix Point Camping and Caravan Park; phone=+353
    669472806; power_supply=yes; sanitary_dump_station=yes;
    shower=yes; tents=yes; toilets=yes; tourism=camp_site;
    website=https://www.campinginkerry.com/;
    id=way/237297189</desc>
    <link href="https://www.campinginkerry.com/"></link>
  </wpt>
  <wpt lat="52.415781100000004" lon="-8.21170230314107">
    <ele>105.0</ele>
    <name>Ballinacourty House Caravan And Camping Park</name>
    <desc>access=customers; addr:city=Lisvarrinane;
    addr:county=Tipperary; addr:housename=Ballinacourty House;
    addr:postcode=E34DF43; addr:street=Glen of Aherlow; area=yes;
    caravans=yes; contact:instagram=@ballinacourty_camping;
    ele=104.91; fee=yes; mobile=+353 87 3278573; motorhome=yes;
    name=Ballinacourty House Caravan And Camping Park; phone=+353
    62 56559; shower=yes; tents=yes; toilets=yes;
    tourism=camp_site; id=way/237324290</desc>
  </wpt>
  <wpt lat="51.63432435" lon="-8.801014558064473">
    <ele>63.0</ele>
    <name>Sextons Caravan and Camping Park</name>
    <desc>addr:county=Cork; email=info.sextons@gmail.com; fee=yes;
    internet_access=wlan; internet_access:fee=no; name=Sextons
    Caravan and Camping Park; phone=+353 23 884 6347;
    tourism=camp_site; website=http://www.sextonscamping.com;
    id=way/259136383</desc>
    <link href="http://www.sextonscamping.com"></link>
  </wpt>
  <wpt lat="54.1278589" lon="-7.364376723246782">
    <ele>61.0</ele>
    <name>way/262716593</name>
    <desc>scout=yes; tourism=camp_site; id=way/262716593</desc>
  </wpt>
  <wpt lat="52.724050399999996" lon="-8.494048676048424">
    <ele>29.0</ele>
    <name>Castleconnell Scout Campsite</name>
    <desc>designation=scouting; group_only=yes; name=Castleconnell
    Scout Campsite; operator=Scouting Ireland; scout=yes;
    source=Visited Area, use bling to trace; tourism=camp_site;
    website=http://www.castleconnellcampsite.com/;
    id=way/263717744</desc>
    <link href="http://www.castleconnellcampsite.com/"></link>
  </wpt>
  <wpt lat="52.61995605" lon="-9.639358037065485">
    <ele>10.0</ele>
    <name>Green Acres Caravan &amp; Camping Park</name>
    <desc>cabins=yes; capacity:pitches=40; caravans=yes; dog=no;
    drinking_water=yes; email=info@greenacrespark.com;
    internet_access=wlan; motor_vehicle=yes; motorhome=yes;
    name=Green Acres Caravan &amp; Camping Park; nudism=no;
    phone=+353 66 713 9158,+353 65 905 7011,+353 86 837 6004;
    power_supply=yes; stars=2; tents=yes; tourism=camp_site;
    washing_machine=yes; website=https://www.greenacrespark.com;
    id=way/280521077</desc>
    <link href="https://www.greenacrespark.com"></link>
  </wpt>
  <wpt lat="52.282537000000005" lon="-10.030044766102664">
    <ele>9.0</ele>
    <name>Sandy Bay 2 Caravan &amp; Camping Park</name>
    <desc>caravans=yes;
    contact:facebook=https://www.facebook.com/profile.php?id=61555109195319;
    motor_vehicle=yes; motorhome=yes; name=Sandy Bay 2 Caravan
    &amp; Camping Park; operator=Ann &amp; Joe; phone=+353 87 679
    1692,+353 87 056 3037; static_caravans=yes; tents=yes;
    tourism=camp_site; washing_machine=yes; id=way/284874163</desc>
  </wpt>
  <wpt lat="54.8094014" lon="-8.494189818778063">
    <ele>11.0</ele>
    <name>Tramore Beach Caravan and Camping Park</name>
    <desc>caravans=yes; fee=yes; internet_access=wlan; name=Tramore
    Beach Caravan and Camping Park; phone=+353 749551491;
    tents=yes; tourism=camp_site;
    website=http://tramorebeachrosbeg.com/; id=way/285192526</desc>
    <link href="http://tramorebeachrosbeg.com/"></link>
  </wpt>
  <wpt lat="54.1332614" lon="-9.15912516730515">
    <ele>29.0</ele>
    <name>Belleek Park Caravan and Camping</name>
    <desc>cabins=yes; capacity=58; caravans=yes; dog=yes;
    email=stay@belleekpark.com; internet_access=wlan;
    motor_vehicle=yes; motorhome=yes; name=Belleek Park Caravan and
    Camping; nudism=no; opening_hours=Mar 01-Oct 31; phone=+353 96
    71533,+353 96 71533; power_supply=yes; stars=4;
    static_caravans=yes; tents=yes; tourism=camp_site;
    website=https://belleekpark.com/; wheelchair=designated;
    id=way/285193125</desc>
    <link href="https://belleekpark.com/"></link>
  </wpt>
  <wpt lat="53.6052975" lon="-9.903204118974239">
    <ele>5.0</ele>
    <name>Connemara Caravan &amp; Camping Park</name>
    <desc>addr:street=Lettergesh, Gowlaun, Renvyle, Connemara, Co.
    Galway; description=Simple campsite; name=Connemara Caravan
    &amp; Camping Park; phone=+353 95 43406; tourism=camp_site;
    website=https://connemaracamping.com/; id=way/285200738</desc>
    <link href="https://connemaracamping.com/"></link>
  </wpt>
  <wpt lat="53.501814550000006" lon="-10.019290807206756">
    <ele>83.0</ele>
    <name>Clifden Campsite and Caravan Park</name>
    <desc>caravans=yes; dog=yes; drinking_water=yes; fee=yes;
    name=Clifden Campsite and Caravan Park; payment:cards=yes;
    phone=+353 95 22150; power_supply=yes;
    sanitary_dump_station=yes; shower=yes; tents=yes; toilets=yes;
    tourism=camp_site; website=https://clifdencamping.com/;
    id=way/285203601</desc>
    <link href="https://clifdencamping.com/"></link>
  </wpt>
  <wpt lat="53.5394116" lon="-9.272089180228708">
    <ele>20.0</ele>
    <name>Cong Caravan &amp; Camping Park</name>
    <desc>name=Cong Caravan &amp; Camping Park;
    phone=+353-94-954-6089; tourism=camp_site;
    website=http://www.quietman-cong.com/cong-caravan-and-camping-park/;
    id=way/285206417</desc>
    <link href="http://www.quietman-cong.com/cong-caravan-and-camping-park/">
    </link>
  </wpt>
  <wpt lat="53.57772105" lon="-8.067238570192679">
    <ele>39.0</ele>
    <name>Gailey Bay Caravan &amp; Camping Park</name>
    <desc>caravans=yes; internet_access=wlan;
    internet_access:fee=no; name=Gailey Bay Caravan &amp; Camping
    Park; tents=yes; tourism=camp_site; id=way/285206982</desc>
  </wpt>
  <wpt lat="52.946068249999996" lon="-9.065167284307556">
    <ele>23.0</ele>
    <name>Corofin Camping</name>
    <desc>fee=yes; name=Corofin Camping; opening_date=2021-04;
    opening_hours=off, "Untill April 2021"; phone=+353 86 839 8226;
    tourism=camp_site; website=http://corofincamping.com/;
    id=way/285208512</desc>
    <link href="http://corofincamping.com/"></link>
  </wpt>
  <wpt lat="52.4208496" lon="-8.18812273698684">
    <ele>95.0</ele>
    <name>Glen of Aherlow Caravan &amp; Camping Park</name>
    <desc>access=customers; addr:postcode=E34 NH58;
    camp_site=serviced; caravans=yes;
    email=rdrew@tipperarycamping.com; fee=yes;
    internet_access=wlan; name=Glen of Aherlow Caravan &amp;
    Camping Park; name:en=Glen of Aherlow Caravan &amp; Camping
    Park; phone=+353 62 56555; power_supply=yes;
    sanitary_dump_station=customers; tents=yes; tourism=camp_site;
    website=https://tipperarycamping.com/; id=way/285211877</desc>
    <link href="https://tipperarycamping.com/"></link>
  </wpt>
  <wpt lat="52.0713719" lon="-9.581943046370304">
    <ele>49.0</ele>
    <name>Beech Grove Camping &amp; Caravan Park</name>
    <desc>caravans=yes; contact:mobile=+353 87 9048123;
    contact:phone=+353 64 6671848; description=Closed; disused=yes;
    fee=yes; name=Beech Grove Camping &amp; Caravan Park;
    power_supply=yes; sanitary_dump_station=yes; shower=yes;
    source=Bing/GPS; source:name=sign at entrance; tents=yes;
    toilets=yes; tourism=camp_site; id=way/285213586</desc>
  </wpt>
  <wpt lat="52.055009150000004" lon="-9.47268808577082">
    <ele>37.0</ele>
    <name>Fleming's White Bridge Caravan and Camping Park</name>
    <desc>addr:city=Killarney; addr:postcode=V93 HW56;
    addr:street=Ballycasheen Road; caravans=yes; contact:phone=+353
    64 663 1590; drinking_water=yes; fee=yes; motorhome=yes;
    name=Fleming's White Bridge Caravan and Camping Park;
    power_supply=yes; sanitary_dump_station=yes; shower=yes;
    stars=4; static_caravans=yes; tents=yes; toilets=yes;
    tourism=camp_site; website=https://killarneycamping.com/;
    id=way/285216500</desc>
    <link href="https://killarneycamping.com/"></link>
  </wpt>
  <wpt lat="51.75544395" lon="-9.761338611747167">
    <ele>57.0</ele>
    <name>Creveen Lodge Caravan and Camping Park</name>
    <desc>addr:city=Lauragh; addr:province=Co Kerry;
    addr:street=Healy Pass Road; caravans=yes;
    email=info@creveenlodge.com; fee=yes; kitchen=yes;
    motor_vehicle=yes; motorhome=yes; name=Creveen Lodge Caravan
    and Camping Park; nudism=no; openfire=yes; operator=Michael
    &amp; Mary Moriarty; phone=+353 64 668 3131; power_supply=yes;
    sanitary_dump_station=yes; shower=yes; tents=yes; toilets=yes;
    tourism=camp_site; website=http://creveenlodge.com;
    id=way/285221581</desc>
    <link href="http://creveenlodge.com"></link>
  </wpt>
  <wpt lat="51.736063" lon="-9.562091556468554">
    <ele>16.0</ele>
    <name>Glengarriff Caravan and Camping Park</name>
    <desc>caravans=yes; internet_access=wlan;
    internet_access:fee=no; name=Glengarriff Caravan and Camping
    Park; shower=yes; stars=3; tents=yes; toilets=yes;
    tourism=camp_site; website=https://www.glengarriffcamping.com/;
    id=way/285225929</desc>
    <link href="https://www.glengarriffcamping.com/"></link>
  </wpt>
  <wpt lat="51.6231656" lon="-8.875179774683888">
    <ele>20.0</ele>
    <name>Desert House Caravan &amp; Camping Park</name>
    <desc>addr:city=Clonakilty; addr:postcode=P85 XE29;
    addr:province=Co. Cork; addr:street=Ring Road; caravans=yes;
    drinking_water=yes; email=deserthouse@eircom.net; kitchen=yes;
    motor_vehicle=yes; motorhome=yes; name=Desert House Caravan
    &amp; Camping Park; nudism=no; operator=The Jennings Family;
    phone=+353 86 267 9650; power_supply=yes;
    sanitary_dump_station=yes; shower=yes; stars=2; tents=yes;
    toilets=yes; tourism=camp_site;
    website=https://deserthousecamping.ie; id=way/285237454</desc>
    <link href="https://deserthousecamping.ie"></link>
  </wpt>
  <wpt lat="51.912224949999995" lon="-8.239972993740167">
    <ele>18.0</ele>
    <name>Jasmine Villa Caravan and Camping</name>
    <desc>camp_site=serviced; caravans=yes; fee=yes; name=Jasmine
    Villa Caravan and Camping; static_caravans=yes; tents=yes;
    tourism=camp_site; id=way/285247099</desc>
  </wpt>
  <wpt lat="52.5203759" lon="-7.896818294086787">
    <ele>94.0</ele>
    <name>O'Brien's Holiday Lodge and Campsite</name>
    <desc>caravans=yes; dog=leashed; motorhome=yes; name=O'Brien's
    Holiday Lodge and Campsite; tents=yes; tourism=camp_site;
    website=https://cashel-lodge.com/; id=way/286054728</desc>
    <link href="https://cashel-lodge.com/"></link>
  </wpt>
  <wpt lat="51.65387495" lon="-9.86190491525215">
    <ele>3.0</ele>
    <name>Berehaven Golf Club Camping</name>
    <desc>capacity:caravans=10; capacity:tents=10; caravans=yes;
    drinking_water=yes; fee=yes; internet_access=wlan;
    internet_access:fee=no; name=Berehaven Golf Club Camping;
    power_supply=yes; shower=yes; tents=yes; toilets=yes;
    tourism=camp_site; website=https://berehavengolf.com/caravans/;
    id=way/286066394</desc>
    <link href="https://berehavengolf.com/caravans/"></link>
  </wpt>
  <wpt lat="51.826970450000005" lon="-9.730394574424821">
    <ele>32.0</ele>
    <name>Beara Camping</name>
    <desc>cabins=yes; caravans=yes; internet_access=wlan;
    internet_access:fee=no; motor_vehicle=yes; motorhome=yes;
    name=Beara Camping; nudism=no; old_name=The Peacock Camping
    &amp; Hostel; opening_hours=Apr 15-Oct 15; phone=+353 64 668
    4287; shower=yes; tents=yes; toilets=yes; tourism=camp_site;
    washing_machine=yes; website=https://www.bearacamping.com;
    id=way/286067903</desc>
    <link href="https://www.bearacamping.com"></link>
  </wpt>
  <wpt lat="51.693674" lon="-9.72518567112332">
    <ele>14.0</ele>
    <name>Hungry Hill Lodge</name>
    <desc>cabins=yes; caravans=yes; drinking_water=yes;
    email=info@hungryhilllodgeandcampsite.com;
    internet_access=wlan; motor_vehicle=yes; motorhome=yes;
    name=Hungry Hill Lodge; nudism=no; phone=+353 83 119 6659;
    power_supply=yes; sanitary_dump_station=yes; shower=yes;
    tents=yes; toilets=yes; tourism=camp_site;
    website=https://www.hungryhilllodgeandcampsite.com;
    id=way/286070524</desc>
    <link href="https://www.hungryhilllodgeandcampsite.com"></link>
  </wpt>
  <wpt lat="51.7367381" lon="-9.559870805875004">
    <ele>12.0</ele>
    <name>O'Sheas Caravan &amp; Camping Park</name>
    <desc>caravans=yes; drinking_water=yes; motor_vehicle=yes;
    motorhome=yes; name=O'Sheas Caravan &amp; Camping Park;
    nudism=no; power_supply=yes; shower=yes; stars=2; tents=yes;
    tourism=camp_site; id=way/286481237</desc>
  </wpt>
  <wpt lat="53.252707900000004" lon="-6.282919327936887">
    <ele>228.0</ele>
    <name>Larch Hill International Scout &amp; Guide Centre</name>
    <desc>name=Larch Hill International Scout &amp; Guide Centre;
    scout=yes; tourism=camp_site;
    website=http://www.larchhill.org/; id=way/304190190</desc>
    <link href="http://www.larchhill.org/"></link>
  </wpt>
  <wpt lat="53.24721835" lon="-6.4839195384092285">
    <ele>300.0</ele>
    <name>Beckettsfield Cottage</name>
    <desc>name=Beckettsfield Cottage; scout=yes; tourism=camp_site;
    id=way/305271235</desc>
  </wpt>
  <wpt lat="51.56686515" lon="-9.096469058090968">
    <ele>104.0</ele>
    <name>The Meadow</name>
    <desc>capacity=19; caravans=yes; fee=yes; internet_access=wlan;
    name=The Meadow; phone=+353 28 33280; tents=yes;
    tourism=camp_site;
    website=https://www.campingireland.ie/categories-search/the-meadow-camping-park/;
    id=way/363393381</desc>
    <link href="https://www.campingireland.ie/categories-search/the-meadow-camping-park/">
    </link>
  </wpt>
  <wpt lat="52.6305105" lon="-9.597517510317019">
    <ele>20.0</ele>
    <name>Pure Camping</name>
    <desc>addr:city=Kilkee; addr:postcode=V15 F602; cabins=yes;
    capacity:motorhome=2; caravans=no; dog=leashed; motorhome=yes;
    name=Pure Camping; nudism=no; phone=+353 65 905 7953;
    reservation=recommended; tents=yes; tourism=camp_site;
    website=https://purecamping.ie/; id=way/367168763</desc>
    <link href="https://purecamping.ie/"></link>
  </wpt>
  <wpt lat="53.978085750000005" lon="-8.222481919094438">
    <ele>49.0</ele>
    <name>Lough Keel Scout center</name>
    <desc>name=Lough Keel Scout center; note=Rough layout of Scout
    Campsite; tourism=camp_site; id=way/377144184</desc>
  </wpt>
  <wpt lat="51.66882665" lon="-9.25967907695218">
    <ele>130.0</ele>
    <name>Top of the rock Camping, Pod park and walking
    Centre</name>
    <desc>capacity:motorhome=3; capacity:tents=7; caravans=no;
    motorhome=yes; name=Top of the rock Camping, Pod park and
    walking Centre; phone=+353 28 31 547; tents=yes;
    tourism=camp_site; website=https://www.topoftherock.ie;
    id=way/430415428</desc>
    <link href="https://www.topoftherock.ie"></link>
  </wpt>
  <wpt lat="51.88481125" lon="-7.869445306150615">
    <ele>24.0</ele>
    <name>Knockadoon Camp Grounds</name>
    <desc>area=yes; landuse=recreation_ground; name=Knockadoon Camp
    Grounds; tourism=camp_site; id=way/483697640</desc>
  </wpt>
  <wpt lat="53.039784999999995" lon="-8.731110463636359">
    <ele>63.0</ele>
    <name>Crann Og Eco Farm</name>
    <desc>name=Crann Og Eco Farm; note=This site is much more than
    a tourism=camp_site (see website), but that's the osm tag that
    seemed to fit best.; phone=+353 851453535; tourism=camp_site;
    website=https://ecostayireland.com/; id=way/516188303</desc>
    <link href="https://ecostayireland.com/"></link>
  </wpt>
  <wpt lat="52.2447015" lon="-6.380203648203338">
    <ele>18.0</ele>
    <name>International Outdoor Activity Centre</name>
    <desc>addr:city=Wexford; caravans=yes; fee=yes;
    name=International Outdoor Activity Centre;
    operator=International Outdoor Activity Centre;
    short_name=IOAC; source=survey, bing; tourism=camp_site;
    website=https://www.ioac.ie/;
    website:booking=https://ioac.bookinglayer.com/; wheelchair=yes;
    id=way/520011603</desc>
    <link href="https://www.ioac.ie/"></link>
  </wpt>
  <wpt lat="52.14337455" lon="-9.980561422485067">
    <ele>27.0</ele>
    <name>Inch Beach Campsite</name>
    <desc>capacity:pitches=60; caravans=yes; dog=yes;
    drinking_water=yes; internet_access=wlan;
    internet_access:fee=no; motor_vehicle=yes; motorhome=yes;
    name=Inch Beach Campsite; nudism=no; operator=Mahmood, Iris and
    Family; phone=+353 66 915 8900; power_supply=yes;
    sanitary_dump_station=yes; tents=yes; tourism=camp_site;
    washing_machine=yes;
    website=https://www.inchbeach.com/campsite;
    id=way/661120475</desc>
    <link href="https://www.inchbeach.com/campsite"></link>
  </wpt>
  <wpt lat="52.914766900000004" lon="-9.004820993159436">
    <ele>18.0</ele>
    <name>Ruan Scout Camp</name>
    <desc>name=Ruan Scout Camp; scout=yes; tourism=camp_site;
    id=way/685109759</desc>
  </wpt>
  <wpt lat="52.8486027" lon="-6.544200539476023">
    <ele>172.0</ele>
    <name>Raven's Rest</name>
    <desc>name=Raven's Rest; tourism=camp_site;
    website=http://ravensrest.ie; id=way/689346426</desc>
    <link href="http://ravensrest.ie"></link>
  </wpt>
  <wpt lat="52.6456991" lon="-6.230600850595177">
    <ele>16.0</ele>
    <name>way/700651602</name>
    <desc>tourism=camp_site; id=way/700651602</desc>
  </wpt>
  <wpt lat="51.74290245" lon="-9.617842682305593">
    <ele>72.0</ele>
    <name>Coomarkane Visitor Centre</name>
    <desc>name=Coomarkane Visitor Centre; phone=+353 027 63826;
    tourism=camp_site;
    website=https://www.coomarkanevisitorcentre.com/;
    id=way/706445292</desc>
    <link href="https://www.coomarkanevisitorcentre.com/"></link>
  </wpt>
  <wpt lat="55.191235500000005" lon="-7.04610173900483">
    <ele>16.0</ele>
    <name>Moville Boutique Hostel Campground</name>
    <desc>name=Moville Boutique Hostel Campground;
    tourism=camp_site;
    website=https://www.movilleboutiquehostel.com/;
    id=way/723846821</desc>
    <link href="https://www.movilleboutiquehostel.com/"></link>
  </wpt>
  <wpt lat="53.01262255" lon="-6.2948143604357245">
    <ele>191.0</ele>
    <name>Glendalough Glamping</name>
    <desc>name=Glendalough Glamping; tourism=camp_site;
    website=https://glendaloughglamping.ie/;
    id=way/767592853</desc>
    <link href="https://glendaloughglamping.ie/"></link>
  </wpt>
  <wpt lat="52.263965" lon="-7.620237641733354">
    <ele>187.0</ele>
    <name>Nire Valley Glamping</name>
    <desc>addr:postcode=E91 D427; name=Nire Valley Glamping;
    tourism=camp_site; id=way/816583455</desc>
  </wpt>
  <wpt lat="53.1251833" lon="-9.66216056848659">
    <ele>2.0</ele>
    <name>Aran Islands Camping &amp; Glamping</name>
    <desc>email=info@irelandglamping.ie; name=Aran Islands Camping
    &amp; Glamping; phone=+353 86 189 5823; tents=yes;
    tourism=camp_site; website=https://www.irelandglamping.ie/;
    id=way/853848299</desc>
    <link href="https://www.irelandglamping.ie/"></link>
  </wpt>
  <wpt lat="54.15760805" lon="-7.94485080063571">
    <ele>278.0</ele>
    <name>way/895458308</name>
    <desc>tourism=camp_site; id=way/895458308</desc>
  </wpt>
  <wpt lat="51.90106915" lon="-8.34223759423562">
    <ele>25.0</ele>
    <name>way/907021059</name>
    <desc>group_only=yes; tourism=camp_site;
    id=way/907021059</desc>
  </wpt>
  <wpt lat="51.9302641" lon="-8.389689697544881">
    <ele>22.0</ele>
    <name>way/910011005</name>
    <desc>tourism=camp_site; id=way/910011005</desc>
  </wpt>
  <wpt lat="52.0100852" lon="-8.343136634088626">
    <ele>188.0</ele>
    <name>way/910075394</name>
    <desc>tourism=camp_site; id=way/910075394</desc>
  </wpt>
  <wpt lat="55.03048105" lon="-8.270716112608579">
    <ele>26.0</ele>
    <name>Sleepy Hollow</name>
    <desc>drinking_water=yes; email=sleepyhollows@eircom.net;
    mobile=+353 85 252 3126; name=Sleepy Hollow; phone=+353 74 954
    8272; shower=yes; toilets=yes; tourism=camp_site;
    website=http://homepage.eircom.net/~sleepyhollows/index.htm;
    id=way/955277017</desc>
    <link href="http://homepage.eircom.net/~sleepyhollows/index.htm">
    </link>
  </wpt>
  <wpt lat="55.1671238" lon="-8.004422489767382">
    <ele>9.0</ele>
    <name>Corcreggan Mill</name>
    <desc>internet_access=wlan; name=Corcreggan Mill;
    tourism=camp_site; id=way/960056548</desc>
  </wpt>
  <wpt lat="53.19099385" lon="-6.281499981017339">
    <ele>246.0</ele>
    <name>way/968564476</name>
    <desc>access=private; tourism=camp_site;
    id=way/968564476</desc>
  </wpt>
  <wpt lat="54.6350037" lon="-8.646279733691319">
    <ele>38.0</ele>
    <name>Sliabh Liag Camping</name>
    <desc>addr:city=Teelin; addr:housename=Wild Atlantic Way
    (157.76 km) F94; fee=yes; name=Sliabh Liag Camping; phone=+353
    85 279 5953; tourism=camp_site; id=way/970124671</desc>
  </wpt>
  <wpt lat="51.63414075" lon="-10.063443088810816">
    <ele>11.0</ele>
    <name>Allihies Camping</name>
    <desc>caravans=yes;
    contact:facebook=https://www.facebook.com/allihiesstrand/;
    dog=yes; email=anthonybattos@gmail.com; fee=yes;
    motor_vehicle=yes; motorhome=yes; name=Allihies Camping;
    nudism=no; opening_hours=24/7; phone=+353 86 812 1582;
    static_caravans=no; tents=yes; tourism=camp_site;
    washing_machine=yes; wheelchair=designated;
    id=way/972565049</desc>
  </wpt>
  <wpt lat="53.0514994" lon="-6.277783278028848">
    <ele>264.0</ele>
    <name>Wicklow Way Camping</name>
    <desc>capacity:tents=10; caravans=no; internet_access=wlan;
    name=Wicklow Way Camping; shower=hot; tents=yes; toilets=yes;
    tourism=camp_site; website=https://www.wicklowwaycamping.com/;
    id=way/973238049</desc>
    <link href="https://www.wicklowwaycamping.com/"></link>
  </wpt>
  <wpt lat="52.5385366" lon="-6.957758582552723">
    <ele>21.0</ele>
    <name>way/973323256</name>
    <desc>caravans=yes; tents=no; tourism=camp_site;
    id=way/973323256</desc>
  </wpt>
  <wpt lat="53.87581204999999" lon="-9.17028618854766">
    <ele>25.0</ele>
    <name>Mayo Glamping</name>
    <desc>capacity=0; name=Mayo Glamping; tourism=camp_site;
    id=way/975191290</desc>
  </wpt>
  <wpt lat="53.060127550000004" lon="-6.275215998661022">
    <ele>210.0</ele>
    <name>Lough Dan Scout Centre</name>
    <desc>name=Lough Dan Scout Centre; operator=Scouting Ireland;
    scout=yes; tourism=camp_site; wikipedia=en:Scouts (Scouting
    Ireland); id=way/1056935033</desc>
  </wpt>
  <wpt lat="55.27611775" lon="-7.428964991105569">
    <ele>2.0</ele>
    <name>Binnion Bay Caravan &amp; Camping Facility</name>
    <desc>name=Binnion Bay Caravan &amp; Camping Facility;
    tourism=camp_site;
    website=https://caravanandcampingireland.ie/;
    id=way/1057024796</desc>
    <link href="https://caravanandcampingireland.ie/"></link>
  </wpt>
  <wpt lat="52.506174200000004" lon="-7.129561960259304">
    <ele>87.0</ele>
    <name>Butterfly Valley Glamping</name>
    <desc>fee=yes; name=Butterfly Valley Glamping;
    tourism=camp_site; website=https://butterflyvalleyglamping.ie;
    id=way/1062964151</desc>
    <link href="https://butterflyvalleyglamping.ie"></link>
  </wpt>
  <wpt lat="51.578942999999995" lon="-8.904419623154023">
    <ele>106.0</ele>
    <name>Mountain Forge Escape</name>
    <desc>capacity:caravans=16; capacity:tents=30; caravans=yes;
    fee=yes; internet_access=wlan; name=Mountain Forge Escape;
    shower=yes; tents=yes; toilets=yes; tourism=camp_site;
    website=https://www.mountainescape.ie/;
    id=way/1077376360</desc>
    <link href="https://www.mountainescape.ie/"></link>
  </wpt>
  <wpt lat="54.16651055" lon="-8.062365315197713">
    <ele>64.0</ele>
    <name>way/1082088675</name>
    <desc>tourism=camp_site; id=way/1082088675</desc>
  </wpt>
  <wpt lat="51.9368981" lon="-8.473978104657174">
    <ele>94.0</ele>
    <name>Kilcully Scout Campsite</name>
    <desc>access=private; amenity=community_centre;
    community_centre=club_home; community_centre:for=scout;
    name=Kilcully Scout Campsite; scout=yes; start_date=1970;
    tourism=camp_site; website=https://kilcully.com/;
    id=way/1115843113</desc>
    <link href="https://kilcully.com/"></link>
  </wpt>
  <wpt lat="53.906947599999995" lon="-6.798181429594352">
    <ele>88.0</ele>
    <name>way/1180776503</name>
    <desc>group_only=yes; tourism=camp_site;
    id=way/1180776503</desc>
  </wpt>
  <wpt lat="52.66367135" lon="-6.985264864782421">
    <ele>32.0</ele>
    <name>Slí Dhubh picnic and wild camping area</name>
    <desc>backcountry=yes; name=Slí Dhubh picnic and wild camping
    area; tourism=camp_site; id=way/1188426251</desc>
  </wpt>
  <wpt lat="51.9225943" lon="-10.2970876271009">
    <ele>27.0</ele>
    <name>Valentia Island Caravan &amp; Camping</name>
    <desc>caravans=yes; name=Valentia Island Caravan &amp; Camping;
    operator=John &amp; Emma Shanahan; phone=+353 87 967 3673;
    shower=yes; tents=yes; toilets=yes; tourism=camp_site;
    website=https://valentiaislandcamping.com/;
    id=way/1193082991</desc>
    <link href="https://valentiaislandcamping.com/"></link>
  </wpt>
  <wpt lat="51.4965765" lon="-9.703352647459429">
    <ele>14.0</ele>
    <name>Goleen Harbour</name>
    <desc>cabins=yes; capacity:motorhome=4; capacity:tents=10;
    caravans=no; kitchen=yes; motorhome=yes; name=Goleen Harbour;
    nudism=no; operator=Matt &amp; Melanie; power_supply=yes;
    tents=yes; tourism=camp_site; website=https://goleenharbour.ie;
    id=way/1200759445</desc>
    <link href="https://goleenharbour.ie"></link>
  </wpt>
  <wpt lat="51.5964865" lon="-9.570501555775856">
    <ele>30.0</ele>
    <name>Dunbeacon Camping and Glamping</name>
    <desc>addr:city=Durrus; addr:district=Co. Cork;
    addr:postcode=P75 NN88; addr:street=Dunbeacon; cabins=yes;
    camp_site=deluxe; caravans=yes;
    email=bookings@dunbeaconcampsite.ie; kitchen=yes; mobile=+353
    87 650 6059; motor_vehicle=yes; motorhome=yes; name=Dunbeacon
    Camping and Glamping; nudism=no; tents=yes; tourism=camp_site;
    washing_machine=yes; website=https://dunbeaconcampsite.ie/;
    id=way/1201053791</desc>
    <link href="https://dunbeaconcampsite.ie/"></link>
  </wpt>
  <wpt lat="52.62851515" lon="-9.196577699147443">
    <ele>47.0</ele>
    <name>Shannon Estuary Glamping</name>
    <desc>cabins=yes; capacity:motorhome=2; capacity:tents=10;
    caravans=no; kitchen=yes; motorhome=yes; name=Shannon Estuary
    Glamping; nudism=no; opening_hours=Apr 1-Oct 31;
    operator=Frank; phone=+353 86 136 7603; tents=yes;
    tourism=camp_site; website=https://shannonestuaryglamping.com;
    wheelchair=designated; id=way/1204036189</desc>
    <link href="https://shannonestuaryglamping.com"></link>
  </wpt>
  <wpt lat="52.8513025" lon="-9.40157798447058">
    <ele>47.0</ele>
    <name>Eco Camping Glamping</name>
    <desc>addr:city=Miltown Malbay; addr:province=Clare;
    caravans=yes; dog=yes; email=ecohomesandgardens@gmail.com;
    fee=yes; motor_vehicle=yes; motorhome=yes; name=Eco Camping
    Glamping; nudism=no; operator=Micheál Ó'Loingsigh; phone=+353
    87 721 0922; power_supply=yes; tents=yes; tourism=camp_site;
    website=https://irelandecotourism.ie; id=way/1204590732</desc>
    <link href="https://irelandecotourism.ie"></link>
  </wpt>
  <wpt lat="52.735179849999994" lon="-9.534050157902618">
    <ele>0.0</ele>
    <name>Strand Camping</name>
    <desc>capacity:pitches=19; capacity:tents=3; caravans=yes;
    dog=yes; fridge=yes; internet_access=wlan; motor_vehicle=yes;
    motorhome=yes; name=Strand Camping; name:de=Strandcamping;
    name:en=Strandcamping; opening_hours=Mar 14-Aug 26;
    sanitary_dump_station=customers; shower=yes; tents=yes;
    toilets=yes; tourism=camp_site; washing_machine=yes;
    website=https://strandcampingdoonbeg.com;
    id=way/1204592382</desc>
    <link href="https://strandcampingdoonbeg.com"></link>
  </wpt>
  <wpt lat="53.0647726" lon="-9.519862431881544">
    <ele>4.0</ele>
    <name>Rua Camping</name>
    <desc>caravans=no; email=info@inisoirrcamping.ie;
    internet_access=no; motor_vehicle=no; motorhome=no; name=Rua
    Camping; nudism=no; phone=+353 83 863 3907;
    sanitary_dump_station=no; tents=yes; tourism=camp_site;
    website=https://inisoirrcamping.ie/; id=way/1204832918</desc>
    <link href="https://inisoirrcamping.ie/"></link>
  </wpt>
  <wpt lat="53.897868149999994" lon="-9.78678425231155">
    <ele>2.0</ele>
    <name>Mulranny Glamping</name>
    <desc>caravans=no;
    contact:facebook=https://m.facebook.com/people/Mulranny-Glamping/100095071064028;
    drinking_water=yes; impromptu=yes; internet_access=no;
    motorhome=no; name=Mulranny Glamping; nudism=no; open_fire=yes;
    phone=+353 87 638 5071; picnic_table=yes; power_supply=no;
    sanitary_dump_station=no; shower=cold; tents=yes; toilets=yes;
    tourism=camp_site; id=way/1205965807</desc>
  </wpt>
  <wpt lat="54.2800408" lon="-9.369565216958755">
    <ele>45.0</ele>
    <name>Healy's Bar</name>
    <desc>caravans=no; drinking_water=yes; fee=no; impromptu=yes;
    internet_access=wlan; motorhome=yes; name=Healy's Bar;
    sanitary_dump_station=no; shower=no; tents=yes; toilets=yes;
    tourism=camp_site; id=way/1206613662</desc>
  </wpt>
  <wpt lat="52.1335204" lon="-7.607262968514389">
    <ele>154.0</ele>
    <name>The Getaway</name>
    <desc>access=customers; addr:city=Waterford;
    addr:place=Kilnafrehan East; addr:postcode=X35 RT18; bbq=yes;
    cabins=yes; capacity:caravans=12; caravans=yes;
    contact:facebook=https://www.facebook.com/thegetaway.ie;
    contact:instagram=https://www.instagram.com/the_getaway.ie/;
    dog=leashed; drinking_water=yes; internet_access=yes;
    kitchen=yes; motor_vehicle=yes; name=The Getaway;
    operator=Hillary Britton; power_supply=yes;
    reservation=recommended; sanitary_dump_station=yes; shower=yes;
    swimming_pool=no; tents=yes; toilets=yes; tourism=camp_site;
    website=https://www.thegetaway.ie/; id=way/1206629534</desc>
    <link href="https://www.thegetaway.ie/"></link>
  </wpt>
  <wpt lat="54.5653566" lon="-8.211333174401947">
    <ele>14.0</ele>
    <name>Boortree Rossnowlagh Touring &amp; Camping Park</name>
    <desc>capacity:tents=22; caravans=yes; dog=yes;
    drinking_water=yes; email=info@rossnowlaghcamping.com; fee=yes;
    internet_access=no; motor_vehicle=yes; motorhome=yes;
    name=Boortree Rossnowlagh Touring &amp; Camping Park;
    nudism=no; openfire=no; opening_hours=Apr 4-Oct 1;
    operator=John F Kelly; phone=+353 851655917; picnic_table=no;
    power_supply=yes; static_caravans=no; tents=yes;
    tourism=camp_site; id=way/1208090809</desc>
  </wpt>
  <wpt lat="52.08865795" lon="-7.850335127542378">
    <ele>27.0</ele>
    <name>Blackwater Eco Pods</name>
    <desc>cabins=yes; caravans=no; name=Blackwater Eco Pods;
    static_caravans=no; tents=no; tourism=camp_site;
    id=way/1227214140</desc>
  </wpt>
  <wpt lat="52.536099300000004" lon="-6.966893971772444">
    <ele>70.0</ele>
    <name>Brandon Hill Camping</name>
    <desc>name=Brandon Hill Camping; tourism=camp_site;
    id=way/1228506722</desc>
  </wpt>
  <wpt lat="52.997825899999995" lon="-6.067274531663514">
    <ele>18.0</ele>
    <name>Knockrobin Glamping</name>
    <desc>addr:city=Tinakilly;
    contact:facebook=https://www.facebook.com/knglamping/;
    email=knglamping@gmail.com; fee=yes; name=Knockrobin Glamping;
    phone=+353-89-252-7504; tourism=camp_site;
    website=https://www.knockrobinglamping.com/;
    id=way/1231445133</desc>
    <link href="https://www.knockrobinglamping.com/"></link>
  </wpt>
  <wpt lat="52.1863226" lon="-7.5322993821049735">
    <ele>94.0</ele>
    <name>Comeragh Pods</name>
    <desc>cabins=yes; name=Comeragh Pods; tourism=camp_site;
    id=way/1236637740</desc>
  </wpt>
  <wpt lat="54.00115945" lon="-7.4506782775928775">
    <ele>70.0</ele>
    <name>Wildflower Glamping</name>
    <desc>camp_site=camp_site; caravans=no; name=Wildflower
    Glamping; phone=+353 87 257 7718; static_caravans=no;
    tents=yes; tourism=camp_site;
    website=https://wildflowerglamping.ie/;
    id=way/1249840833</desc>
    <link href="https://wildflowerglamping.ie/"></link>
  </wpt>
  <wpt lat="52.53760389999999" lon="-6.95905003567157">
    <ele>20.0</ele>
    <name>way/1301597888</name>
    <desc>backcountry=yes; tourism=camp_site;
    id=way/1301597888</desc>
  </wpt>
  <wpt lat="53.81560575" lon="-7.350558156685728">
    <ele>66.0</ele>
    <name>way/1350005535</name>
    <desc>tourism=camp_site; id=way/1350005535</desc>
  </wpt>
  <wpt lat="52.86894045" lon="-6.071021674418141">
    <ele>12.0</ele>
    <name>Ardinary Park</name>
    <desc>name=Ardinary Park; tourism=camp_site;
    id=way/1373498660</desc>
  </wpt>
  <wpt lat="54.21801175" lon="-9.979323465359046">
    <ele>25.0</ele>
    <name>way/1378766334</name>
    <desc>caravans=no; description=Farmyard glamping.; fee=yes;
    static_caravans=no; tents=no; tourism=camp_site;
    id=way/1378766334</desc>
  </wpt>
  <wpt lat="53.49384475" lon="-7.15689836784831">
    <ele>89.0</ele>
    <name>Cunningham's Pub (The Hideout)</name>
    <desc>access=permissive; addr:housename=Cunninghams;
    capacity:tents=10; caravans=no; description=Fee seems to be
    charged only if you ask for it. We payed 10€ per Person as we
    asked how much we have to pay.; motorhome=no; name=Cunningham's
    Pub (The Hideout); pub=yes; shop=yes; tents=yes;
    tourism=camp_site; id=way/1408893573</desc>
  </wpt>
  <wpt lat="52.14772735" lon="-10.288285687632504">
    <ele>18.0</ele>
    <name>Rainbow Hostel Dingle</name>
    <desc>addr:city=Dingle; addr:country=IE; addr:street=Co. Kerry;
    caravans=no; contact:email=info@rainbowhosteldingle.com;
    contact:phone=+353 66 915 1044; description=Facilities of
    Hostel also available to campsite customers; fridge=yes;
    internet_access=wlan; kitchen=yes; motorhome=no; name=Rainbow
    Hostel Dingle; shower=yes; tents=yes; toilets=yes;
    tourism=camp_site; website=http://www.rainbowhosteldingle.com/;
    id=way/1408905345</desc>
    <link href="http://www.rainbowhosteldingle.com/"></link>
  </wpt>
  <wpt lat="55.232638949999995" lon="-7.793253349863555">
    <ele>14.0</ele>
    <name>way/1421482045</name>
    <desc>tourism=camp_site; id=way/1421482045</desc>
  </wpt>
  <wpt lat="55.224115499999996" lon="-7.797284035279656">
    <ele>3.0</ele>
    <name>way/1421482095</name>
    <desc>tourism=camp_site; id=way/1421482095</desc>
  </wpt>
  <wpt lat="55.22394645" lon="-7.814760798258331">
    <ele>31.0</ele>
    <name>way/1421482098</name>
    <desc>tourism=camp_site; id=way/1421482098</desc>
  </wpt>
</gpx>
