<?xml version="1.0" encoding="utf-8"?>
<gpx xmlns="http://www.topografix.com/GPX/1/1"
xmlns:xsi="http://www.w3.org/2001/XMLSchema-instance"
xsi:schemaLocation="http://www.topografix.com/GPX/1/1 http://www.topografix.com/GPX/1/1/gpx.xsd"
version="1.1" creator="togpx">
  <metadata>
    <copyright>
      <license>"osm3s": { "timestamp_osm_base":
      "2025-09-09T08:11:27Z", "timestamp_areas_base":
      "2025-09-09T06:43:26Z", "copyright": "The data included in
      this document is from www.openstreetmap.org. The data is made
      available under ODbL." } // SRTM: { Elevation data missing in
      OSM was added by the NASA Shuttle Radar Topography Mission as
      public release version, if available there. } // { Check for
      latest version of this file on:
      https://github.com/GpxFeed/campgrounds }</license>
    </copyright>
  </metadata>
  <wpt lat="52.9551892" lon="-6.3567657">
    <ele>131.0</ele>
    <name>ICCC Club Site</name>
    <desc>access=private; name=ICCC Club Site;
    tourism=caravan_site; website=https://www.iccc.ie/drumgoff.htm;
    id=node/983384173</desc>
    <link href="https://www.iccc.ie/drumgoff.htm"></link>
  </wpt>
  <wpt lat="55.2872398" lon="-7.1680146">
    <ele>4.0</ele>
    <name>node/1556325987</name>
    <desc>tourism=caravan_site; id=node/1556325987</desc>
  </wpt>
  <wpt lat="55.293443" lon="-7.2667512">
    <ele>4.0</ele>
    <name>node/1630123956</name>
    <desc>tourism=caravan_site; id=node/1630123956</desc>
  </wpt>
  <wpt lat="52.9741905" lon="-6.2171494">
    <ele>176.0</ele>
    <name>Clissmann Horse Caravans</name>
    <desc>fixme=Probably the wrong tagging, since you wouldn't stay
    here with a caravan. And it shouldn't be positioned at the
    front gate either, where is it really?; name=Clissmann Horse
    Caravans; phone=+353 404 46920; tourism=caravan_site;
    id=node/2541388751</desc>
  </wpt>
  <wpt lat="53.8470429" lon="-9.305121">
    <ele>39.0</ele>
    <name>node/4462109456</name>
    <desc>tourism=caravan_site; id=node/4462109456</desc>
  </wpt>
  <wpt lat="51.6740684" lon="-8.6873407">
    <ele>19.0</ele>
    <name>Forest Rest Park</name>
    <desc>addr:postcode=P72 PH99;
    contact:facebook=https://www.facebook.com/ForestRestPark/;
    name=Forest Rest Park; phone=+353-87-8122056;
    tourism=caravan_site; id=node/5025931427</desc>
  </wpt>
  <wpt lat="51.837673" lon="-9.9005907">
    <ele>8.0</ele>
    <name>Goosey Island Motorhome Park</name>
    <desc>name=Goosey Island Motorhome Park; tourism=caravan_site;
    wheelchair=no; id=node/5029119564</desc>
  </wpt>
  <wpt lat="54.1223955" lon="-8.4605808">
    <ele>52.0</ele>
    <name>Common Shore</name>
    <desc>addr:city=Ballymote; capacity=2;
    email=commonshore@gmail.com; name=Common Shore; phone=+353 85
    720 2370; tourism=caravan_site; id=node/5483495824</desc>
  </wpt>
  <wpt lat="51.8469466" lon="-8.3084121">
    <ele>20.0</ele>
    <name>Five Foot Way Camper Van Facility</name>
    <desc>addr:street=Whitepoint; name=Five Foot Way Camper Van
    Facility; opening_hours=24/7; phone=+353 21 481 1307;
    tourism=caravan_site; wheelchair=limited;
    id=node/7193965185</desc>
  </wpt>
  <wpt lat="51.8611937" lon="-8.1745734">
    <ele>15.0</ele>
    <name>Saleen Creek Motorhome Aire</name>
    <desc>name=Saleen Creek Motorhome Aire; opening_hours=24/7;
    tourism=caravan_site; id=node/9530861817</desc>
  </wpt>
  <wpt lat="52.0737643" lon="-9.8822098">
    <ele>40.0</ele>
    <name>The Kerry Bog Village Museum</name>
    <desc>name=The Kerry Bog Village Museum; tourism=caravan_site;
    id=node/9609075517</desc>
  </wpt>
  <wpt lat="55.2092626" lon="-7.819611">
    <ele>76.0</ele>
    <name>The singing Pub</name>
    <desc>name=The singing Pub; name:en=The Singing Pub;
    tourism=caravan_site; id=node/9726158617</desc>
  </wpt>
  <wpt lat="52.0848759" lon="-7.6212003">
    <ele>4.0</ele>
    <name>node/9772787998</name>
    <desc>description=48h kostenlos mit VE; tourism=caravan_site;
    id=node/9772787998</desc>
  </wpt>
  <wpt lat="54.9787997" lon="-8.4975934">
    <ele>24.0</ele>
    <name>Arranmore Holiday Village</name>
    <desc>capacity:caravans=6; name=Arranmore Holiday Village;
    power_supply=yes; tourism=caravan_site;
    id=node/9992520372</desc>
  </wpt>
  <wpt lat="55.120174" lon="-7.9031718">
    <ele>52.0</ele>
    <name>Wild Atlantic Camp</name>
    <desc>cabins=yes; capacity:pitches=20;
    contact:email=hello@wildatlanticcamp.com; contact:phone=+353 74
    913 8400; motorhome=yes; name=Wild Atlantic Camp; shower=yes;
    tents=no; toilets=yes; tourism=caravan_site;
    website=https://www.wildatlanticcamp.ie/;
    id=node/10796605090</desc>
    <link href="https://www.wildatlanticcamp.ie/"></link>
  </wpt>
  <wpt lat="52.2098289" lon="-6.7885798">
    <ele>13.0</ele>
    <name>Bannow Bay Seaside Farm Motorhome Parking</name>
    <desc>name=Bannow Bay Seaside Farm Motorhome Parking;
    tourism=caravan_site;
    website=https://southeastcampervanparking.com/;
    id=node/11048259582</desc>
    <link href="https://southeastcampervanparking.com/"></link>
  </wpt>
  <wpt lat="52.8566733" lon="-9.4024374">
    <ele>47.0</ele>
    <name>node/12153696026</name>
    <desc>tourism=caravan_site; id=node/12153696026</desc>
  </wpt>
  <wpt lat="52.3832974" lon="-6.4500553">
    <ele>3.0</ele>
    <name>Stellplatz Castlebridge</name>
    <desc>charge=10€; fee=yes; name=Stellplatz Castlebridge;
    power_supply=no; sanitary_dump_station=yes;
    tourism=caravan_site; id=node/13037203823</desc>
  </wpt>
  <wpt lat="53.0072546" lon="-6.3446862">
    <ele>143.0</ele>
    <name>Stellplatz Glendalough</name>
    <desc>charge=25€; fee=yes; name=Stellplatz Glendalough;
    power_supply=no; sanitary_dump_station=no;
    tourism=caravan_site; id=node/13037208672</desc>
  </wpt>
  <wpt lat="55.1457306" lon="-8.1733175">
    <ele>2.0</ele>
    <name>Maghroarty pier</name>
    <desc>fee=no; internet_access=no; name=Maghroarty pier;
    permanent_camping=no; power_supply=no;
    sanitary_dump_station=yes; toilets=no; tourism=caravan_site;
    id=node/13096796440</desc>
  </wpt>
  <wpt lat="53.6985472" lon="-6.2482472780922">
    <ele>7.0</ele>
    <name>Bettystown</name>
    <desc>addr:city=Bettystown; tourism=caravan_site;
    type=multipolygon; id=relation/4442061</desc>
  </wpt>
  <wpt lat="52.289205949999996" lon="-6.393979678193394">
    <ele>3.0</ele>
    <name>relation/4622505</name>
    <desc>tourism=caravan_site; type=multipolygon;
    id=relation/4622505</desc>
  </wpt>
  <wpt lat="52.4907305" lon="-6.265427468167006">
    <ele>31.0</ele>
    <name>relation/5223671</name>
    <desc>tourism=caravan_site; type=multipolygon;
    id=relation/5223671</desc>
  </wpt>
  <wpt lat="52.513713749999994" lon="-6.241003105500275">
    <ele>12.0</ele>
    <name>relation/5223710</name>
    <desc>tourism=caravan_site; type=multipolygon;
    id=relation/5223710</desc>
  </wpt>
  <wpt lat="52.5136551" lon="-6.246773911839698">
    <ele>16.0</ele>
    <name>relation/5223711</name>
    <desc>tourism=caravan_site; type=multipolygon;
    id=relation/5223711</desc>
  </wpt>
  <wpt lat="52.5136593" lon="-6.249758486830665">
    <ele>20.0</ele>
    <name>relation/5223712</name>
    <desc>tourism=caravan_site; type=multipolygon;
    id=relation/5223712</desc>
  </wpt>
  <wpt lat="55.1384267" lon="-7.6712352638233785">
    <ele>3.0</ele>
    <name>Rockhill Holiday Park</name>
    <desc>name=Rockhill Holiday Park; tourism=caravan_site;
    type=multipolygon; id=relation/5386245</desc>
  </wpt>
  <wpt lat="53.7869343" lon="-8.920091141610982">
    <ele>102.0</ele>
    <name>relation/5838132</name>
    <desc>tourism=caravan_site; type=multipolygon;
    id=relation/5838132</desc>
  </wpt>
  <wpt lat="53.78754395" lon="-8.91899866097854">
    <ele>103.0</ele>
    <name>relation/5838133</name>
    <desc>tourism=caravan_site; type=multipolygon;
    id=relation/5838133</desc>
  </wpt>
  <wpt lat="55.117427500000005" lon="-7.454049643898312">
    <ele>25.0</ele>
    <name>relation/14118689</name>
    <desc>tourism=caravan_site; type=multipolygon;
    id=relation/14118689</desc>
  </wpt>
  <wpt lat="55.120796600000006" lon="-7.454391183593065">
    <ele>28.0</ele>
    <name>relation/14118698</name>
    <desc>tourism=caravan_site; type=multipolygon;
    id=relation/14118698</desc>
  </wpt>
  <wpt lat="55.11601375" lon="-7.45653512804689">
    <ele>13.0</ele>
    <name>relation/14118702</name>
    <desc>tourism=caravan_site; type=multipolygon;
    id=relation/14118702</desc>
  </wpt>
  <wpt lat="54.56437855" lon="-8.211044468842662">
    <ele>8.0</ele>
    <name>relation/14247897</name>
    <desc>tourism=caravan_site; type=multipolygon;
    id=relation/14247897</desc>
  </wpt>
  <wpt lat="54.56368645" lon="-8.212024713286521">
    <ele>8.0</ele>
    <name>relation/14247898</name>
    <desc>tourism=caravan_site; type=multipolygon;
    id=relation/14247898</desc>
  </wpt>
  <wpt lat="52.641113849999996" lon="-6.2298293158023075">
    <ele>19.0</ele>
    <name>Ireton's Caravan Park</name>
    <desc>name=Ireton's Caravan Park; tourism=caravan_site;
    type=multipolygon; id=relation/18626281</desc>
  </wpt>
  <wpt lat="52.629443249999994" lon="-6.238530307968182">
    <ele>15.0</ele>
    <name>Ardamine Holiday Park</name>
    <desc>name=Ardamine Holiday Park; phone=+353 53 9425521;
    source=landsat adjusted; tourism=caravan_site;
    id=way/30588664</desc>
  </wpt>
  <wpt lat="52.6339378" lon="-6.233386397708895">
    <ele>10.0</ele>
    <name>O'Loughlins Holiday Park</name>
    <desc>name=O'Loughlins Holiday Park; phone=+353 53 9425554;
    source=landsat adjusted; tourism=caravan_site;
    id=way/30588789</desc>
  </wpt>
  <wpt lat="52.6247228" lon="-6.234357296507751">
    <ele>26.0</ele>
    <name>Parklands Holiday Park</name>
    <desc>name=Parklands Holiday Park; phone=+353 53 9425202;
    source=landsat adjusted; tourism=caravan_site;
    id=way/30588833</desc>
  </wpt>
  <wpt lat="52.64462915" lon="-6.232486889711437">
    <ele>19.0</ele>
    <name>Ballintray Holiday Park</name>
    <desc>name=Ballintray Holiday Park; source=landsat adjusted;
    tourism=caravan_site; id=way/30589028</desc>
  </wpt>
  <wpt lat="52.16479375" lon="-7.1377682305806704">
    <ele>10.0</ele>
    <name>Fitzmaurice Caravan Park</name>
    <desc>addr:city=Tramore; area=yes; name=Fitzmaurice Caravan
    Park; source=bing / approximated around surveyed roads;
    tourism=caravan_site; id=way/39352294</desc>
  </wpt>
  <wpt lat="52.14702115" lon="-7.1730464703085195">
    <ele>47.0</ele>
    <name>Newtown Cove Park</name>
    <desc>name=Newtown Cove Park; note=Category Grade A, Caravans,
    Tents &amp; Holiday Homes; tourism=caravan_site;
    wheelchair=yes; id=way/44317229</desc>
  </wpt>
  <wpt lat="52.621746900000005" lon="-6.233737587261588">
    <ele>33.0</ele>
    <name>way/46930051</name>
    <desc>tourism=caravan_site; id=way/46930051</desc>
  </wpt>
  <wpt lat="52.608313949999996" lon="-6.301566957386745">
    <ele>29.0</ele>
    <name>Ballycanew Holiday Park</name>
    <desc>name=Ballycanew Holiday Park; tourism=caravan_site;
    id=way/46930075</desc>
  </wpt>
  <wpt lat="53.256679950000006" lon="-9.105120987517239">
    <ele>4.0</ele>
    <name>Salthill Caravan Park</name>
    <desc>addr:postcode=H91 K856; caravans=yes;
    contact:facebook=https://www.facebook.com/SalthillCaravanPark/;
    contact:fax=+353 91 588373; contact:mobile=+353 86 817 5551;
    contact:phone=+353 91 523972;
    contact:website=http://www.salthillcaravanpark.com/;
    drinking_water=yes; email=info@salthillcaravanpark.com;
    fee=yes; internet_access=wlan; name=Salthill Caravan Park;
    power_supply=yes; sanitary_dump_station=yes; source=yahoo sat;
    stars=4; static_caravans=yes; tents=yes; toilets=yes;
    tourism=caravan_site; wheelchair=yes; id=way/52404112</desc>
    <link href="http://www.salthillcaravanpark.com/"></link>
  </wpt>
  <wpt lat="52.2065481" lon="-6.356842834771676">
    <ele>12.0</ele>
    <name>Saint Margaret's Beach Caravan &amp; Camping Park</name>
    <desc>name=Saint Margaret's Beach Caravan &amp; Camping Park;
    tourism=caravan_site; id=way/54386207</desc>
  </wpt>
  <wpt lat="53.4913003" lon="-6.098270841419753">
    <ele>6.0</ele>
    <name>Lynder's Caravan Park</name>
    <desc>name=Lynder's Caravan Park; tourism=caravan_site;
    id=way/57677999</desc>
  </wpt>
  <wpt lat="53.4800185" lon="-6.123493330224164">
    <ele>6.0</ele>
    <name>Beach View Park</name>
    <desc>addr:city=Donabate; addr:street=Balcarrick Road;
    name=Beach View Park; tourism=caravan_site;
    id=way/57678005</desc>
  </wpt>
  <wpt lat="53.469350250000005" lon="-6.131194947077733">
    <ele>5.0</ele>
    <name>way/57781310</name>
    <desc>tourism=caravan_site; id=way/57781310</desc>
  </wpt>
  <wpt lat="53.4718821" lon="-6.1277243626710405">
    <ele>4.0</ele>
    <name>way/57781317</name>
    <desc>tourism=caravan_site; id=way/57781317</desc>
  </wpt>
  <wpt lat="53.47097895" lon="-6.130356472559259">
    <ele>5.0</ele>
    <name>way/57781320</name>
    <desc>tourism=caravan_site; id=way/57781320</desc>
  </wpt>
  <wpt lat="52.201707400000004" lon="-6.846036554690455">
    <ele>32.0</ele>
    <name>Ocean Island Caravan &amp; Camping Park</name>
    <desc>name=Ocean Island Caravan &amp; Camping Park;
    tourism=caravan_site; wheelchair=yes; id=way/61349108</desc>
  </wpt>
  <wpt lat="53.50322055" lon="-6.115433344819305">
    <ele>5.0</ele>
    <name>McGrath's Field</name>
    <desc>name=McGrath's Field; tourism=caravan_site;
    id=way/66129721</desc>
  </wpt>
  <wpt lat="53.500795499999995" lon="-6.117133578991748">
    <ele>5.0</ele>
    <name>Doyle's Caravan Park</name>
    <desc>name=Doyle's Caravan Park; tourism=caravan_site;
    id=way/66129723</desc>
  </wpt>
  <wpt lat="53.5082955" lon="-6.123765296536063">
    <ele>2.0</ele>
    <name>Porter's Field</name>
    <desc>addr:city=Portrane; addr:street=Porter's Lane;
    name=Porter's Field; tourism=caravan_site;
    id=way/66129731</desc>
  </wpt>
  <wpt lat="53.5300448" lon="-6.089773621025085">
    <ele>12.0</ele>
    <name>way/69774836</name>
    <desc>tourism=caravan_site; id=way/69774836</desc>
  </wpt>
  <wpt lat="53.80620465" lon="-9.53768070972512">
    <ele>13.0</ele>
    <name>Westport House Caravan Site</name>
    <desc>addr:city=Westport; addr:housename=Westport House;
    addr:street=Golf Course Road; name=Westport House Caravan Site;
    tourism=caravan_site; id=way/69910684</desc>
  </wpt>
  <wpt lat="52.087823400000005" lon="-7.567135989595057">
    <ele>7.0</ele>
    <name>Bayview Caravan and Camping Park</name>
    <desc>fee=yes; name=Bayview Caravan and Camping Park;
    power_supply=yes; stars=3; tents=yes; tourism=caravan_site;
    website=http://www.bayviewcaravancamping.com/;
    id=way/71366774</desc>
    <link href="http://www.bayviewcaravancamping.com/"></link>
  </wpt>
  <wpt lat="52.09680475" lon="-7.547617778067483">
    <ele>5.0</ele>
    <name>Casey's Caravan &amp; Camping Park</name>
    <desc>name=Casey's Caravan &amp; Camping Park;
    opening_hours=Apr 01-Sep 12; phone=+353 58 41919; source=Bing
    Maps; tourism=caravan_site; id=way/71366779</desc>
  </wpt>
  <wpt lat="52.5634347" lon="-6.199712505684341">
    <ele>17.0</ele>
    <name>Cahore Holiday and Leisure Park</name>
    <desc>name=Cahore Holiday and Leisure Park; phone=+353 53
    9427481; tourism=caravan_site;
    website=http://www.cahoreholidaypark.com/;
    id=way/73575916</desc>
    <link href="http://www.cahoreholidaypark.com/"></link>
  </wpt>
  <wpt lat="52.56314405" lon="-6.19604543641961">
    <ele>24.0</ele>
    <name>Cahore Point Mobile Home Park</name>
    <desc>name=Cahore Point Mobile Home Park; tourism=caravan_site;
    id=way/77813090</desc>
  </wpt>
  <wpt lat="52.21826945" lon="-6.918428057932699">
    <ele>2.0</ele>
    <name>Duncannon Beach Holiday Park</name>
    <desc>fee=yes; internet_access=wlan; internet_access:fee=no;
    name=Duncannon Beach Holiday Park; power_supply=yes; tents=yes;
    tourism=caravan_site;
    website=https://duncannonholidaypark.com/;
    id=way/96152978</desc>
    <link href="https://duncannonholidaypark.com/"></link>
  </wpt>
  <wpt lat="51.7439414" lon="-8.30936659813386">
    <ele>21.0</ele>
    <name>Roberts Cove Holiday Park</name>
    <desc>name=Roberts Cove Holiday Park; tourism=caravan_site;
    id=way/97386831</desc>
  </wpt>
  <wpt lat="53.5258438" lon="-6.086520683090705">
    <ele>3.0</ele>
    <name>North Beach Caravan Park</name>
    <desc>addr:city=Rush; addr:street=North Beach; name=North Beach
    Caravan Park; tourism=caravan_site; wheelchair=yes;
    id=way/102459404</desc>
  </wpt>
  <wpt lat="51.7579733" lon="-10.097988539867277">
    <ele>25.0</ele>
    <name>Ocean Bellow</name>
    <desc>camping=yes; name=Ocean Bellow; tourism=caravan_site;
    id=way/102742771</desc>
  </wpt>
  <wpt lat="51.75902015" lon="-10.082120972286898">
    <ele>13.0</ele>
    <name>Glenbeg Caravan Park</name>
    <desc>name=Glenbeg Caravan Park; tourism=caravan_site;
    id=way/102742772</desc>
  </wpt>
  <wpt lat="51.75832925" lon="-10.09321545039141">
    <ele>14.0</ele>
    <name>Wavecrest Caravan &amp; Camping Park</name>
    <desc>camping=yes; name=Wavecrest Caravan &amp; Camping Park;
    tourism=caravan_site; id=way/102742774</desc>
  </wpt>
  <wpt lat="52.51410035" lon="-6.242855671498571">
    <ele>10.0</ele>
    <name>way/112354002</name>
    <desc>tourism=caravan_site; id=way/112354002</desc>
  </wpt>
  <wpt lat="52.5115506" lon="-6.24529274746394">
    <ele>15.0</ele>
    <name>way/112354024</name>
    <desc>tourism=caravan_site; id=way/112354024</desc>
  </wpt>
  <wpt lat="52.514641850000004" lon="-6.254421007649743">
    <ele>19.0</ele>
    <name>Oatfields</name>
    <desc>name=Oatfields; tourism=caravan_site;
    id=way/112354032</desc>
  </wpt>
  <wpt lat="52.51780905" lon="-6.237913710372521">
    <ele>12.0</ele>
    <name>Morriscastle Strand Holiday Park</name>
    <desc>addr:city=Gorey; addr:county=Wexford;
    email=info@morriscastlestrand.com; fee=yes; name=Morriscastle
    Strand Holiday Park; phone=+353 53 9130124; stars=4; tents=no;
    tourism=caravan_site; website=https://morriscastlestrand.com/;
    id=way/112354042</desc>
    <link href="https://morriscastlestrand.com/"></link>
  </wpt>
  <wpt lat="52.55596225" lon="-6.214333574959794">
    <ele>12.0</ele>
    <name>O'Loughlins Caravan Park</name>
    <desc>name=O'Loughlins Caravan Park; tourism=caravan_site;
    id=way/112366101</desc>
  </wpt>
  <wpt lat="52.63947615" lon="-6.23689001252988">
    <ele>16.0</ele>
    <name>Redmond Caravan Park</name>
    <desc>name=Redmond Caravan Park; tourism=caravan_site;
    id=way/114156042</desc>
  </wpt>
  <wpt lat="52.64406425" lon="-6.23551197541438">
    <ele>27.0</ele>
    <name>Courtown Caravan Park</name>
    <desc>name=Courtown Caravan Park; tourism=caravan_site;
    id=way/114156045</desc>
  </wpt>
  <wpt lat="52.67843310000001" lon="-6.224970880738378">
    <ele>38.0</ele>
    <name>Prospect Holiday and Leisure Park</name>
    <desc>name=Prospect Holiday and Leisure Park;
    tourism=caravan_site; id=way/134471902</desc>
  </wpt>
  <wpt lat="52.71322485" lon="-6.169357768657625">
    <ele>5.0</ele>
    <name>way/134556463</name>
    <desc>tourism=caravan_site; id=way/134556463</desc>
  </wpt>
  <wpt lat="52.80785015" lon="-6.135116298211086">
    <ele>1.0</ele>
    <name>way/135300965</name>
    <desc>source=EEA GMES Urban Atlas; tourism=caravan_site;
    id=way/135300965</desc>
  </wpt>
  <wpt lat="52.4309467" lon="-6.3293397394637205">
    <ele>6.0</ele>
    <name>Keatings Caravan Park</name>
    <desc>name=Keatings Caravan Park; tourism=caravan_site;
    id=way/137353391</desc>
  </wpt>
  <wpt lat="52.445492" lon="-6.3443959392538645">
    <ele>23.0</ele>
    <name>Abhainn Dubh Mobile Home Park</name>
    <desc>name=Abhainn Dubh Mobile Home Park; tourism=caravan_site;
    website=https://www.abhainndubh.ie/; id=way/137353403</desc>
    <link href="https://www.abhainndubh.ie/"></link>
  </wpt>
  <wpt lat="52.39092285" lon="-6.371811060623395">
    <ele>8.0</ele>
    <name>way/138314504</name>
    <desc>tourism=caravan_site; id=way/138314504</desc>
  </wpt>
  <wpt lat="52.671368349999995" lon="-6.225099934275807">
    <ele>35.0</ele>
    <name>Tara Meadows Holiday Home Park</name>
    <desc>addr:full=Prospect, Ballymoney Gorey, Co Wexford,
    Ireland; internet_access=wlan; name=Tara Meadows Holiday Home
    Park; tourism=caravan_site; id=way/143478725</desc>
  </wpt>
  <wpt lat="52.6684015" lon="-6.213227039604988">
    <ele>23.0</ele>
    <name>way/143481917</name>
    <desc>tourism=caravan_site; id=way/143481917</desc>
  </wpt>
  <wpt lat="52.670699600000006" lon="-6.212708908402037">
    <ele>25.0</ele>
    <name>Tara Cove Mobiles</name>
    <desc>name=Tara Cove Mobiles; tourism=caravan_site;
    id=way/143481919</desc>
  </wpt>
  <wpt lat="52.9560724" lon="-6.012249844509399">
    <ele>39.0</ele>
    <name>Silver Strand Caravan Park</name>
    <desc>addr:city=Wicklow; addr:housename=Seaview House;
    addr:place=Dunbur Upper; name=Silver Strand Caravan Park;
    operator=Silver Strand Caravan Park Ltd; phone=+353-404-67615;
    power_supply=yes; tourism=caravan_site;
    website=https://www.silverstrandcaravanpark.ie/;
    id=way/144785007</desc>
    <link href="https://www.silverstrandcaravanpark.ie/"></link>
  </wpt>
  <wpt lat="52.9043809" lon="-6.040784730048859">
    <ele>7.0</ele>
    <name>Jack's Hole Beach Resort</name>
    <desc>capacity:cabins=yes; name=Jack's Hole Beach Resort;
    source=Owner; tourism=caravan_site; id=way/147165086</desc>
  </wpt>
  <wpt lat="52.90047199999999" lon="-6.042388958325752">
    <ele>18.0</ele>
    <name>Potters Point</name>
    <desc>addr:city=Brittas Bay; capacity:cabins=yes; name=Potters
    Point; residential=trailer_park; tourism=caravan_site;
    id=way/147165089</desc>
  </wpt>
  <wpt lat="52.87719965" lon="-6.073446848178664">
    <ele>7.0</ele>
    <name>Brittas Bay Park</name>
    <desc>capacity:cabins=yes; name=Brittas Bay Park;
    tourism=caravan_site; id=way/147188141</desc>
  </wpt>
  <wpt lat="52.900654349999996" lon="-6.053030652916407">
    <ele>19.0</ele>
    <name>way/147188144</name>
    <desc>capacity:cabins=yes; tourism=caravan_site;
    id=way/147188144</desc>
  </wpt>
  <wpt lat="52.86829455" lon="-6.070339983863323">
    <ele>11.0</ele>
    <name>Ardinary Park</name>
    <desc>capacity:cabins=yes; name=Ardinary Park;
    tourism=caravan_site; id=way/147188148</desc>
  </wpt>
  <wpt lat="52.8924129" lon="-6.0539676178437">
    <ele>6.0</ele>
    <name>Staunton's Caravan Park</name>
    <desc>capacity:cabins=yes; name=Staunton's Caravan Park;
    tourism=caravan_site; id=way/147188484</desc>
  </wpt>
  <wpt lat="52.0929387" lon="-7.547413581255835">
    <ele>7.0</ele>
    <name>Clonea Park</name>
    <desc>name=Clonea Park; opening_hours=Apr 01-Sep 12; phone=+353
    58 41919; tourism=caravan_site; id=way/148369307</desc>
  </wpt>
  <wpt lat="53.259542100000004" lon="-9.105662740243902">
    <ele>15.0</ele>
    <name>Bayview Holiday Park</name>
    <desc>name=Bayview Holiday Park; tourism=caravan_site;
    id=way/150816677</desc>
  </wpt>
  <wpt lat="52.681015599999995" lon="-6.214453420284549">
    <ele>29.0</ele>
    <name>Warren Park</name>
    <desc>name=Warren Park; source=Bing; tourism=caravan_site;
    id=way/161720455</desc>
  </wpt>
  <wpt lat="53.7957185" lon="-7.049383481000573">
    <ele>82.0</ele>
    <name>Lough Ramor Caravan and Camping Park</name>
    <desc>capacity=20; caravans=yes; email=loughramor@eircom.net;
    fee=yes; internet_access=no; name=Lough Ramor Caravan and
    Camping Park; phone=+353 87 282 5976; shower=yes; stars=2;
    tents=yes; toilets=yes; tourism=caravan_site;
    website=https://www.camping-ireland.ie/parks/cavan/57-lough-ramor-caravan-a-camping-park.html;
    id=way/163599342</desc>
    <link href="https://www.camping-ireland.ie/parks/cavan/57-lough-ramor-caravan-a-camping-park.html">
    </link>
  </wpt>
  <wpt lat="52.602495250000004" lon="-6.29601391486901">
    <ele>29.0</ele>
    <name>way/164075494</name>
    <desc>tourism=caravan_site; id=way/164075494</desc>
  </wpt>
  <wpt lat="52.6054833" lon="-6.244647013894091">
    <ele>39.0</ele>
    <name>way/164087394</name>
    <desc>tourism=caravan_site; id=way/164087394</desc>
  </wpt>
  <wpt lat="53.64796735" lon="-7.386310116031155">
    <ele>65.0</ele>
    <name>Lough Derravaragh Holiday Park</name>
    <desc>name=Lough Derravaragh Holiday Park; source=visual
    survey, bing; tourism=caravan_site; id=way/165498297</desc>
  </wpt>
  <wpt lat="52.889301200000006" lon="-6.141751605633608">
    <ele>47.0</ele>
    <name>River Valley Caravan Park</name>
    <desc>fee=yes; name=River Valley Caravan Park; stars=4;
    tents=yes; tourism=caravan_site;
    website=https://www.rivervalleypark.ie/;
    id=way/167169196</desc>
    <link href="https://www.rivervalleypark.ie/"></link>
  </wpt>
  <wpt lat="52.328647849999996" lon="-7.623158654676587">
    <ele>334.0</ele>
    <name>Powers The Pot</name>
    <desc>name=Powers The Pot; source=Bing; tourism=caravan_site;
    website=https://www.powersthepot.com/; id=way/173103573</desc>
    <link href="https://www.powersthepot.com/"></link>
  </wpt>
  <wpt lat="53.123746249999996" lon="-9.282816464244572">
    <ele>18.0</ele>
    <name>Fanore Caravan Park</name>
    <desc>contact:facebook=https://www.facebook.com/JoeFanore/;
    name=Fanore Caravan Park; phone=+353-86-809-6426; source=bing
    2012; tourism=caravan_site; id=way/177646939</desc>
  </wpt>
  <wpt lat="52.4761651" lon="-6.284504331832031">
    <ele>26.0</ele>
    <name>way/180339022</name>
    <desc>tourism=caravan_site; id=way/180339022</desc>
  </wpt>
  <wpt lat="52.5554835" lon="-6.222795398379352">
    <ele>19.0</ele>
    <name>way/180608253</name>
    <desc>tourism=caravan_site; id=way/180608253</desc>
  </wpt>
  <wpt lat="54.5549716" lon="-8.205405857434254">
    <ele>5.0</ele>
    <name>way/184422875</name>
    <desc>tourism=caravan_site; wheelchair=yes;
    id=way/184422875</desc>
  </wpt>
  <wpt lat="54.5720979" lon="-8.205445904607046">
    <ele>3.0</ele>
    <name>Manor House Park</name>
    <desc>name=Manor House Park; tourism=caravan_site;
    id=way/184423126</desc>
  </wpt>
  <wpt lat="54.552196550000005" lon="-8.20948087614098">
    <ele>3.0</ele>
    <name>way/184423128</name>
    <desc>tourism=caravan_site; wheelchair=yes;
    id=way/184423128</desc>
  </wpt>
  <wpt lat="54.5607513" lon="-8.21045895256939">
    <ele>4.0</ele>
    <name>way/184423129</name>
    <desc>tourism=caravan_site; wheelchair=yes;
    id=way/184423129</desc>
  </wpt>
  <wpt lat="52.448957699999994" lon="-6.344997977691564">
    <ele>32.0</ele>
    <name>S&amp;E Farrell Holiday Parks Blackwater</name>
    <desc>fee=yes; name=S&amp;E Farrell Holiday Parks Blackwater;
    tourism=caravan_site;
    website=https://www.sefarrellholidayparks.com/;
    id=way/184483604</desc>
    <link href="https://www.sefarrellholidayparks.com/"></link>
  </wpt>
  <wpt lat="55.29023915" lon="-7.133870474055003">
    <ele>7.0</ele>
    <name>way/184653687</name>
    <desc>tourism=caravan_site; wheelchair=yes;
    id=way/184653687</desc>
  </wpt>
  <wpt lat="52.667239300000006" lon="-6.2347190975345">
    <ele>36.0</ele>
    <name>way/185786896</name>
    <desc>tourism=caravan_site; id=way/185786896</desc>
  </wpt>
  <wpt lat="53.2555033" lon="-9.305314746153845">
    <ele>30.0</ele>
    <name>way/189871081</name>
    <desc>caravans=yes; fee=yes; power_supply=yes;
    sanitary_dump_station=yes; tents=yes; tourism=caravan_site;
    id=way/189871081</desc>
  </wpt>
  <wpt lat="53.46510335" lon="-7.374107369768386">
    <ele>84.0</ele>
    <name>Lough Ennell C. &amp; C. Park</name>
    <desc>name=Lough Ennell C. &amp; C. Park; tourism=caravan_site;
    id=way/194919011</desc>
  </wpt>
  <wpt lat="55.183618800000005" lon="-7.610505618409073">
    <ele>18.0</ele>
    <name>Knockalla Caravan &amp; Camping</name>
    <desc>name=Knockalla Caravan &amp; Camping; power_supply=yes;
    sanitary_dump_station=yes; tourism=caravan_site;
    website=https://knockallacaravanpark.com/;
    id=way/201300179</desc>
    <link href="https://knockallacaravanpark.com/"></link>
  </wpt>
  <wpt lat="52.1323888" lon="-10.366556301785394">
    <ele>2.0</ele>
    <name>way/203255317</name>
    <desc>fee=yes; tourism=caravan_site; id=way/203255317</desc>
  </wpt>
  <wpt lat="55.21561185" lon="-6.955875564861355">
    <ele>5.0</ele>
    <name>way/203861419</name>
    <desc>tourism=caravan_site; id=way/203861419</desc>
  </wpt>
  <wpt lat="55.215930150000005" lon="-6.949003691853795">
    <ele>6.0</ele>
    <name>way/203861436</name>
    <desc>tourism=caravan_site; id=way/203861436</desc>
  </wpt>
  <wpt lat="52.619127750000004" lon="-9.471351558368223">
    <ele>8.0</ele>
    <name>Aylevarroo Caravan Park</name>
    <desc>name=Aylevarroo Caravan Park; tourism=caravan_site;
    id=way/207557009</desc>
  </wpt>
  <wpt lat="52.72869225" lon="-9.52644613599001">
    <ele>5.0</ele>
    <name>way/207562148</name>
    <desc>tourism=caravan_site; id=way/207562148</desc>
  </wpt>
  <wpt lat="52.9304968" lon="-9.341667600047957">
    <ele>23.0</ele>
    <name>way/207576419</name>
    <desc>tourism=caravan_site; id=way/207576419</desc>
  </wpt>
  <wpt lat="52.935817349999994" lon="-9.340911975891139">
    <ele>1.0</ele>
    <name>way/207576447</name>
    <desc>tourism=caravan_site; wheelchair=yes;
    id=way/207576447</desc>
  </wpt>
  <wpt lat="52.92319155" lon="-9.347449951847297">
    <ele>22.0</ele>
    <name>Ocean View Park</name>
    <desc>name=Ocean View Park; tourism=caravan_site;
    id=way/207576449</desc>
  </wpt>
  <wpt lat="52.851095900000004" lon="-9.43801222367215">
    <ele>13.0</ele>
    <name>way/208237851</name>
    <desc>tourism=caravan_site; id=way/208237851</desc>
  </wpt>
  <wpt lat="52.837739049999996" lon="-9.427660102869043">
    <ele>15.0</ele>
    <name>way/208238771</name>
    <desc>tourism=caravan_site; id=way/208238771</desc>
  </wpt>
  <wpt lat="52.86792425" lon="-9.426570816798634">
    <ele>7.0</ele>
    <name>White Strand</name>
    <desc>name=White Strand; tourism=caravan_site;
    id=way/208238774</desc>
  </wpt>
  <wpt lat="52.85170825" lon="-9.426629153625102">
    <ele>23.0</ele>
    <name>way/208238978</name>
    <desc>tourism=caravan_site; id=way/208238978</desc>
  </wpt>
  <wpt lat="52.937160500000005" lon="-9.40656976755138">
    <ele>22.0</ele>
    <name>way/208401075</name>
    <desc>tourism=caravan_site; id=way/208401075</desc>
  </wpt>
  <wpt lat="52.100367500000004" lon="-9.757541471352711">
    <ele>11.0</ele>
    <name>way/213510607</name>
    <desc>tourism=caravan_site; id=way/213510607</desc>
  </wpt>
  <wpt lat="51.46499895" lon="-9.755189453841718">
    <ele>7.0</ele>
    <name>Barley Cove Holiday Park</name>
    <desc>name=Barley Cove Holiday Park; tourism=caravan_site;
    url=https://kenneallyholidayhomes.ie; id=way/214174337</desc>
    <link href="https://kenneallyholidayhomes.ie"></link>
  </wpt>
  <wpt lat="52.681808950000004" lon="-9.642504922364708">
    <ele>10.0</ele>
    <name>way/215482227</name>
    <desc>tourism=caravan_site; id=way/215482227</desc>
  </wpt>
  <wpt lat="52.67956555" lon="-9.64123763493241">
    <ele>9.0</ele>
    <name>way/215482228</name>
    <desc>tourism=caravan_site; id=way/215482228</desc>
  </wpt>
  <wpt lat="52.6824253" lon="-9.641396819837635">
    <ele>12.0</ele>
    <name>way/215482229</name>
    <desc>tourism=caravan_site; id=way/215482229</desc>
  </wpt>
  <wpt lat="52.67528855" lon="-9.654856650854395">
    <ele>4.0</ele>
    <name>way/215482230</name>
    <desc>tourism=caravan_site; id=way/215482230</desc>
  </wpt>
  <wpt lat="52.6741645" lon="-9.647130300845694">
    <ele>16.0</ele>
    <name>way/215482231</name>
    <desc>tourism=caravan_site; id=way/215482231</desc>
  </wpt>
  <wpt lat="52.67587345" lon="-9.64741772526423">
    <ele>13.0</ele>
    <name>way/215482232</name>
    <desc>tourism=caravan_site; id=way/215482232</desc>
  </wpt>
  <wpt lat="52.6803733" lon="-9.643443724683854">
    <ele>13.0</ele>
    <name>way/215482233</name>
    <desc>tourism=caravan_site; id=way/215482233</desc>
  </wpt>
  <wpt lat="52.68015445" lon="-9.643274310251158">
    <ele>11.0</ele>
    <name>way/215482234</name>
    <desc>tourism=caravan_site; id=way/215482234</desc>
  </wpt>
  <wpt lat="52.81431665" lon="-9.460357182736978">
    <ele>9.0</ele>
    <name>way/217955409</name>
    <desc>tourism=caravan_site; id=way/217955409</desc>
  </wpt>
  <wpt lat="52.807608099999996" lon="-9.453736928364119">
    <ele>28.0</ele>
    <name>way/217955410</name>
    <desc>tourism=caravan_site; id=way/217955410</desc>
  </wpt>
  <wpt lat="52.70821775" lon="-6.178450004119719">
    <ele>8.0</ele>
    <name>way/219294796</name>
    <desc>tourism=caravan_site; id=way/219294796</desc>
  </wpt>
  <wpt lat="52.7101063" lon="-6.17290433726931">
    <ele>2.0</ele>
    <name>way/219294799</name>
    <desc>tourism=caravan_site; id=way/219294799</desc>
  </wpt>
  <wpt lat="52.7180044" lon="-6.174450570837779">
    <ele>9.0</ele>
    <name>way/219951760</name>
    <desc>tourism=caravan_site; id=way/219951760</desc>
  </wpt>
  <wpt lat="52.39878745" lon="-6.367201987043873">
    <ele>21.0</ele>
    <name>way/220250202</name>
    <desc>tourism=caravan_site; id=way/220250202</desc>
  </wpt>
  <wpt lat="52.39052675" lon="-6.37940472544634">
    <ele>21.0</ele>
    <name>way/220250211</name>
    <desc>tourism=caravan_site; id=way/220250211</desc>
  </wpt>
  <wpt lat="52.396844" lon="-6.393424732242172">
    <ele>41.0</ele>
    <name>way/220391544</name>
    <desc>tourism=caravan_site; id=way/220391544</desc>
  </wpt>
  <wpt lat="52.38293695" lon="-6.369812889111747">
    <ele>1.0</ele>
    <name>way/221095289</name>
    <desc>tourism=caravan_site; id=way/221095289</desc>
  </wpt>
  <wpt lat="52.387750100000005" lon="-6.379715008717229">
    <ele>25.0</ele>
    <name>way/221106882</name>
    <desc>tourism=caravan_site; id=way/221106882</desc>
  </wpt>
  <wpt lat="52.3870236" lon="-6.374933732083707">
    <ele>18.0</ele>
    <name>way/221106883</name>
    <desc>tourism=caravan_site; id=way/221106883</desc>
  </wpt>
  <wpt lat="52.3889524" lon="-6.370355781506092">
    <ele>9.0</ele>
    <name>way/221651724</name>
    <desc>tourism=caravan_site; id=way/221651724</desc>
  </wpt>
  <wpt lat="52.9034989" lon="-6.128018968587634">
    <ele>91.0</ele>
    <name>way/223267806</name>
    <desc>tourism=caravan_site; id=way/223267806</desc>
  </wpt>
  <wpt lat="52.28148885" lon="-7.989670947321426">
    <ele>53.0</ele>
    <name>Parson's Green</name>
    <desc>name=Parson's Green; tourism=caravan_site;
    id=way/223814718</desc>
  </wpt>
  <wpt lat="52.8806821" lon="-6.081751637910448">
    <ele>28.0</ele>
    <name>Hillview Caravan Park</name>
    <desc>name=Hillview Caravan Park; tourism=caravan_site;
    id=way/227520118</desc>
  </wpt>
  <wpt lat="52.85744895" lon="-6.094927027919269">
    <ele>26.0</ele>
    <name>way/227520120</name>
    <desc>tourism=caravan_site; id=way/227520120</desc>
  </wpt>
  <wpt lat="55.20364205" lon="-7.631789383588794">
    <ele>6.0</ele>
    <name>way/233368488</name>
    <desc>tourism=caravan_site; id=way/233368488</desc>
  </wpt>
  <wpt lat="55.2079763" lon="-7.627710303907984">
    <ele>11.0</ele>
    <name>Portsalon Camping</name>
    <desc>name=Portsalon Camping; tourism=caravan_site;
    id=way/233368494</desc>
  </wpt>
  <wpt lat="52.238663349999996" lon="-9.972236139559328">
    <ele>3.0</ele>
    <name>Green Acres Caravan Park</name>
    <desc>name=Green Acres Caravan Park; tourism=caravan_site;
    id=way/236059943</desc>
  </wpt>
  <wpt lat="52.23317755" lon="-9.92503540704864">
    <ele>3.0</ele>
    <name>way/236059945</name>
    <desc>tourism=caravan_site; id=way/236059945</desc>
  </wpt>
  <wpt lat="52.2320064" lon="-9.92928783490503">
    <ele>2.0</ele>
    <name>way/236059946</name>
    <desc>tourism=caravan_site; id=way/236059946</desc>
  </wpt>
  <wpt lat="52.244708700000004" lon="-9.985336932307607">
    <ele>5.0</ele>
    <name>Anchor Caravan Park</name>
    <desc>addr:city=Castlegregory; addr:place=Aughacasla;
    addr:postcode=V92 YD42; email=info@anchorcaravanpark.com;
    landuse=residential; name=Anchor Caravan Park;
    phone=+353-66-7139157; residential=trailer_park;
    tourism=caravan_site;
    website=https://www.anchorcaravanpark.com/;
    id=way/237323344</desc>
    <link href="https://www.anchorcaravanpark.com/"></link>
  </wpt>
  <wpt lat="53.1038183" lon="-7.903753679642069">
    <ele>48.0</ele>
    <name>Woodland Villas</name>
    <desc>addr:city=Birr; addr:street=Tullamore Road; name=Woodland
    Villas; tourism=caravan_site; id=way/237754727</desc>
  </wpt>
  <wpt lat="52.2699686" lon="-10.028131891250425">
    <ele>4.0</ele>
    <name>way/238164595</name>
    <desc>tourism=caravan_site; id=way/238164595</desc>
  </wpt>
  <wpt lat="52.24324695" lon="-9.978799911941906">
    <ele>5.0</ele>
    <name>The Warren Caravan &amp; Camping Park</name>
    <desc>name=The Warren Caravan &amp; Camping Park;
    tourism=caravan_site; id=way/238189601</desc>
  </wpt>
  <wpt lat="52.60377855" lon="-9.723572330116191">
    <ele>13.0</ele>
    <name>way/238555418</name>
    <desc>tourism=caravan_site; id=way/238555418</desc>
  </wpt>
  <wpt lat="53.701072350000004" lon="-6.247110189845506">
    <ele>2.0</ele>
    <name>Lynch's Caravan Park</name>
    <desc>addr:city=Mornington; layer=-1; name=Lynch's Caravan
    Park; source=Bing; tourism=caravan_site;
    id=way/243577604</desc>
  </wpt>
  <wpt lat="53.8994762" lon="-7.855638381937269">
    <ele>44.0</ele>
    <name>Lough Rynn Caravan park</name>
    <desc>fee=yes; name=Lough Rynn Caravan park; operator=Leitrim
    County Council; tourism=caravan_site; id=way/246031102</desc>
  </wpt>
  <wpt lat="52.2295911" lon="-9.938820403861557">
    <ele>3.0</ele>
    <name>way/254368122</name>
    <desc>residential=chalet_park; tourism=caravan_site;
    id=way/254368122</desc>
  </wpt>
  <wpt lat="51.957048" lon="-7.72144588096014">
    <ele>6.0</ele>
    <name>Ardmore Seaview Motorhome Park</name>
    <desc>alt_name=Dick's Field; caravans=no; motorhome=yes;
    name=Ardmore Seaview Motorhome Park; tents=no;
    tourism=caravan_site; id=way/260430225</desc>
  </wpt>
  <wpt lat="52.5231796" lon="-9.66931241322034">
    <ele>68.0</ele>
    <name>Pierce's Caravan Park</name>
    <desc>name=Pierce's Caravan Park; tourism=caravan_site;
    id=way/277012213</desc>
  </wpt>
  <wpt lat="52.51575545" lon="-9.669294671889041">
    <ele>39.0</ele>
    <name>way/277012216</name>
    <desc>tourism=caravan_site; id=way/277012216</desc>
  </wpt>
  <wpt lat="52.507347100000004" lon="-9.673792825263199">
    <ele>22.0</ele>
    <name>way/277012217</name>
    <desc>tourism=caravan_site; id=way/277012217</desc>
  </wpt>
  <wpt lat="52.5165672" lon="-9.676083928636237">
    <ele>35.0</ele>
    <name>way/277012219</name>
    <desc>tourism=caravan_site; id=way/277012219</desc>
  </wpt>
  <wpt lat="52.509216" lon="-9.678618476267632">
    <ele>15.0</ele>
    <name>way/277012224</name>
    <desc>tourism=caravan_site; id=way/277012224</desc>
  </wpt>
  <wpt lat="52.50595615" lon="-9.65375881956984">
    <ele>25.0</ele>
    <name>Parklands</name>
    <desc>name=Parklands; tourism=caravan_site;
    id=way/277012237</desc>
  </wpt>
  <wpt lat="52.5153374" lon="-9.67534672832295">
    <ele>36.0</ele>
    <name>way/277012244</name>
    <desc>tourism=caravan_site; id=way/277012244</desc>
  </wpt>
  <wpt lat="52.4992208" lon="-9.673325286848993">
    <ele>9.0</ele>
    <name>way/277012245</name>
    <desc>tourism=caravan_site; id=way/277012245</desc>
  </wpt>
  <wpt lat="52.50857455" lon="-9.661479348315293">
    <ele>26.0</ele>
    <name>McEnery's</name>
    <desc>name=McEnery's; tourism=caravan_site;
    id=way/277012264</desc>
  </wpt>
  <wpt lat="52.34567785" lon="-9.828422345851791">
    <ele>1.0</ele>
    <name>way/282891002</name>
    <desc>tourism=caravan_site; id=way/282891002</desc>
  </wpt>
  <wpt lat="52.3407799" lon="-9.8267528454761">
    <ele>2.0</ele>
    <name>Sir Roger's Campsite</name>
    <desc>name=Sir Roger's Campsite; tourism=caravan_site;
    wheelchair=yes; id=way/282891012</desc>
  </wpt>
  <wpt lat="53.020968800000006" lon="-6.61680812207769">
    <ele>175.0</ele>
    <name>Moat Farm Camping</name>
    <desc>drinking_water=yes; fee=yes; name=Moat Farm Camping;
    power_supply=yes; tourism=caravan_site; id=way/284858057</desc>
  </wpt>
  <wpt lat="52.27911295" lon="-10.02750886767127">
    <ele>6.0</ele>
    <name>Sandy bay</name>
    <desc>name=Sandy bay; tourism=caravan_site;
    id=way/284874160</desc>
  </wpt>
  <wpt lat="52.246912300000005" lon="-9.988518968577402">
    <ele>0.0</ele>
    <name>way/284874165</name>
    <desc>tourism=caravan_site; id=way/284874165</desc>
  </wpt>
  <wpt lat="52.30693945" lon="-9.84020935022172">
    <ele>1.0</ele>
    <name>way/284874168</name>
    <desc>tourism=caravan_site; wheelchair=yes;
    id=way/284874168</desc>
  </wpt>
  <wpt lat="52.2695566" lon="-10.030893164678535">
    <ele>4.0</ele>
    <name>way/284874169</name>
    <desc>tourism=caravan_site; id=way/284874169</desc>
  </wpt>
  <wpt lat="52.2806048" lon="-10.028187517823973">
    <ele>6.0</ele>
    <name>way/284874170</name>
    <desc>tourism=caravan_site; id=way/284874170</desc>
  </wpt>
  <wpt lat="52.28158205" lon="-10.026250391362124">
    <ele>6.0</ele>
    <name>way/284874172</name>
    <desc>tourism=caravan_site; id=way/284874172</desc>
  </wpt>
  <wpt lat="52.337711299999995" lon="-9.829358860960905">
    <ele>3.0</ele>
    <name>way/284874175</name>
    <desc>tourism=caravan_site; wheelchair=yes;
    id=way/284874175</desc>
  </wpt>
  <wpt lat="52.83976115" lon="-9.425728357451463">
    <ele>19.0</ele>
    <name>way/284975670</name>
    <desc>tourism=caravan_site; id=way/284975670</desc>
  </wpt>
  <wpt lat="54.011338699999996" lon="-9.991074948684844">
    <ele>5.0</ele>
    <name>Lavelle's</name>
    <desc>drinking_water=yes; fee=yes; name=Lavelle's;
    power_supply=yes; tourism=caravan_site; id=way/284983206</desc>
  </wpt>
  <wpt lat="54.55388295" lon="-8.205402964429775">
    <ele>11.0</ele>
    <name>way/285000080</name>
    <desc>tourism=caravan_site; wheelchair=yes;
    id=way/285000080</desc>
  </wpt>
  <wpt lat="53.995423599999995" lon="-8.079500643007872">
    <ele>43.0</ele>
    <name>Battlebridge Caravan &amp; Camping Park</name>
    <desc>addr:city=Leitrim; addr:street=Battle Bridge;
    name=Battlebridge Caravan &amp; Camping Park;
    phone=+353-71-9650824; tourism=caravan_site;
    website=https://battlebridgecaravanandcamping.ie/;
    id=way/285012551</desc>
    <link href="https://battlebridgecaravanandcamping.ie/"></link>
  </wpt>
  <wpt lat="53.86615615" lon="-8.602583294651037">
    <ele>81.0</ele>
    <name>way/285013025</name>
    <desc>tourism=caravan_site; id=way/285013025</desc>
  </wpt>
  <wpt lat="55.248107149999996" lon="-7.695929444498908">
    <ele>9.0</ele>
    <name>Eelburn Caravan Park</name>
    <desc>name=Eelburn Caravan Park; tourism=caravan_site;
    id=way/285057564</desc>
  </wpt>
  <wpt lat="53.907089799999994" lon="-9.182160646905057">
    <ele>13.0</ele>
    <name>Carrowkeel Camping Park</name>
    <desc>capacity:caravans=32; capacity:tents=26; caravans=yes;
    contact:facebook=https://www.facebook.com/Carrowkeel-Camping-Caravan-Park-149912928445565/;
    email=mail@carrowkeelpark.ie; internet_access=wlan;
    internet_access:fee=no; landuse=grass; name=Carrowkeel Camping
    Park; phone=+353-94-903-1264; power_supply=yes; shower=yes;
    tents=yes; tourism=caravan_site;
    website=http://www.carrowkeelpark.ie/; id=way/285193784</desc>
    <link href="http://www.carrowkeelpark.ie/"></link>
  </wpt>
  <wpt lat="53.84955105" lon="-9.312618041249523">
    <ele>33.0</ele>
    <name>Lough Lannagh Holiday Village</name>
    <desc>capacity=20; name=Lough Lannagh Holiday Village;
    power_supply=yes; sanitary_dump_station=yes; tents=yes;
    tourism=caravan_site; wheelchair=yes; id=way/285194633</desc>
  </wpt>
  <wpt lat="53.79914435" lon="-9.215364812886268">
    <ele>28.0</ele>
    <name>Carra Caravan Park</name>
    <desc>name=Carra Caravan Park; tourism=caravan_site;
    id=way/285198215</desc>
  </wpt>
  <wpt lat="53.6052611" lon="-9.983216621104477">
    <ele>3.0</ele>
    <name>Renvyle Beach Caravan &amp; Camping Park</name>
    <desc>caravans=yes; fee=yes; internet_access=yes;
    internet_access:fee=no; name=Renvyle Beach Caravan &amp;
    Camping Park; picnic_table=no; reservation=required; tents=yes;
    toilets=yes; tourism=caravan_site; id=way/285201802</desc>
  </wpt>
  <wpt lat="52.046911" lon="-9.45340442234453">
    <ele>71.0</ele>
    <name>Donoghue's White Villa Farm Caravan Park</name>
    <desc>name=Donoghue's White Villa Farm Caravan Park;
    tourism=caravan_site; id=way/285216498</desc>
  </wpt>
  <wpt lat="51.91049745" lon="-7.9243376408689326">
    <ele>3.0</ele>
    <name>way/285240570</name>
    <desc>tourism=caravan_site; id=way/285240570</desc>
  </wpt>
  <wpt lat="51.948276199999995" lon="-8.54582586673558">
    <ele>127.0</ele>
    <name>Blarney Caravan Camping Park</name>
    <desc>name=Blarney Caravan Camping Park; tourism=caravan_site;
    id=way/285245274</desc>
  </wpt>
  <wpt lat="53.01392305" lon="-6.926867797993632">
    <ele>72.0</ele>
    <name>Forest Farm Caravan and Camping</name>
    <desc>name=Forest Farm Caravan and Camping;
    tourism=caravan_site; id=way/285248453</desc>
  </wpt>
  <wpt lat="53.9883856" lon="-6.24406144741364">
    <ele>14.0</ele>
    <name>Gyles Quay Caravan and Camping Park</name>
    <desc>name=Gyles Quay Caravan and Camping Park;
    tourism=caravan_site; id=way/285252821</desc>
  </wpt>
  <wpt lat="54.06224520000001" lon="-8.300468779779202">
    <ele>59.0</ele>
    <name>Lough Arrow Touring Caravan Park</name>
    <desc>name=Lough Arrow Touring Caravan Park;
    tourism=caravan_site; id=way/286042375</desc>
  </wpt>
  <wpt lat="52.957019849999995" lon="-7.839487925422521">
    <ele>76.0</ele>
    <name>Streamstown Caravan and Camping Park</name>
    <desc>addr:city=Roscrea; addr:postcode=E53YX67;
    contact:facebook=https://www.facebook.com/streamstowncaravanandcampingpark;
    email=info@tipperarycaravanpark.com; fee=yes; name=Streamstown
    Caravan and Camping Park; phone=+353-505-21519;
    power_supply=yes; tourism=caravan_site;
    website=http://www.tipperarycaravanpark.com/; wheelchair=yes;
    id=way/286052146</desc>
    <link href="http://www.tipperarycaravanpark.com/"></link>
  </wpt>
  <wpt lat="51.73522665" lon="-9.566641620632499">
    <ele>30.0</ele>
    <name>way/286065992</name>
    <desc>tourism=caravan_site; id=way/286065992</desc>
  </wpt>
  <wpt lat="53.770507949999995" lon="-6.244665385236916">
    <ele>5.0</ele>
    <name>Port Oriel</name>
    <desc>name=Port Oriel; tourism=caravan_site;
    id=way/340681798</desc>
  </wpt>
  <wpt lat="52.05740545" lon="-9.956669567950101">
    <ele>5.0</ele>
    <name>way/398898278</name>
    <desc>tourism=caravan_site; id=way/398898278</desc>
  </wpt>
  <wpt lat="55.12298965" lon="-7.194656236274858">
    <ele>2.0</ele>
    <name>Quigley's Point</name>
    <desc>alt_name=Foyleside Caravan Point; name=Quigley's Point;
    source:alt_name=Mapillary; tourism=caravan_site;
    id=way/481794754</desc>
  </wpt>
  <wpt lat="53.4177467" lon="-10.159617191289435">
    <ele>8.0</ele>
    <name>way/496425759</name>
    <desc>tourism=caravan_site; id=way/496425759</desc>
  </wpt>
  <wpt lat="53.7739433" lon="-9.773511728589083">
    <ele>29.0</ele>
    <name>way/499548180</name>
    <desc>tourism=caravan_site; id=way/499548180</desc>
  </wpt>
  <wpt lat="53.7888506" lon="-6.238538169795262">
    <ele>18.0</ele>
    <name>way/621315503</name>
    <desc>tourism=caravan_site; id=way/621315503</desc>
  </wpt>
  <wpt lat="53.7874548" lon="-6.237393283699939">
    <ele>5.0</ele>
    <name>way/621315504</name>
    <desc>tourism=caravan_site; id=way/621315504</desc>
  </wpt>
  <wpt lat="52.38015115" lon="-9.829026060535654">
    <ele>2.0</ele>
    <name>way/624073736</name>
    <desc>tourism=caravan_site; id=way/624073736</desc>
  </wpt>
  <wpt lat="52.3835297" lon="-9.829161756055683">
    <ele>1.0</ele>
    <name>way/624073738</name>
    <desc>tourism=caravan_site; id=way/624073738</desc>
  </wpt>
  <wpt lat="52.38847605" lon="-9.825573961498296">
    <ele>5.0</ele>
    <name>way/624073741</name>
    <desc>tourism=caravan_site; id=way/624073741</desc>
  </wpt>
  <wpt lat="52.39076445" lon="-9.832219702022101">
    <ele>14.0</ele>
    <name>Casey's Caravan park</name>
    <desc>name=Casey's Caravan park; note=No camping - residents
    only; tourism=caravan_site; id=way/624073742</desc>
  </wpt>
  <wpt lat="53.4613972" lon="-6.227565025822701">
    <ele>26.0</ele>
    <name>way/654290104</name>
    <desc>addr:street=Rathbeale Road; tourism=caravan_site;
    id=way/654290104</desc>
  </wpt>
  <wpt lat="51.679889349999996" lon="-9.46092365577363">
    <ele>2.0</ele>
    <name>way/687985580</name>
    <desc>fee=yes; power_supply=yes; sanitary_dump_station=yes;
    surface=asphalt; tourism=caravan_site; id=way/687985580</desc>
  </wpt>
  <wpt lat="53.4746932" lon="-6.1257464324667374">
    <ele>5.0</ele>
    <name>Old Donabate Tennis Club field</name>
    <desc>name=Old Donabate Tennis Club field;
    tourism=caravan_site; id=way/717510844</desc>
  </wpt>
  <wpt lat="53.476702" lon="-6.124421965247631">
    <ele>5.0</ele>
    <name>Corballis Caravan Park</name>
    <desc>name=Corballis Caravan Park; tourism=caravan_site;
    id=way/717510845</desc>
  </wpt>
  <wpt lat="53.788996499999996" lon="-6.235472032299017">
    <ele>6.0</ele>
    <name>way/719668317</name>
    <desc>tourism=caravan_site; id=way/719668317</desc>
  </wpt>
  <wpt lat="52.136152949999996" lon="-7.305382229039522">
    <ele>23.0</ele>
    <name>way/780238735</name>
    <desc>tourism=caravan_site; id=way/780238735</desc>
  </wpt>
  <wpt lat="52.18352125" lon="-6.834283423056618">
    <ele>17.0</ele>
    <name>The Norman View Motorhome Park</name>
    <desc>addr:city=Fethard-on-Sea; addr:housename=Ramstown Farm;
    addr:postcode=Y34 VP08; capacity:motorhome=7; description=Seven
    places with power. 13 spaces with hard standing. Bikes for
    hire.; email=chapmanjoe321@yahoo.co.uk; internet_access=no;
    mobile=+353 87 2453687; motorhome=designated; name=The Norman
    View Motorhome Park; power_supply=yes;
    sanitary_dump_station=yes; tourism=caravan_site;
    website=http://www.thenormanview.com; id=way/799188880</desc>
    <link href="http://www.thenormanview.com"></link>
  </wpt>
  <wpt lat="51.852139199999996" lon="-10.172584338542954">
    <ele>21.0</ele>
    <name>way/813349528</name>
    <desc>tourism=caravan_site; id=way/813349528</desc>
  </wpt>
  <wpt lat="52.7136593" lon="-6.193036352664688">
    <ele>19.0</ele>
    <name>Ahare Park</name>
    <desc>name=Ahare Park; tourism=caravan_site;
    id=way/837593964</desc>
  </wpt>
  <wpt lat="52.469716149999996" lon="-6.310293550476354">
    <ele>60.0</ele>
    <name>way/852494957</name>
    <desc>tourism=caravan_site; id=way/852494957</desc>
  </wpt>
  <wpt lat="52.635967750000006" lon="-6.2719609145885915">
    <ele>44.0</ele>
    <name>way/865321117</name>
    <desc>tourism=caravan_site; id=way/865321117</desc>
  </wpt>
  <wpt lat="51.82354155" lon="-10.272780408619663">
    <ele>11.0</ele>
    <name>way/911157641</name>
    <desc>tourism=caravan_site; id=way/911157641</desc>
  </wpt>
  <wpt lat="51.67417225" lon="-9.473308340933464">
    <ele>22.0</ele>
    <name>way/915941404</name>
    <desc>tourism=caravan_site; id=way/915941404</desc>
  </wpt>
  <wpt lat="51.7570829" lon="-10.117907873534882">
    <ele>3.0</ele>
    <name>way/931963795</name>
    <desc>tourism=caravan_site; id=way/931963795</desc>
  </wpt>
  <wpt lat="52.51067465" lon="-9.67463688409159">
    <ele>25.0</ele>
    <name>way/944040288</name>
    <desc>tourism=caravan_site; id=way/944040288</desc>
  </wpt>
  <wpt lat="54.9495521" lon="-8.35786146717271">
    <ele>16.0</ele>
    <name>way/947492748</name>
    <desc>tents=no; tourism=caravan_site; id=way/947492748</desc>
  </wpt>
  <wpt lat="52.8852132" lon="-6.059584942068348">
    <ele>6.0</ele>
    <name>The Dunes Resort</name>
    <desc>name=The Dunes Resort; tourism=caravan_site;
    id=way/965336293</desc>
  </wpt>
  <wpt lat="54.6352707" lon="-8.646688315940573">
    <ele>49.0</ele>
    <name>way/970124675</name>
    <desc>tourism=caravan_site; id=way/970124675</desc>
  </wpt>
  <wpt lat="54.63557805" lon="-8.646194155430877">
    <ele>38.0</ele>
    <name>way/970124678</name>
    <desc>tourism=caravan_site; id=way/970124678</desc>
  </wpt>
  <wpt lat="53.2579887" lon="-9.103494309630106">
    <ele>12.0</ele>
    <name>O'Hallorans Caravan Park</name>
    <desc>
    contact:facebook=https://www.facebook.com/OHallorans-Caravan-Park-SalthillIreland-162875760413236/;
    contact:phone=+353 86 874 7422; name=O'Hallorans Caravan Park;
    tourism=caravan_site; wheelchair=yes; id=way/971629997</desc>
  </wpt>
  <wpt lat="52.19928645" lon="-6.36091627165232">
    <ele>6.0</ele>
    <name>way/979769605</name>
    <desc>tourism=caravan_site; id=way/979769605</desc>
  </wpt>
  <wpt lat="55.166055400000005" lon="-7.483163305324307">
    <ele>54.0</ele>
    <name>way/1029002288</name>
    <desc>tourism=caravan_site; id=way/1029002288</desc>
  </wpt>
  <wpt lat="53.4800111" lon="-6.115253661766307">
    <ele>10.0</ele>
    <name>way/1033574385</name>
    <desc>tourism=caravan_site; id=way/1033574385</desc>
  </wpt>
  <wpt lat="51.9240693" lon="-7.8727322077308255">
    <ele>6.0</ele>
    <name>way/1053552653</name>
    <desc>tourism=caravan_site; id=way/1053552653</desc>
  </wpt>
  <wpt lat="53.51751315" lon="-6.101169850294065">
    <ele>10.0</ele>
    <name>way/1058662474</name>
    <desc>tourism=caravan_site; id=way/1058662474</desc>
  </wpt>
  <wpt lat="53.51628855" lon="-6.10345449917979">
    <ele>7.0</ele>
    <name>way/1058662480</name>
    <desc>tourism=caravan_site; id=way/1058662480</desc>
  </wpt>
  <wpt lat="54.5591516" lon="-8.208308975492612">
    <ele>5.0</ele>
    <name>way/1061873444</name>
    <desc>tourism=caravan_site; id=way/1061873444</desc>
  </wpt>
  <wpt lat="52.63552225" lon="-9.495292123734874">
    <ele>4.0</ele>
    <name>https://kilrushmarina.ie/camper-van-pitch/</name>
    <desc>cabins=yes; capacity:caravans=10; charge=25 EUR; fee=yes;
    operator=Kilrush Marina; tourism=caravan_site;
    website=https://kilrushmarina.ie/camper-van-pitch/;
    id=way/1081840348</desc>
    <link href="https://kilrushmarina.ie/camper-van-pitch/"></link>
  </wpt>
  <wpt lat="53.70174045" lon="-6.253513644965343">
    <ele>3.0</ele>
    <name>way/1123982358</name>
    <desc>tourism=caravan_site; id=way/1123982358</desc>
  </wpt>
  <wpt lat="53.928770549999996" lon="-9.931486746929997">
    <ele>16.0</ele>
    <name>Safe Night Ireland</name>
    <desc>name=Safe Night Ireland; tourism=caravan_site;
    website=https://www.safenightsireland.com/location/achill-island-hotel/;
    id=way/1151092884</desc>
    <link href="https://www.safenightsireland.com/location/achill-island-hotel/">
    </link>
  </wpt>
  <wpt lat="53.831151899999995" lon="-7.919740289405753">
    <ele>41.0</ele>
    <name>Rooskey Caravan Park</name>
    <desc>internet_access=no; name=Rooskey Caravan Park;
    power_supply=yes; sanitary_dump_station=yes;
    tourism=caravan_site; id=way/1177558879</desc>
  </wpt>
  <wpt lat="52.17549465" lon="-6.589367618207544">
    <ele>11.0</ele>
    <name>Kilmore Quay Holiday Park</name>
    <desc>name=Kilmore Quay Holiday Park;
    sanitary_dump_station=yes; static_caravans=no; tents=no;
    tourism=caravan_site; id=way/1226202129</desc>
  </wpt>
  <wpt lat="52.086204949999996" lon="-7.567768941889266">
    <ele>4.0</ele>
    <name>way/1226564895</name>
    <desc>tourism=caravan_site; id=way/1226564895</desc>
  </wpt>
  <wpt lat="52.68028555" lon="-6.299157806024642">
    <ele>52.0</ele>
    <name>way/1288462034</name>
    <desc>capacity=4; fee=no; power_supply=no;
    sanitary_dump_station=yes; tourism=caravan_site;
    id=way/1288462034</desc>
  </wpt>
  <wpt lat="53.08397635" lon="-8.220498915350484">
    <ele>35.0</ele>
    <name>way/1290789288</name>
    <desc>capacity=18; fee=10€/24h; power_supply=yes;
    sanitary_dump_station=public; tourism=caravan_site;
    id=way/1290789288</desc>
  </wpt>
  <wpt lat="54.285178450000004" lon="-8.962986484057337">
    <ele>13.0</ele>
    <name>Easkey Camping Site</name>
    <desc>addr:street=Main Street;
    email=caravanparkeaskey@gmail.com; internet_access=wlan;
    name=Easkey Camping Site; phone=+353 876186866;
    tourism=caravan_site;
    website=https://easkey.ie/facilities/accomodation/easkey-caravan-park/;
    id=way/1322994267</desc>
    <link href="https://easkey.ie/facilities/accomodation/easkey-caravan-park/">
    </link>
  </wpt>
  <wpt lat="52.766067899999996" lon="-6.153657391776878">
    <ele>45.0</ele>
    <name>way/1323872058</name>
    <desc>tourism=caravan_site; id=way/1323872058</desc>
  </wpt>
  <wpt lat="52.7579187" lon="-6.145315206373066">
    <ele>18.0</ele>
    <name>Clogga Caravan Park</name>
    <desc>name=Clogga Caravan Park; tourism=caravan_site;
    id=way/1323872083</desc>
  </wpt>
  <wpt lat="52.76564675" lon="-6.149966874936348">
    <ele>36.0</ele>
    <name>Gleeson's Holiday Park</name>
    <desc>name=Gleeson's Holiday Park; tourism=caravan_site;
    id=way/1323872100</desc>
  </wpt>
  <wpt lat="52.85729505" lon="-6.217643456371826">
    <ele>73.0</ele>
    <name>way/1324193275</name>
    <desc>tourism=caravan_site; id=way/1324193275</desc>
  </wpt>
  <wpt lat="53.745565549999995" lon="-7.122371108402571">
    <ele>172.0</ele>
    <name>Loughcrew Megalithic Centre Camping &amp; Motorhome
    Stop</name>
    <desc>email=info@loughcrewmegalithiccentre; name=Loughcrew
    Megalithic Centre Camping &amp; Motorhome Stop;
    phone=+353867361948; source=bing; tourism=caravan_site;
    website=https://www.loughcrewmegalithiccentre.com/;
    id=way/1336526903</desc>
    <link href="https://www.loughcrewmegalithiccentre.com/"></link>
  </wpt>
  <wpt lat="53.7891617" lon="-6.241926205874829">
    <ele>19.0</ele>
    <name>way/1356405182</name>
    <desc>tourism=caravan_site; id=way/1356405182</desc>
  </wpt>
  <wpt lat="52.894301600000006" lon="-6.058834955999998">
    <ele>11.0</ele>
    <name>Millrace Holiday Park</name>
    <desc>capacity:cabins=yes; name=Millrace Holiday Park;
    tourism=caravan_site; id=way/1373420405</desc>
  </wpt>
  <wpt lat="52.890771150000006" lon="-6.060704690955476">
    <ele>7.0</ele>
    <name>way/1373491067</name>
    <desc>capacity:cabins=yes; tourism=caravan_site;
    id=way/1373491067</desc>
  </wpt>
  <wpt lat="52.89319715" lon="-6.05970273670995">
    <ele>16.0</ele>
    <name>Cara Park</name>
    <desc>capacity:cabins=yes; name=Cara Park;
    tourism=caravan_site; id=way/1373491068</desc>
  </wpt>
  <wpt lat="52.89206955" lon="-6.059282100204305">
    <ele>14.0</ele>
    <name>O'Driscoll's Caravan Site</name>
    <desc>capacity:cabins=yes; name=O'Driscoll's Caravan Site;
    tourism=caravan_site; id=way/1373491069</desc>
  </wpt>
  <wpt lat="54.0514139" lon="-6.19267481189436">
    <ele>18.0</ele>
    <name>Carlingford Marina Motorhome Aire Site</name>
    <desc>charge=15€; fee=yes; internet_access=no; name=Carlingford
    Marina Motorhome Aire Site; power_supply=no;
    sanitary_dump_station=yes; tourism=caravan_site;
    id=way/1420187864</desc>
  </wpt>
  <wpt lat="55.233245350000004" lon="-7.794710151403031">
    <ele>20.0</ele>
    <name>way/1421482046</name>
    <desc>tourism=caravan_site; id=way/1421482046</desc>
  </wpt>
</gpx>
