<?xml version="1.0" encoding="utf-8"?>
<gpx xmlns="http://www.topografix.com/GPX/1/1"
xmlns:xsi="http://www.w3.org/2001/XMLSchema-instance"
xsi:schemaLocation="http://www.topografix.com/GPX/1/1 http://www.topografix.com/GPX/1/1/gpx.xsd"
version="1.1" creator="togpx">
  <metadata>
    <copyright>
      <license>"osm3s": { "timestamp_osm_base":
      "2025-07-07T17:38:26Z", "timestamp_areas_base":
      "2025-07-07T15:06:26Z", "copyright": "The data included in
      this document is from www.openstreetmap.org. The data is made
      available under ODbL." } // SRTM: { Elevation data missing in
      OSM was added by the NASA Shuttle Radar Topography Mission as
      public release version, if available there. } // { Check for
      latest version of this file on:
      https://github.com/GpxFeed/campgrounds }</license>
    </copyright>
  </metadata>
  <wpt lat="54.1652883" lon="-4.4842802">
    <ele>71.0</ele>
    <name>node/283504272</name>
    <desc>amenity=fuel; brand=Ellan Vannin Fuels;
    id=node/283504272</desc>
  </wpt>
  <wpt lat="54.1705368" lon="-4.6391356">
    <ele>125.0</ele>
    <name>node/283504885</name>
    <desc>amenity=fuel; brand=EVF; mapillary=159041136419666;
    survey:date=2021-09-20; id=node/283504885</desc>
  </wpt>
  <wpt lat="54.1736529" lon="-4.4572329">
    <ele>77.0</ele>
    <name>Onchan</name>
    <desc>addr:city=Onchan; addr:country=IM; addr:housenumber=1;
    addr:postcode=IM3 1BA; addr:street=Onchan Main Road;
    amenity=fuel; brand=Corkills;
    contact:facebook=https://www.facebook.com/@corkillsgarageiom/;
    mapillary=422312739462222; survey:date=2021-09-24;
    id=node/283505240</desc>
  </wpt>
  <wpt lat="54.2232027" lon="-4.6890789">
    <ele>22.0</ele>
    <name>EVF</name>
    <desc>amenity=fuel; brand=Ellan Vannin Fuels; name=EVF;
    old_operator=Total; id=node/283510235</desc>
  </wpt>
  <wpt lat="54.3216619" lon="-4.3866897">
    <ele>7.0</ele>
    <name>Spar Ramsey</name>
    <desc>addr:city=Ramsey; addr:country=IM; addr:street=Parliament
    Square; amenity=fuel; brand=Ellan Vannin Fuels; name=Spar
    Ramsey; wheelchair=yes; id=node/283518410</desc>
  </wpt>
  <wpt lat="54.1698895" lon="-4.524387">
    <ele>29.0</ele>
    <name>Kaneens</name>
    <desc>amenity=fuel; brand=Kaneens; mapillary=3331704693723754;
    name=Kaneens; survey:date=2021-09-16; id=node/754041388</desc>
  </wpt>
  <wpt lat="54.3222012" lon="-4.3874927">
    <ele>6.0</ele>
    <name>node/10771295459</name>
    <desc>amenity=fuel; brand=Ellan Vannin Fuels;
    compressed_air=yes; id=node/10771295459; ; source=Bing;
    wheelchair=yes; id=way/289995299</desc>
  </wpt>
  <wpt lat="54.1494085" lon="-4.4893247">
    <ele>27.0</ele>
    <name>node/11439549919</name>
    <desc>amenity=fuel; id=node/11439549919</desc>
  </wpt>
  <wpt lat="54.1494527" lon="-4.4893131">
    <ele>27.0</ele>
    <name>node/11439549920</name>
    <desc>amenity=fuel; id=node/11439549920</desc>
  </wpt>
  <wpt lat="54.1494434" lon="-4.4892161">
    <ele>27.0</ele>
    <name>node/11439549921</name>
    <desc>amenity=fuel; id=node/11439549921</desc>
  </wpt>
  <wpt lat="54.1494002" lon="-4.4892299">
    <ele>27.0</ele>
    <name>Brown Bobby</name>
    <desc>amenity=fuel; brand=EVF; name=Brown Bobby; source=Isle of
    Man Government aerial imagery (2001);
    id=node/11439549922</desc>
  </wpt>
  <wpt lat="54.1493567" lon="-4.4892403">
    <ele>27.0</ele>
    <name>node/11439549923</name>
    <desc>amenity=fuel; id=node/11439549923</desc>
  </wpt>
  <wpt lat="54.16781145" lon="-4.470809143213186">
    <ele>71.0</ele>
    <name>EVF Todays Express</name>
    <desc>amenity=fuel; brand=EVF; building=retail;
    contact:facebook=https://www.facebook.com/profile.php?id=100057595743505;
    name=EVF Todays Express; operator=EVF; source=Isle of Man
    Government aerial imagery (2001); wheelchair=yes;
    id=way/59284181</desc>
  </wpt>
  <wpt lat="54.0778862" lon="-4.6541239418136024">
    <ele>8.0</ele>
    <name>S &amp; S Motors</name>
    <desc>addr:country=IM; addr:street=Alexandra Road;
    amenity=fuel; brand=EVF; building=yes;
    mapillary=239724341485506; name=S &amp; S Motors;
    postal_code=IM9 1TE; source=Isle of Man Government aerial
    imagery (2001); survey:date=2021-09-23;
    website=https://www.ssmotors.co.im/; wheelchair=yes;
    id=way/59760933</desc>
    <link href="https://www.ssmotors.co.im/"></link>
  </wpt>
  <wpt lat="54.0782167" lon="-4.6480651726151985">
    <ele>10.0</ele>
    <name>Station Garage</name>
    <desc>amenity=fuel; brand=Manx Petroleum;
    mapillary=1135679406911711; name=Station Garage; source=Isle of
    Man Government aerial imagery (2001); survey:date=2021-06-16;
    wheelchair=yes; id=way/60582674</desc>
  </wpt>
  <wpt lat="54.15318995" lon="-4.500887800000009">
    <ele>14.0</ele>
    <name>The Milestone</name>
    <desc>amenity=fuel; building=retail; name=The Milestone;
    source=Isle of Man Government aerial imagery (2001);
    id=way/60705612</desc>
  </wpt>
  <wpt lat="54.151446" lon="-4.4983169">
    <ele>18.0</ele>
    <name>way/103567087</name>
    <desc>amenity=fuel; building=yes; id=way/103567087</desc>
  </wpt>
  <wpt lat="54.2218344" lon="-4.6925162">
    <ele>17.0</ele>
    <name>Spar</name>
    <desc>addr:city=Peel; addr:country=IM; addr:housenumber=6;
    addr:postcode=IM5 1HQ; addr:street=Atholl Street; amenity=fuel;
    brand=Spar; brand:wikidata=Q610492; brand:wikipedia=en:Spar
    (retailer); building=yes; name=Spar; shop=convenience;
    website=https://www.spar.co.uk/store-locator/hal18989-spar-peel;
    wheelchair=yes; id=way/147183381</desc>
    <link href="https://www.spar.co.uk/store-locator/hal18989-spar-peel">
    </link>
  </wpt>
  <wpt lat="54.232011150000005" lon="-4.40644010037539">
    <ele>50.0</ele>
    <name>EVF</name>
    <desc>alt_name=Ellan Vannin Fuels; amenity=fuel; brand=EVF;
    mapillary=3920623684717330; name=EVF; source=Bing;
    survey:date=2020-10-02; id=way/233925089</desc>
  </wpt>
  <wpt lat="54.084958549999996" lon="-4.756038275525395">
    <ele>19.0</ele>
    <name>DGP Station Road Garage Ltd</name>
    <desc>amenity=fuel; building=yes; name=DGP Station Road Garage
    Ltd; phone=+44 1624 834454; source=Isle of Man Government
    aerial imagery (2001); id=way/279663189</desc>
  </wpt>
  <wpt lat="54.0850979" lon="-4.755850871510366">
    <ele>22.0</ele>
    <name>Spar</name>
    <desc>addr:city=Port Erin; addr:country=IM; addr:postcode=IM9
    6AB; addr:street=Station Road; amenity=fuel; brand=Spar;
    brand:wikidata=Q610492; brand:wikipedia=en:Spar (retailer);
    building=yes; name=Spar; phone=+44 1624 834454;
    shop=convenience; source=Isle of Man Government aerial imagery
    (2001);
    website=https://www.spar.co.uk/store-locator/hal26906-spar-port-erin;
    id=way/279663192</desc>
    <link href="https://www.spar.co.uk/store-locator/hal26906-spar-port-erin">
    </link>
  </wpt>
  <wpt lat="54.290244650000005" lon="-4.579946621941868">
    <ele>35.0</ele>
    <name>EVF</name>
    <desc>amenity=fuel; brand=Ellan Vannin Fuels;
    contact:facebook=https://www.facebook.com/profile.php?id=100063579248890;
    landuse=retail; name=EVF; old_name=Total;
    id=way/412956694</desc>
  </wpt>
  <wpt lat="54.0934587" lon="-4.630373244173088">
    <ele>29.0</ele>
    <name>Airport Garage</name>
    <desc>addr:city=Ballasalla; addr:country=IM; addr:postcode=IM9
    2AN; addr:street=Douglas Road; amenity=fuel; brand=Manx
    Petroleum; mapillary=283733273359253; name=Airport Garage;
    self_service=yes; source=Isle of Man Government aerial imagery
    (2001),Bing; survey:date=2021-09-23; id=way/1148813493</desc>
  </wpt>
  <wpt lat="54.15601465" lon="-4.491217794584664">
    <ele>55.0</ele>
    <name>Wessex Garage</name>
    <desc>amenity=fuel; brand=EVF; building=yes;
    mapillary=6794317793915494; name=Wessex Garage;
    survey:date=2021-09-24; id=way/1197505147</desc>
  </wpt>
</gpx>
