<?xml version="1.0" encoding="utf-8"?>
<gpx xmlns="http://www.topografix.com/GPX/1/1"
xmlns:xsi="http://www.w3.org/2001/XMLSchema-instance"
xsi:schemaLocation="http://www.topografix.com/GPX/1/1 http://www.topografix.com/GPX/1/1/gpx.xsd"
version="1.1" creator="togpx">
  <metadata>
    <copyright>
      <license>"osm3s": { "timestamp_osm_base":
      "2026-01-01T23:45:09Z", "timestamp_areas_base":
      "2026-01-01T18:32:00Z", "copyright": "The data included in
      this document is from www.openstreetmap.org. The data is made
      available under ODbL." } // SRTM: { Elevation data missing in
      OSM was added by the NASA Shuttle Radar Topography Mission as
      public release version, if available there. } // { Check for
      latest version of this file on:
      https://github.com/GpxFeed/campgrounds }</license>
    </copyright>
  </metadata>
  <wpt lat="38.9638571" lon="8.6008964">
    <ele>0.0</ele>
    <name>Sardegna</name>
    <desc>fee=yes; name=Sardegna; name:ca=Sardenya;
    tourism=caravan_site; wheelchair=yes; id=node/26860543</desc>
  </wpt>
  <wpt lat="43.2647711" lon="13.3462497">
    <ele>316.0</ele>
    <name>node/468761259</name>
    <desc>caravans=yes; tents=no; tourism=caravan_site;
    id=node/468761259</desc>
  </wpt>
  <wpt lat="45.0413375" lon="6.985042">
    <ele>1408.0</ele>
    <name>Magic Forest</name>
    <desc>name=Magic Forest; tourism=caravan_site;
    id=node/489568766</desc>
  </wpt>
  <wpt lat="40.3369114" lon="9.5262597">
    <ele>195.0</ele>
    <name>Agricamper Iloghe</name>
    <desc>name=Agricamper Iloghe; opening_hours=24/7;
    tourism=caravan_site; id=node/563303857</desc>
  </wpt>
  <wpt lat="44.6252956" lon="10.1009027">
    <ele>390.0</ele>
    <name>area bardone</name>
    <desc>amenity=parking; area=yes; caravans=yes; name=area
    bardone; power_supply=yes; service=parking_aisle; tents=no;
    toll=yes; tourism=caravan_site; id=way/119392785; ;
    id=node/767502713</desc>
  </wpt>
  <wpt lat="40.8434935" lon="17.4634619">
    <ele>0.0</ele>
    <name>node/768033306</name>
    <desc>tourism=caravan_site; id=node/768033306</desc>
  </wpt>
  <wpt lat="44.6975214" lon="7.1600662">
    <ele>1326.0</ele>
    <name>Area Camper Crissolo</name>
    <desc>name=Area Camper Crissolo; tourism=caravan_site;
    id=node/798769543</desc>
  </wpt>
  <wpt lat="41.8321056" lon="14.264575">
    <ele>1393.0</ele>
    <name>node/806691335</name>
    <desc>tourism=caravan_site; id=node/806691335</desc>
  </wpt>
  <wpt lat="40.6066441" lon="8.274823">
    <ele>14.0</ele>
    <name>I Platani</name>
    <desc>name=I Platani; tourism=caravan_site;
    id=node/808434030</desc>
  </wpt>
  <wpt lat="46.0362804" lon="9.0516935">
    <ele>618.0</ele>
    <name>Camping San Rocco</name>
    <desc>drinking_water=yes; fee=yes; name=Camping San Rocco;
    power_supply=yes; sanitary_dump_station=yes; toilets=yes;
    tourism=caravan_site; id=node/886376734</desc>
  </wpt>
  <wpt lat="43.3095188" lon="13.3130018">
    <ele>322.0</ele>
    <name>node/894609696</name>
    <desc>capacity=2; tourism=caravan_site;
    id=node/894609696</desc>
  </wpt>
  <wpt lat="45.5618416" lon="7.9571869">
    <ele>787.0</ele>
    <name>Santuario di Graglia</name>
    <desc>caravan_site=motorhome_stopover;
    caravan_site:type=castle; fee=no; name=Santuario di Graglia;
    picnic_table=yes; power_supply=no; sanitary_dump_station=yes;
    surface=paved; tourism=caravan_site; id=node/901178327</desc>
  </wpt>
  <wpt lat="40.6702034" lon="15.1177201">
    <ele>416.0</ele>
    <name>node/1232580798</name>
    <desc>tourism=caravan_site; id=node/1232580798</desc>
  </wpt>
  <wpt lat="46.1651669" lon="12.0601151">
    <ele>422.0</ele>
    <name>Area camper Pian Falcina</name>
    <desc>capacity=12; charge=10 EUR/24 hour; fee=yes; maxstay=72
    hours; name=Area camper Pian Falcina; tourism=caravan_site;
    id=node/1261121989</desc>
  </wpt>
  <wpt lat="40.2341792" lon="14.9540837">
    <ele>8.0</ele>
    <name>node/1314898865</name>
    <desc>tourism=caravan_site; id=node/1314898865</desc>
  </wpt>
  <wpt lat="46.3083259" lon="11.8830751">
    <ele>1331.0</ele>
    <name>Parcheggio Mandra ai Lach</name>
    <desc>access=yes; bbq=yes; capacity=50; capacity:disabled=1;
    caravan_site=motorhome_stopover; caravan_site:type=mountains;
    charge=10 EUR/24 hours; fee=yes; name=Parcheggio Mandra ai
    Lach; operator=Comune di Canale d'Agordo; payment:cash=yes;
    picnic_table=yes; seasonal=no; supervised=no;
    surface=grass_paver; tourism=caravan_site;
    id=node/1385118010</desc>
  </wpt>
  <wpt lat="43.1412581" lon="13.1905653">
    <ele>300.0</ele>
    <name>Valleverde</name>
    <desc>fee=yes; name=Valleverde; power_supply=yes; stars=2;
    tents=no; tourism=caravan_site; id=node/1397057861</desc>
  </wpt>
  <wpt lat="46.9454793" lon="12.0637982">
    <ele>1536.0</ele>
    <name>Parkplatz Rein</name>
    <desc>capacity=4; drinking_water=yes; fee=yes; name=Parkplatz
    Rein; power_supply=no; sanitary_dump_station=yes; toilets=yes;
    tourism=caravan_site; id=node/1433492147</desc>
  </wpt>
  <wpt lat="40.094408" lon="15.3590932">
    <ele>57.0</ele>
    <name>node/1702523265</name>
    <desc>tourism=caravan_site; id=node/1702523265</desc>
  </wpt>
  <wpt lat="43.4549659" lon="11.0359973">
    <ele>215.0</ele>
    <name>Stellplatz Via di Castell San Gimignano</name>
    <desc>name=Stellplatz Via di Castell San Gimignano;
    tourism=caravan_site; id=node/1719004738</desc>
  </wpt>
  <wpt lat="41.5438898" lon="12.9891393">
    <ele>211.0</ele>
    <name>Area sosta camper Sermoneta</name>
    <desc>name=Area sosta camper Sermoneta; tourism=caravan_site;
    id=node/1737020057</desc>
  </wpt>
  <wpt lat="43.731457" lon="11.3008098">
    <ele>89.0</ele>
    <name>Area sosta Bagno a Ripoli</name>
    <desc>addr:city=Bagno a Ripoli; addr:postcode=50012;
    addr:street=Via di Belmonte; name=Area sosta Bagno a Ripoli;
    phone=+39 389 2133687; power_supply=no;
    sanitary_dump_station=no; tourism=caravan_site;
    id=node/1753752119</desc>
  </wpt>
  <wpt lat="44.6246898" lon="8.8428088">
    <ele>333.0</ele>
    <name>Area sosta camper Voltaggio</name>
    <desc>fee=no; name=Area sosta camper Voltaggio;
    sanitary_dump_station=yes; tents=no; tourism=caravan_site;
    water_point=yes; id=node/1757386371</desc>
  </wpt>
  <wpt lat="39.3717252" lon="8.3829496">
    <ele>17.0</ele>
    <name>node/1786340415</name>
    <desc>power_supply=no; sanitary_dump_station=no;
    tourism=caravan_site; id=node/1786340415</desc>
  </wpt>
  <wpt lat="40.921469" lon="8.7917721">
    <ele>18.0</ele>
    <name>Area Camper Punto Maragnani</name>
    <desc>charge=20€/24h; fee=yes; motorhome=designated; name=Area
    Camper Punto Maragnani; phone=+39 349 612 4675, +39 079 584
    9030; power_supply=yes; tourism=caravan_site;
    website=http://web.tiscali.it/areacampermaragnani/;
    id=node/1821619713</desc>
    <link href="http://web.tiscali.it/areacampermaragnani/"></link>
  </wpt>
  <wpt lat="41.768209" lon="13.9510438">
    <ele>981.0</ele>
    <name>Parcheggio Oasi del Lago</name>
    <desc>addr:city=Civitella Alfedena; addr:street=Via della
    Vittoria; name=Parcheggio Oasi del Lago;
    sanitary_dump_station=yes; tourism=caravan_site;
    id=node/1837579605</desc>
  </wpt>
  <wpt lat="43.4660512" lon="13.5558699">
    <ele>150.0</ele>
    <name>node/1873713537</name>
    <desc>capacity=3; fee=no; maxstay=48 hours;
    sanitary_dump_station=yes; toilets=no; tourism=caravan_site;
    water_point=yes; id=node/1873713537</desc>
  </wpt>
  <wpt lat="44.0617724" lon="11.8459127">
    <ele>214.0</ele>
    <name>node/1921463991</name>
    <desc>tourism=caravan_site; id=node/1921463991</desc>
  </wpt>
  <wpt lat="40.4146581" lon="15.0041828">
    <ele>14.0</ele>
    <name>node/2056326188</name>
    <desc>tourism=caravan_site; id=node/2056326188</desc>
  </wpt>
  <wpt lat="40.8696795" lon="14.1216775">
    <ele>64.0</ele>
    <name>node/2062991728</name>
    <desc>tourism=caravan_site; id=node/2062991728</desc>
  </wpt>
  <wpt lat="43.5007029" lon="10.3216876">
    <ele>11.0</ele>
    <name>node/2078455523</name>
    <desc>fee=no; power_supply=no; tents=no; tourism=caravan_site;
    water_point=no; id=node/2078455523</desc>
  </wpt>
  <wpt lat="44.1230403" lon="10.3996619">
    <ele>309.0</ele>
    <name>node/2087784021</name>
    <desc>tourism=caravan_site; id=node/2087784021</desc>
  </wpt>
  <wpt lat="44.2199157" lon="10.3527976">
    <ele>1182.0</ele>
    <name>Casini di Corte</name>
    <desc>caravan_site=motorhome_stopover;
    caravan_site:type=countryside; fee=yes; name=Casini di Corte;
    sanitary_dump_station=yes; surface=grass; tourism=caravan_site;
    water_point=yes; id=node/2131226559</desc>
  </wpt>
  <wpt lat="43.3429707" lon="13.5708399">
    <ele>249.0</ele>
    <name>node/2195746370</name>
    <desc>tourism=caravan_site; id=node/2195746370</desc>
  </wpt>
  <wpt lat="43.7059034" lon="10.5000752">
    <ele>6.0</ele>
    <name>node/2283466746</name>
    <desc>tourism=caravan_site; id=node/2283466746</desc>
  </wpt>
  <wpt lat="45.5529782" lon="12.068453">
    <ele>13.0</ele>
    <name>node/2301689132</name>
    <desc>tourism=caravan_site; id=node/2301689132</desc>
  </wpt>
  <wpt lat="42.8303963" lon="12.068491">
    <ele>460.0</ele>
    <name>node/2333671670</name>
    <desc>tourism=caravan_site; id=node/2333671670</desc>
  </wpt>
  <wpt lat="42.3302477" lon="11.5780254">
    <ele>0.0</ele>
    <name>node/2339513878</name>
    <desc>tourism=caravan_site; id=node/2339513878</desc>
  </wpt>
  <wpt lat="43.1502851" lon="10.7364622">
    <ele>121.0</ele>
    <name>Agriturismo Tenuta Sant'Agnese</name>
    <desc>capacity=20; fee=yes; name=Agriturismo Tenuta
    Sant'Agnese; phone=+39 333 4875065; power_supply=yes;
    tourism=caravan_site; website=http://www.agrisantagnese.it/;
    id=node/2440193433</desc>
    <link href="http://www.agrisantagnese.it/"></link>
  </wpt>
  <wpt lat="40.671167" lon="16.631491">
    <ele>417.0</ele>
    <name>Radogna Camp</name>
    <desc>description=Contrada Murgia Timone presso Jazzo Gattini
    centro visite del Parco della Murgia Materana, Acqua Pozzetto
    Elettricità Servizi igienici Bar Servizio navetta Si cani
    Aperta tutto l'anno; dog=yes; email=info@ceamatera.it;
    name=Radogna Camp; phone=+39 320 2636528; power_supply=yes;
    sanitary_dump_station=yes; shower=hot; toilets=yes;
    tourism=caravan_site;
    website=https://www.ceamatera.it/promozioni/matera-in-camper/;
    id=node/2523697532</desc>
    <link href="https://www.ceamatera.it/promozioni/matera-in-camper/">
    </link>
  </wpt>
  <wpt lat="45.7385693" lon="7.4898925">
    <ele>510.0</ele>
    <name>Parcheggio Castello di Fénis</name>
    <desc>alt_name=Comtes de Challand; capacity=5;
    caravan_site=motorhome_stopover;
    caravan_site:type=castle,parking_lot; fee=yes; name=Parcheggio
    Castello di Fénis; power_supply=no; sanitary_dump_station=no;
    surface=asphalt; toilets=yes; tourism=caravan_site;
    water_point=no; id=node/2544568500</desc>
  </wpt>
  <wpt lat="46.6412052" lon="11.5722192">
    <ele>522.0</ele>
    <name>Gamp</name>
    <desc>capacity=20; caravan_site=motorhome_stopover;
    caravan_site:type=town; fee=yes; name=Gamp; phone=+39 0472
    847425; tourism=caravan_site;
    website=https://www.camping-gamp.com/;
    id=node/2606284204</desc>
    <link href="https://www.camping-gamp.com/"></link>
  </wpt>
  <wpt lat="46.1725526" lon="13.3176">
    <ele>171.0</ele>
    <name>Punto Sosta</name>
    <desc>capacity=5; fee=no; name=Punto Sosta; picnic_area=yes;
    power_supply=no; sanitary_dump_station=yes;
    tourism=caravan_site; water_supply=yes;
    id=node/2639475232</desc>
  </wpt>
  <wpt lat="43.5252827" lon="13.3858306">
    <ele>60.0</ele>
    <name>Polverigi</name>
    <desc>fee=no; name=Polverigi; operator=Comune;
    sanitary_dump_station=yes; tourism=caravan_site;
    water_point=yes; water_point:description=diametro sconosciuto;
    id=node/2761559605</desc>
  </wpt>
  <wpt lat="45.8119043" lon="7.5890638">
    <ele>1033.0</ele>
    <name>Area Attrezzata Camper a Pagamento</name>
    <desc>name=Area Attrezzata Camper a Pagamento;
    tourism=caravan_site; id=node/2761632664</desc>
  </wpt>
  <wpt lat="45.9040517" lon="11.0370081">
    <ele>183.0</ele>
    <name>Area sosta camper Holiday Camper Club</name>
    <desc>access=private; fee=yes; name=Area sosta camper Holiday
    Camper Club; sanitary_dump_station=yes; tourism=caravan_site;
    id=node/2841347980</desc>
  </wpt>
  <wpt lat="46.0091712" lon="8.2921932">
    <ele>222.0</ele>
    <name>https://www.castellodivogogna.it/info-utili/</name>
    <desc>caravan_site=motorhome_stopover;
    caravan_site:type=parking_lot,village; power_supply=yes;
    tourism=caravan_site;
    website=https://www.castellodivogogna.it/info-utili/;
    id=node/2921097259</desc>
    <link href="https://www.castellodivogogna.it/info-utili/">
    </link>
  </wpt>
  <wpt lat="45.3871771" lon="7.7577352">
    <ele>372.0</ele>
    <name>Piazzale Villalfonsina</name>
    <desc>fee=no; name=Piazzale Villalfonsina; power_supply=no;
    tents=no; tourism=caravan_site; id=node/2947383547</desc>
  </wpt>
  <wpt lat="45.6265181" lon="7.0625207">
    <ele>1651.0</ele>
    <name>Area camper Mondanges</name>
    <desc>fee=yes; internet_access=no; name=Area camper Mondanges;
    power_supply=yes; tents=no; tourism=caravan_site;
    id=node/2954245215</desc>
  </wpt>
  <wpt lat="43.9761532" lon="10.5409007">
    <ele>88.0</ele>
    <name>Borgo a Mozzano</name>
    <desc>name=Borgo a Mozzano; tourism=caravan_site;
    water=charge,discharge; id=node/3063142892</desc>
  </wpt>
  <wpt lat="46.1953592" lon="11.6787837">
    <ele>827.0</ele>
    <name>Area Sosta Camper Caoria</name>
    <desc>currency:EUR=yes; internet_access=no; name=Area Sosta
    Camper Caoria; power_supply=yes; sanitary_dump_station=yes;
    tourism=caravan_site; id=node/3075526096</desc>
  </wpt>
  <wpt lat="44.1655253" lon="7.5514491">
    <ele>1362.0</ele>
    <name>Area sosta camper Limonetto</name>
    <desc>caravans=no; maxstay=72 hours; name=Area sosta camper
    Limonetto; surface=gravel; tents=no; tourism=caravan_site;
    id=node/3102793569</desc>
  </wpt>
  <wpt lat="42.8755127" lon="12.0463245">
    <ele>247.0</ele>
    <name>Piazzale F. Parri</name>
    <desc>fee=no; internet_access=wlan; internet_access:fee=no;
    name=Piazzale F. Parri; power_supply=no; tents=no;
    tourism=caravan_site;
    website=http://www.comune.orvieto.tr.it/i/39D10794.htm;
    id=node/3106192096</desc>
    <link href="http://www.comune.orvieto.tr.it/i/39D10794.htm">
    </link>
  </wpt>
  <wpt lat="42.8758702" lon="12.039237">
    <ele>235.0</ele>
    <name>Caravan Service</name>
    <desc>name=Caravan Service; tourism=caravan_site;
    id=node/3136803624</desc>
  </wpt>
  <wpt lat="40.9860112" lon="16.4333226">
    <ele>471.0</ele>
    <name>node/3419925748</name>
    <desc>tourism=caravan_site; id=node/3419925748</desc>
  </wpt>
  <wpt lat="39.3373176" lon="17.1093533">
    <ele>15.0</ele>
    <name>node/3672581613</name>
    <desc>fee=yes; power_supply=yes; sanitary_dump_station=yes;
    tourism=caravan_site; id=node/3672581613</desc>
  </wpt>
  <wpt lat="46.48726" lon="12.8693714">
    <ele>572.0</ele>
    <name>Casa del ciclista</name>
    <desc>name=Casa del ciclista; phone=+39 0433 67306;
    tourism=caravan_site; website=http://campeggiospin.it;
    id=node/3741787580</desc>
    <link href="http://campeggiospin.it"></link>
  </wpt>
  <wpt lat="45.8314542" lon="9.4080048">
    <ele>204.0</ele>
    <name>Area Sosta Camper Lecco</name>
    <desc>caravan_site=motorhome_stopover;
    caravan_site:type=lake,parking_lot,town; internet_access=no;
    name=Area Sosta Camper Lecco; power_supply=no;
    sanitary_dump_station=yes; sanitary_dump_station:fee=no;
    seasonal=no; tourism=caravan_site; water_point=yes;
    water_point:fee=no; id=node/3778005702</desc>
  </wpt>
  <wpt lat="45.4528843" lon="11.3785293">
    <ele>46.0</ele>
    <name>Area sosta camper Montebello Vicentino</name>
    <desc>capacity=4; caravan_site=motorhome_stopover;
    caravan_site:type=parking_lot,village; fee=yes; name=Area sosta
    camper Montebello Vicentino; sanitary_dump_station=yes;
    seasonal=no; surface=asphalt; tourism=caravan_site;
    water_point=yes; id=node/3780636712</desc>
  </wpt>
  <wpt lat="43.4044753" lon="12.9768222">
    <ele>213.0</ele>
    <name>Area Sosta Genga</name>
    <desc>capacity=6; email=grotte@frasassi.com; fee=no;
    internet_access=no; maxstay=48 hours; name=Area Sosta Genga;
    opening_hours=Jan-Dec; permanent_camping=no; phone=+39 0732
    90090; power_supply=yes; sanitary_dump_station=yes;
    toilets=yes; tourism=caravan_site; water_point=yes;
    id=node/3782216476</desc>
  </wpt>
  <wpt lat="42.7595355" lon="13.209478">
    <ele>1486.0</ele>
    <name>Colle le Cese</name>
    <desc>name=Colle le Cese; tourism=caravan_site;
    id=node/3789315050</desc>
  </wpt>
  <wpt lat="42.7860706" lon="13.2591844">
    <ele>1556.0</ele>
    <name>sosta Forca di Presta</name>
    <desc>name=sosta Forca di Presta; tourism=caravan_site;
    id=node/3789327403</desc>
  </wpt>
  <wpt lat="43.629962" lon="13.388667">
    <ele>20.0</ele>
    <name>node/3829827354</name>
    <desc>tourism=caravan_site; id=node/3829827354</desc>
  </wpt>
  <wpt lat="44.9210178" lon="8.6265406">
    <ele>90.0</ele>
    <name>Alessandria</name>
    <desc>addr:city=Alessandria; addr:postcode=15121;
    addr:street=Viale Teresa Michel;
    caravan_site=motorhome_stopover;
    caravan_site:type=city,parking_lot; caravans=no; fee=no;
    power_supply=no; sanitary_dump_station=yes; seasonal=no;
    tourism=caravan_site; water_point=yes;
    id=node/4040489167</desc>
  </wpt>
  <wpt lat="37.815978" lon="15.2546186">
    <ele>21.0</ele>
    <name>Villaggio Alkantara</name>
    <desc>name=Villaggio Alkantara; tourism=caravan_site;
    id=node/4047542622</desc>
  </wpt>
  <wpt lat="40.7327317" lon="17.5816345">
    <ele>187.0</ele>
    <name>node/4202374330</name>
    <desc>charge=2.25€; fee=yes; sanitary_dump_station=yes;
    tourism=caravan_site; id=node/4202374330</desc>
  </wpt>
  <wpt lat="41.3617401" lon="15.3063094">
    <ele>393.0</ele>
    <name>Area attrezzata comunale Campo Fiera</name>
    <desc>addr:city=Troia; addr:postcode=71029; addr:street=Via
    Campo Fiera; fee=no; name=Area attrezzata comunale Campo Fiera;
    power_supply=yes; sanitary_dump_station=yes; shower=no;
    socket:cee_blue=yes; toilets=yes; tourism=caravan_site;
    id=node/4202792151</desc>
  </wpt>
  <wpt lat="42.8521919" lon="13.5823482">
    <ele>158.0</ele>
    <name>Parcheggio Seminario</name>
    <desc>charge=3 EUR; fee=yes; name=Parcheggio Seminario;
    phone=+39 0736 255472; power_supply=yes; power_supply:charge=3
    EUR; power_supply:fee=yes; sanitary_dump_station=no;
    tourism=caravan_site;
    website=https://www.parcheggioseminario.it/;
    id=node/4202944566</desc>
    <link href="https://www.parcheggioseminario.it/"></link>
  </wpt>
  <wpt lat="44.3780284" lon="12.2349835">
    <ele>-3.0</ele>
    <name>node/4202998338</name>
    <desc>charge=2.25€; drinking_water=yes; fee=yes;
    internet_access=no; name:signed=no; power_supply=no;
    sanitary_dump_station=yes; toilets=no; tourism=caravan_site;
    wheelchair=yes; id=node/4202998338</desc>
  </wpt>
  <wpt lat="46.2559815" lon="13.2832354">
    <ele>616.0</ele>
    <name>Villanova delle Grotte</name>
    <desc>capacity=3; caravan_site=motorhome_stopover;
    caravan_site:type=cave; name=Villanova delle Grotte;
    sanitary_dump_station=yes; tents=no; tourism=caravan_site;
    id=node/4214947071</desc>
  </wpt>
  <wpt lat="38.5629307" lon="14.8695101">
    <ele>80.0</ele>
    <name>node/4266193501</name>
    <desc>tourism=caravan_site; id=node/4266193501</desc>
  </wpt>
  <wpt lat="46.5388603" lon="10.1644648">
    <ele>2209.0</ele>
    <name>Trepalle</name>
    <desc>caravan_site=motorhome_stopover;
    caravan_site:type=mountains,skiing; charge=15.00 EUR; fee=yes;
    fee:conditional=yes @ 20:00-08:00; maxstay=72 hours;
    name=Trepalle; power_supply=no; sanitary_dump_station=yes;
    tourism=caravan_site; water_point=yes;
    id=node/4349631291</desc>
  </wpt>
  <wpt lat="45.775459" lon="10.8143695">
    <ele>65.0</ele>
    <name>Parcheggio Retelino</name>
    <desc>capacity=6; caravan_site=motorhome_stopover;
    caravan_site:type=harbour,parking_lot; charge=72 EUR/24 hours;
    description=camper rates for height&gt;2.5; fee=yes;
    name=Parcheggio Retelino; opening_hours=24/7; power_supply=no;
    sanitary_dump_station=no; tourism=caravan_site;
    website=https://www.visitmalcesine.com/en/poi/parcheggio-retelino;
    id=node/4349642389</desc>
    <link href="https://www.visitmalcesine.com/en/poi/parcheggio-retelino">
    </link>
  </wpt>
  <wpt lat="45.0286379" lon="7.6405374">
    <ele>248.0</ele>
    <name>Caio Mario parking area</name>
    <desc>capacity=60; caravan_site=motorhome_stopover;
    caravan_site:type=city; charge=18 EUR/24 hours; fee=yes;
    name=Caio Mario parking area; payment:cash=yes;
    payment:credit_cards=yes; payment:debit_cards=yes;
    power_supply=yes; sanitary_dump_station=yes;
    socket:cee_blue=yes; tourism=caravan_site;
    url=https://www.gtt.to.it/cms/parcheggi/31-barriera/rotazione/1630-caio-mario#camper;
    wheelchair=yes; id=node/4401669662</desc>
    <link href="https://www.gtt.to.it/cms/parcheggi/31-barriera/rotazione/1630-caio-mario#camper">
    </link>
  </wpt>
  <wpt lat="46.0162105" lon="13.3931325">
    <ele>89.0</ele>
    <name>node/4403910000</name>
    <desc>capacity=10; caravans=no; fee=no; opening_hours=Jan-Dec;
    playground=no; power_supply=yes; sanitary_dump_station=yes;
    shower=no; tents=no; toilets=no; tourism=caravan_site;
    water_point=yes; id=node/4403910000</desc>
  </wpt>
  <wpt lat="46.2761067" lon="13.1375048">
    <ele>240.0</ele>
    <name>Sosta camper Gemona del Friuli</name>
    <desc>capacity=15; caravan_site=motorhome_stopover;
    caravan_site:type=parking_lot,town; fee=no; name=Sosta camper
    Gemona del Friuli; opening_hours=Jan-Dec; playground=no;
    power_supply=no; sanitary_dump_station=yes; seasonal=no;
    surface=paving_stones; toilets=no; tourism=caravan_site;
    water_point=yes; id=node/4407799701</desc>
  </wpt>
  <wpt lat="46.2345428" lon="13.1493468">
    <ele>184.0</ele>
    <name>Artegna Camper Service</name>
    <desc>capacity=3; caravan_site=motorhome_stopover;
    caravan_site:type=sports_centre; caravans=yes; fee=no;
    name=Artegna Camper Service; opening_hours=Jan-Dec;
    picnic_table=yes; playground=no; power_supply=no;
    sanitary_dump_station=yes; seasonal=no; toilets=no;
    tourism=caravan_site; water_point=yes;
    website=https://www.turismofvg.it/en/turismofvg-where-to-go/artegna;
    id=node/4407813346</desc>
    <link href="https://www.turismofvg.it/en/turismofvg-where-to-go/artegna">
    </link>
  </wpt>
  <wpt lat="46.304959" lon="13.3220058">
    <ele>800.0</ele>
    <name>Rifugio Pian dei Ciclamini</name>
    <desc>caravan_site=motorhome_stopover;
    caravan_site:type=guest_house; fee=no; name=Rifugio Pian dei
    Ciclamini; opening_hours=Jan-Dec; picnic_table=yes;
    playground=yes; power_supply=no; restaurant=yes;
    sanitary_dump_station=yes; seasonal=yes; toilets=no;
    tourism=caravan_site; water_point=yes;
    id=node/4407838860</desc>
  </wpt>
  <wpt lat="43.3472527" lon="12.5676047">
    <ele>472.0</ele>
    <name>Aera Sosta Camper Gubbio</name>
    <desc>name=Aera Sosta Camper Gubbio; surface=compacted;
    tourism=caravan_site; wikimedia_commons=File:Motorhome Stopover
    Italy Gubbio.jpg; id=node/4443686891</desc>
  </wpt>
  <wpt lat="43.2443213" lon="12.9993732">
    <ele>373.0</ele>
    <name>node/4443770891</name>
    <desc>fee=no; sanitary_dump_station=yes; tourism=caravan_site;
    water_point=yes; id=node/4443770891</desc>
  </wpt>
  <wpt lat="40.788343" lon="14.3622028">
    <ele>18.0</ele>
    <name>Parcheggio Torre Amarea H24</name>
    <desc>fee=yes; name=Parcheggio Torre Amarea H24;
    name:en=Parking Torre Amarea H24; sanitary_dump_station=no;
    tourism=caravan_site; id=node/4487444494</desc>
  </wpt>
  <wpt lat="39.5862879" lon="16.4175928">
    <ele>350.0</ele>
    <name>Camper-Service</name>
    <desc>internet_access=no; name=Camper-Service;
    name:it=Camper-Service; tourism=caravan_site; wheelchair=no;
    id=node/4504665496</desc>
  </wpt>
  <wpt lat="39.5734291" lon="16.6316616">
    <ele>282.0</ele>
    <name>Sosta Camper Rossano</name>
    <desc>fee=no; name=Sosta Camper Rossano;
    sanitary_dump_station=yes; tourism=caravan_site;
    water_point=yes; id=node/4506375190</desc>
  </wpt>
  <wpt lat="38.1551046" lon="14.9636808">
    <ele>14.0</ele>
    <name>Villa Pisani</name>
    <desc>addr:street=Via Mustazzo; internet_access=wlan;
    name=Villa Pisani; name:it=Villa Pisani; opening_hours=24/7;
    tourism=caravan_site; id=node/4655290989</desc>
  </wpt>
  <wpt lat="41.7579972" lon="12.6513485">
    <ele>318.0</ele>
    <name>Spiaggia del Lago</name>
    <desc>caravan_site=motorhome_stopover; caravans=no; fee=yes;
    name=Spiaggia del Lago; note=3€/ora e 10 €/giorno per camper;
    power_supply=no; sanitary_dump_station=no; tents=no;
    tourism=caravan_site; id=node/4701837492</desc>
  </wpt>
  <wpt lat="43.0290205" lon="12.4383855">
    <ele>189.0</ele>
    <name>Area Torgiano</name>
    <desc>name=Area Torgiano; sanitary_dump_station=yes;
    sanitary_dump_station:chemical_toilet=yes;
    sanitary_dump_station:grey_water=yes; tourism=caravan_site;
    water_point=yes; id=node/4716313496</desc>
  </wpt>
  <wpt lat="46.1952178" lon="12.7748192">
    <ele>275.0</ele>
    <name>Sosta Camper Cavasso Nuovo Bicigrill</name>
    <desc>capacity=5; fee=no; name=Sosta Camper Cavasso Nuovo
    Bicigrill; power_supply=yes; sanitary_dump_station=yes;
    tourism=caravan_site; id=node/4728259992</desc>
  </wpt>
  <wpt lat="42.9934953" lon="12.6675134">
    <ele>219.0</ele>
    <name>Area Camper Spello</name>
    <desc>addr:street=Via Centrale Umbra; charge=5€/24h; fee=yes;
    internet_access=no; name=Area Camper Spello; power_supply=no;
    sanitary_dump_station=yes; tourism=caravan_site;
    id=node/4811656882</desc>
  </wpt>
  <wpt lat="39.7540375" lon="9.671214">
    <ele>7.0</ele>
    <name>Sosta Cardedu OG</name>
    <desc>name=Sosta Cardedu OG; name:it=Sosta Cardedu OG;
    tourism=caravan_site; id=node/4857125222</desc>
  </wpt>
  <wpt lat="39.3168555" lon="9.604108">
    <ele>5.0</ele>
    <name>Spiaggia di Feraxi</name>
    <desc>fee=yes; name=Spiaggia di Feraxi; name:it=Spiaggia di
    Feraxi; power_supply=no; sanitary_dump_station=no;
    tourism=caravan_site; id=node/4857222827</desc>
  </wpt>
  <wpt lat="46.4754915" lon="13.0168275">
    <ele>473.0</ele>
    <name>Area Sosta Arta Terme</name>
    <desc>addr:city=Arta Terme; addr:street=Via Nazionale - vicino
    al campo sportivo; capacity=7; description=Reservation: contact
    Comune Arta Terme 24h before arriving; fee=no; name=Area Sosta
    Arta Terme; opening_hours=Jan-Dec; operator=Comune di Arta
    Terme; parking=surface; phone=+39 0433 92037; picnic_site=yes;
    power_supply=yes; power_supply:fee=yes;
    sanitary_dump_station=yes; surface=grass; toilets=unknown;
    tourism=caravan_site; water_point=yes;
    website=https://www.turismofvg.it/rnode/41091;
    id=node/4940064353</desc>
    <link href="https://www.turismofvg.it/rnode/41091"></link>
  </wpt>
  <wpt lat="43.5373669" lon="12.0511383">
    <ele>414.0</ele>
    <name>valle di pieve</name>
    <desc>addr:housenumber=8; addr:postcode=52031; addr:street=Via
    della Fossa; caravan_site=motorhome_stopover;
    caravan_site:type=guest_house; caravans=yes;
    email=info@agriturismovaldellapieve.it; internet_access=wlan;
    motorhome=yes; name=valle di pieve; name:en=Agriturismo Val
    Della Pieve; name:it=Agriturismo Val Della Pieve; phone=+39
    0575 788593; shower=yes; tents=yes; tourism=caravan_site;
    website=https://www.agriturismovaldellapieve.it/agricampeggio.php;
    id=node/4942795524</desc>
    <link href="https://www.agriturismovaldellapieve.it/agricampeggio.php">
    </link>
  </wpt>
  <wpt lat="41.4652762" lon="13.8053295">
    <ele>58.0</ele>
    <name>node/5016435921</name>
    <desc>tourism=caravan_site; id=node/5016435921</desc>
  </wpt>
  <wpt lat="45.9051755" lon="10.8576467">
    <ele>83.0</ele>
    <name>Verdepiano Bed &amp; Camping</name>
    <desc>bbq=yes; caravan_site=motorhome_stopover;
    caravan_site:type=guest_house; check_in=12:00;
    check_out=08:00-12:00; drinking_water=yes;
    email=info@verdepianocamping.com; fee=yes;
    internet_access=wlan; internet_access:fee=no; name=Verdepiano
    Bed &amp; Camping; opening_hours=Apr-Dec; phone=+39 3890405603;
    power_supply=yes; reservation=yes; sanitary_dump_station=yes;
    sauna=yes; shower=yes; swimming_pool=yes; toilets=yes;
    tourism=caravan_site; water_point=yes;
    website=https://www.verdepianocamping.com/campeggio/;
    id=node/5039356822</desc>
    <link href="https://www.verdepianocamping.com/campeggio/">
    </link>
  </wpt>
  <wpt lat="45.006433" lon="6.9350734">
    <ele>1532.0</ele>
    <name>node/5053664714</name>
    <desc>fee=no; tourism=caravan_site; id=node/5053664714</desc>
  </wpt>
  <wpt lat="45.0390693" lon="7.0456321">
    <ele>1172.0</ele>
    <name>node/5062321513</name>
    <desc>caravan_site=motorhome_stopover;
    caravan_site:type=parking_lot; fee=no; name:signed=no;
    sanitary_dump_station=yes; seasonal=no; tourism=caravan_site;
    water_point=yes; id=node/5062321513</desc>
  </wpt>
  <wpt lat="40.8515911" lon="9.152282">
    <ele>1055.0</ele>
    <name>Vallicciola</name>
    <desc>name=Vallicciola; name:it=AA La Vallicciola;
    tourism=caravan_site; id=node/5079807321</desc>
  </wpt>
  <wpt lat="40.9035247" lon="8.2353496">
    <ele>1.0</ele>
    <name>node/5096665121</name>
    <desc>power_supply=no; toilets=no; tourism=caravan_site;
    id=node/5096665121</desc>
  </wpt>
  <wpt lat="40.5457471" lon="8.3209021">
    <ele>3.0</ele>
    <name>node/5096665122</name>
    <desc>tourism=caravan_site; id=node/5096665122</desc>
  </wpt>
  <wpt lat="40.0430157" lon="8.3963975">
    <ele>2.0</ele>
    <name>node/5120470021</name>
    <desc>fee=no; tourism=caravan_site; id=node/5120470021</desc>
  </wpt>
  <wpt lat="40.5924693" lon="9.7568579">
    <ele>0.0</ele>
    <name>node/5138617421</name>
    <desc>tourism=caravan_site; id=node/5138617421</desc>
  </wpt>
  <wpt lat="40.3621335" lon="18.1675622">
    <ele>42.0</ele>
    <name>node/5278428738</name>
    <desc>opening_hours=24/7; tourism=caravan_site;
    id=node/5278428738</desc>
  </wpt>
  <wpt lat="45.1418277" lon="8.036908">
    <ele>199.0</ele>
    <name>Area sosta Camper Santa Fede</name>
    <desc>caravan_site=motorhome_stopover;
    caravan_site:type=monestry; fee=donation; name=Area sosta
    Camper Santa Fede; picnic_table=yes; power_supply=yes;
    tourism=caravan_site; water_point=yes;
    id=node/5299089721</desc>
  </wpt>
  <wpt lat="42.2340709" lon="14.3914866">
    <ele>251.0</ele>
    <name>Area di sosta camper Lanciano</name>
    <desc>addr:housenumber=29; addr:street=Via Frisa;
    drinking_water=yes; fee=no; name=Area di sosta camper Lanciano;
    opening_hours=24/7; power_supply=no; sanitary_dump_station=yes;
    toilets=yes; tourism=caravan_site; id=node/5305339324</desc>
  </wpt>
  <wpt lat="42.1163287" lon="14.703557">
    <ele>154.0</ele>
    <name>node/5305339325</name>
    <desc>covered=yes; opening_hours=24/7; tourism=caravan_site;
    id=node/5305339325</desc>
  </wpt>
  <wpt lat="40.147761" lon="18.4806179">
    <ele>26.0</ele>
    <name>Nelson Parl</name>
    <desc>addr:housenumber=76; addr:street=Strada Statale 16
    Adriatica; fee=yes; name=Nelson Parl; name:es=Área de
    autocaravanas Nelson Mandela; opening_hours=24/7;
    power_supply=no; sanitary_dump_station=no;
    tourism=caravan_site; id=node/5317024321</desc>
  </wpt>
  <wpt lat="37.8537838" lon="15.2766593">
    <ele>203.0</ele>
    <name>node/5325395922</name>
    <desc>fee=yes; tourism=caravan_site; id=node/5325395922</desc>
  </wpt>
  <wpt lat="39.3141336" lon="16.2352535">
    <ele>224.0</ele>
    <name>Autolavaggio Cavalcante</name>
    <desc>addr:housenumber=80; addr:postcode=87036; addr:street=Via
    Botticelli; description=Autolavaggio e parcheggio amper;
    name=Autolavaggio Cavalcante; opening_hours=24/7;
    tourism=caravan_site; id=node/5325412921</desc>
  </wpt>
  <wpt lat="38.7797435" lon="16.5778601">
    <ele>10.0</ele>
    <name>node/5325413021</name>
    <desc>name:es=Aparcamiento de Autocaravanas;
    opening_hours=24/7; tourism=caravan_site;
    id=node/5325413021</desc>
  </wpt>
  <wpt lat="37.4914252" lon="15.0620332">
    <ele>57.0</ele>
    <name>Autoparco Ghidara</name>
    <desc>name=Autoparco Ghidara; opening_hours=24/7;
    tourism=caravan_site; id=node/5325413022</desc>
  </wpt>
  <wpt lat="36.8836001" lon="15.0850868">
    <ele>45.0</ele>
    <name>Noto Parking</name>
    <desc>name=Noto Parking; opening_hours=24/7;
    tourism=caravan_site; id=node/5326211022</desc>
  </wpt>
  <wpt lat="37.0707996" lon="15.2612049">
    <ele>6.0</ele>
    <name>Ippocamper</name>
    <desc>name=Ippocamper; opening_hours=24/7; operator=Salvo;
    phone=+39 340 6177193; tourism=caravan_site;
    website=http://www.ippocampersr.it/; id=node/5326211222</desc>
    <link href="http://www.ippocampersr.it/"></link>
  </wpt>
  <wpt lat="36.8161273" lon="15.0988324">
    <ele>13.0</ele>
    <name>Area Parcheggio Calamosche</name>
    <desc>name=Area Parcheggio Calamosche; opening_hours=24/7;
    tourism=caravan_site; id=node/5326211223</desc>
  </wpt>
  <wpt lat="36.7371137" lon="15.0953239">
    <ele>25.0</ele>
    <name>AgriCamping Sophia</name>
    <desc>email=info@agricampingsophia.it; name=AgriCamping Sophia;
    opening_hours=24/7; phone=+393452396095; tourism=caravan_site;
    website=https://www.agricampingsophia.it/;
    id=node/5329680624</desc>
    <link href="https://www.agricampingsophia.it/"></link>
  </wpt>
  <wpt lat="36.7274157" lon="15.1204239">
    <ele>5.0</ele>
    <name>Dragomar</name>
    <desc>name=Dragomar; opening_hours=24/7; phone=+390931494454;
    tourism=caravan_site; website=http://www.dragomar-sosta.it;
    id=node/5329686522</desc>
    <link href="http://www.dragomar-sosta.it"></link>
  </wpt>
  <wpt lat="37.239794" lon="14.5069783">
    <ele>540.0</ele>
    <name>San Giovanni</name>
    <desc>name=San Giovanni; opening_hours=24/7;
    tourism=caravan_site; id=node/5329686622</desc>
  </wpt>
  <wpt lat="45.1337125" lon="11.7557398">
    <ele>8.0</ele>
    <name>Area Comunale - Stanghella Padova Veneto</name>
    <desc>addr:city=Stanghella; addr:postcode=35048; capacity=2;
    fee=no; name=Area Comunale - Stanghella Padova Veneto;
    power_supply=yes; sanitary_dump_station=yes; seasonal=no;
    tourism=caravan_site; water_point=yes;
    id=node/5343149680</desc>
  </wpt>
  <wpt lat="38.0354276" lon="14.0164896">
    <ele>2.0</ele>
    <name>node/5347819627</name>
    <desc>addr:housenumber=23; addr:postcode=90015;
    addr:street=Lungomare Giuseppe Giardina; fee=yes;
    opening_hours=24/7; tourism=caravan_site;
    id=node/5347819627</desc>
  </wpt>
  <wpt lat="38.1101877" lon="13.3431174">
    <ele>43.0</ele>
    <name>Parcheggio Auto Camper</name>
    <desc>addr:housenumber=11b; addr:postcode=90129;
    addr:street=Via Quarto dei Mille; dog=leashed;
    email=info@greencarpalermo.it; fee=yes; internet_access=wlan;
    name=Parcheggio Auto Camper; name:es=Área de autocaravanas;
    opening_hours=24/7; phone=+39 091 6515010; power_supply=yes;
    sanitary_dump_station=yes; shower=yes; socket:cee_blue=yes;
    toilets=yes; tourism=caravan_site;
    website=https://www.greencarpalermo.it/;
    id=node/5347853323</desc>
    <link href="https://www.greencarpalermo.it/"></link>
  </wpt>
  <wpt lat="43.4710984" lon="13.641534">
    <ele>1.0</ele>
    <name>Bellamare Camping</name>
    <desc>addr:city=Porto Recanati; addr:housenumber=13;
    addr:postcode=62017; addr:street=Viale Ludovico Scarfiotti;
    drinking_water=yes; fee=yes; name=Bellamare Camping;
    power_supply=yes; sanitary_dump_station=yes; toilets=yes;
    tourism=caravan_site; id=node/5488291209</desc>
  </wpt>
  <wpt lat="43.4664625" lon="13.6455023">
    <ele>1.0</ele>
    <name>La Medusa Ingresso Camping</name>
    <desc>addr:city=Porto Recanati; addr:postcode=62017;
    addr:street=Viale Ludovico Scarfiotti; name=La Medusa Ingresso
    Camping; tourism=caravan_site; id=node/5488332244</desc>
  </wpt>
  <wpt lat="43.4115713" lon="13.6754519">
    <ele>3.0</ele>
    <name>Campeggio Regina 2</name>
    <desc>addr:city=Porto Recanati; addr:postcode=62017;
    addr:street=Via delle Nazioni; name=Campeggio Regina 2;
    tourism=caravan_site; id=node/5488413029</desc>
  </wpt>
  <wpt lat="43.8589358" lon="11.1090145">
    <ele>46.0</ele>
    <name>Parcheggio Scambiatore Piazzale del Museo</name>
    <desc>addr:city=Prato; addr:postcode=59100; addr:street=Viale
    Leonardo da Vinci; capacity=50; fee=no; internet_access=no;
    name=Parcheggio Scambiatore Piazzale del Museo;
    power_supply=no; sanitary_dump_station=yes;
    tourism=caravan_site; id=node/5548163594</desc>
  </wpt>
  <wpt lat="39.5237649" lon="16.8996065">
    <ele>4.0</ele>
    <name>da Mario</name>
    <desc>name=da Mario; power_supply=yes;
    sanitary_dump_station=yes; tourism=caravan_site;
    website=http://www.camping-damario.eu;
    id=node/5548745922</desc>
    <link href="http://www.camping-damario.eu"></link>
  </wpt>
  <wpt lat="45.7897763" lon="8.372351">
    <ele>670.0</ele>
    <name>Area camper di Madonna del Sasso</name>
    <desc>capacity=12; caravan_site=motorhome_stopover;
    caravan_site:type=village; fee=no; name=Area camper di Madonna
    del Sasso; picnic_table=yes; power_supply=no;
    sanitary_dump_station=yes; seasonal=no; tourism=caravan_site;
    water_point=yes; id=node/5572904379</desc>
  </wpt>
  <wpt lat="45.7885905" lon="8.3861142">
    <ele>295.0</ele>
    <name>node/5572904384</name>
    <desc>caravan_site=motorhome_stopover; caravan_site:type=lake;
    caravans=no; fee=no; fee:conditional=yes@(Apr-Nov 08:00-19:00);
    power_supply=no; sanitary_dump_station=no; surface=grass_paver;
    tourism=caravan_site; water_point=no; id=node/5572904384</desc>
  </wpt>
  <wpt lat="46.2109293" lon="9.449221">
    <ele>203.0</ele>
    <name>Via al Lido</name>
    <desc>addr:street=Via al Lido; name=Via al Lido; name:it=Novate
    Mezzola; tourism=caravan_site; id=node/5618994722</desc>
  </wpt>
  <wpt lat="44.6719469" lon="12.2461719">
    <ele>5.0</ele>
    <name>node/5634224821</name>
    <desc>tourism=caravan_site; id=node/5634224821</desc>
  </wpt>
  <wpt lat="45.5981" lon="13.7822">
    <ele>4.0</ele>
    <name>node/5636075921</name>
    <desc>tourism=caravan_site; id=node/5636075921</desc>
  </wpt>
  <wpt lat="42.3417063" lon="13.3958608">
    <ele>686.0</ele>
    <name>node/5642528323</name>
    <desc>access=yes; addr:street=Viale XXIV Maggio;
    opening_hours=24/7; tourism=caravan_site;
    id=node/5642528323</desc>
  </wpt>
  <wpt lat="40.2347497" lon="14.9486674">
    <ele>20.0</ele>
    <name>lo scoglio</name>
    <desc>name=lo scoglio; tourism=caravan_site;
    id=node/5663436821</desc>
  </wpt>
  <wpt lat="40.6483651" lon="17.2256196">
    <ele>456.0</ele>
    <name>Foresteria</name>
    <desc>name=Foresteria; tourism=caravan_site;
    id=node/5675837741</desc>
  </wpt>
  <wpt lat="37.2892437" lon="13.4783346">
    <ele>49.0</ele>
    <name>node/5708310522</name>
    <desc>charge=20€; fee=yes; tourism=caravan_site;
    id=node/5708310522</desc>
  </wpt>
  <wpt lat="37.4429989" lon="15.0869455">
    <ele>8.0</ele>
    <name>node/5730124995</name>
    <desc>tourism=caravan_site; id=node/5730124995</desc>
  </wpt>
  <wpt lat="42.4151461" lon="11.207263">
    <ele>0.0</ele>
    <name>node/5766163464</name>
    <desc>tourism=caravan_site; id=node/5766163464</desc>
  </wpt>
  <wpt lat="45.6787779" lon="13.786642">
    <ele>386.0</ele>
    <name>node/5776969355</name>
    <desc>tourism=caravan_site; id=node/5776969355</desc>
  </wpt>
  <wpt lat="41.9223144" lon="13.8561546">
    <ele>944.0</ele>
    <name>node/5781686854</name>
    <desc>tourism=caravan_site; id=node/5781686854</desc>
  </wpt>
  <wpt lat="44.4322165" lon="8.8137181">
    <ele>98.0</ele>
    <name>Camping villa doria</name>
    <desc>addr:housenumber=15; addr:postcode=16156; addr:street=Via
    Campeggio Villa Doria; email=campingvilladoria@gmail.com;
    internet_access=wlan; name=Camping villa doria;
    name:de=Campingplatz Villa Doria; phone=+39 010 6969600;
    tourism=caravan_site;
    website=https://www.campingvilladoria.it/;
    id=node/5810210353</desc>
    <link href="https://www.campingvilladoria.it/"></link>
  </wpt>
  <wpt lat="43.4728241" lon="11.8833069">
    <ele>250.0</ele>
    <name>Parcheggio camper Tarlati Arezzo</name>
    <desc>caravan_site=motorhome_stopover;
    caravan_site:type=city,parking_lot; name=Parcheggio camper
    Tarlati Arezzo; power_supply=no; sanitary_dump_station=no;
    seasonal=no; surface=grass_paver; tourism=caravan_site;
    water_point=no; id=node/5829712993</desc>
  </wpt>
  <wpt lat="40.3176957" lon="9.3307422">
    <ele>502.0</ele>
    <name>node/5839836586</name>
    <desc>name:ru=car; tourism=caravan_site;
    id=node/5839836586</desc>
  </wpt>
  <wpt lat="40.9569428" lon="15.7944102">
    <ele>440.0</ele>
    <name>node/5840579866</name>
    <desc>tourism=caravan_site; id=node/5840579866</desc>
  </wpt>
  <wpt lat="43.9055553" lon="10.2203982">
    <ele>4.0</ele>
    <name>Park Camper Kennedy</name>
    <desc>name=Park Camper Kennedy; tourism=caravan_site;
    id=node/5893089529</desc>
  </wpt>
  <wpt lat="43.0928674" lon="11.7103714">
    <ele>472.0</ele>
    <name>node/5896880786</name>
    <desc>name:pl=Agro turystyka - camping camper; shop=outdoor;
    tourism=caravan_site; id=node/5896880786</desc>
  </wpt>
  <wpt lat="40.744489" lon="17.4275859">
    <ele>356.0</ele>
    <name>node/5952277587</name>
    <desc>addr:postcode=72014; addr:street=Via Francesco Clarizia;
    drinking_water=yes; fee=no; opening_hours=24/7;
    power_supply=no; sanitary_dump_station=yes;
    tourism=caravan_site; id=node/5952277587</desc>
  </wpt>
  <wpt lat="43.5240407" lon="13.4366752">
    <ele>309.0</ele>
    <name>Area sosta camper Offagna</name>
    <desc>addr:city=Offagna; addr:street=Via Martin Luther King;
    capacity=5; fee=no; internet_access=no; name=Area sosta camper
    Offagna; power_supply=no; tourism=caravan_site;
    id=node/6077175435</desc>
  </wpt>
  <wpt lat="43.5699088" lon="12.1367555">
    <ele>322.0</ele>
    <name>Area sosta camper Sansepolcro</name>
    <desc>addr:city=Sansepolcro; addr:street=Viale Alessandro
    Volta; capacity=10; caravan_site=motorhome_stopover;
    caravan_site:type=town; description=Parcheggio misto, divieto
    di campeggio, rifornimento acqua e scarico acque reflue;
    fee=no; internet_access=no; name=Area sosta camper Sansepolcro;
    operator=Comunale; power_supply=no; sanitary_dump_station=yes;
    tourism=caravan_site; water_supply=yes;
    id=node/6083322052</desc>
  </wpt>
  <wpt lat="42.5814945" lon="13.6261757">
    <ele>262.0</ele>
    <name>node/6086660814</name>
    <desc>tourism=caravan_site; id=node/6086660814</desc>
  </wpt>
  <wpt lat="42.7646268" lon="10.3112671">
    <ele>18.0</ele>
    <name>Orti di mare</name>
    <desc>name=Orti di mare; tourism=caravan_site;
    id=node/6103916585</desc>
  </wpt>
  <wpt lat="44.7260984" lon="12.2248463">
    <ele>-1.0</ele>
    <name>Ariaperta Comacchio</name>
    <desc>name=Ariaperta Comacchio; opening_hours=24/7;
    tourism=caravan_site; id=node/6168225487</desc>
  </wpt>
  <wpt lat="42.8699117" lon="11.8782726">
    <ele>573.0</ele>
    <name>node/6223589194</name>
    <desc>tourism=caravan_site; id=node/6223589194</desc>
  </wpt>
  <wpt lat="40.6260197" lon="14.3415928">
    <ele>30.0</ele>
    <name>node/6418985025</name>
    <desc>tourism=caravan_site; id=node/6418985025</desc>
  </wpt>
  <wpt lat="42.4249141" lon="11.6268463">
    <ele>67.0</ele>
    <name>Parco archeologico Vulci</name>
    <desc>fee=no; internet_access=no; name=Parco archeologico
    Vulci; power_supply=no; sanitary_dump_station=no;
    tourism=caravan_site; id=node/6422843701</desc>
  </wpt>
  <wpt lat="43.8206609" lon="10.6533973">
    <ele>21.0</ele>
    <name>node/6432699655</name>
    <desc>drinking_water=no; fee=no; name:signed=no;
    power_supply=no; sanitary_dump_station=no; toilets=no;
    tourism=caravan_site; id=node/6432699655</desc>
  </wpt>
  <wpt lat="39.9110507" lon="18.3903284">
    <ele>47.0</ele>
    <name>node/6436062285</name>
    <desc>tourism=caravan_site; id=node/6436062285</desc>
  </wpt>
  <wpt lat="39.0833454" lon="17.1251152">
    <ele>4.0</ele>
    <name>node/6462408215</name>
    <desc>tourism=caravan_site; id=node/6462408215</desc>
  </wpt>
  <wpt lat="38.1442107" lon="15.5172076">
    <ele>89.0</ele>
    <name>node/6478914185</name>
    <desc>opening_hours=24/7; tourism=caravan_site;
    id=node/6478914185</desc>
  </wpt>
  <wpt lat="37.8187073" lon="15.2529595">
    <ele>24.0</ele>
    <name>node/6478914186</name>
    <desc>opening_hours=24/7; tourism=caravan_site;
    id=node/6478914186</desc>
  </wpt>
  <wpt lat="37.3870753" lon="14.3677826">
    <ele>667.0</ele>
    <name>PIAZZiAmoci alle ANTICHE MURA</name>
    <desc>addr:postcode=94015; addr:street=Via Giacinto Lo Giudice;
    drinking_water=yes; fee=yes; name=PIAZZiAmoci alle ANTICHE
    MURA; opening_hours=24/7; operator=Comune di Piazza Armerina;
    power_supply=yes; sanitary_dump_station=yes;
    survey:date=2024-03-02; tourism=caravan_site;
    id=node/6478914286</desc>
  </wpt>
  <wpt lat="37.5055211" lon="13.0765115">
    <ele>6.0</ele>
    <name>Area sosta camper Parcheggio a Sciacca</name>
    <desc>addr:housenumber=68; addr:postcode=92019; addr:street=Via
    Gaia di Garaffe; name=Area sosta camper Parcheggio a Sciacca;
    opening_hours=24/7; power_supply=no; sanitary_dump_station=no;
    seasonal=no; tourism=caravan_site; id=node/6478914686</desc>
  </wpt>
  <wpt lat="41.4440688" lon="12.9851888">
    <ele>9.0</ele>
    <name>node/6481505086</name>
    <desc>opening_hours=24/7; tourism=caravan_site;
    id=node/6481505086</desc>
  </wpt>
  <wpt lat="45.5614977" lon="10.7148352">
    <ele>73.0</ele>
    <name>Park Camper Serenella</name>
    <desc>capacity=10; drinking_water=yes; fee=yes; name=Park
    Camper Serenella; power_supply=no;
    sanitary_dump_station=customers; toilets=no;
    tourism=caravan_site; wheelchair=yes; id=node/6482696601</desc>
  </wpt>
  <wpt lat="41.080095" lon="16.275111">
    <ele>497.0</ele>
    <name>node/6504582785</name>
    <desc>fee=yes; opening_hours=24/7; tourism=caravan_site;
    id=node/6504582785</desc>
  </wpt>
  <wpt lat="41.0768029" lon="16.2754842">
    <ele>475.0</ele>
    <name>node/6509189385</name>
    <desc>description:es=Área de autocaravanas con todos los
    servicios; fee=yes; opening_hours=24/7; tourism=caravan_site;
    id=node/6509189385</desc>
  </wpt>
  <wpt lat="42.4983611" lon="12.236058">
    <ele>129.0</ele>
    <name>node/6516320186</name>
    <desc>tourism=caravan_site; id=node/6516320186</desc>
  </wpt>
  <wpt lat="42.4880432" lon="12.1313544">
    <ele>302.0</ele>
    <name>ferento</name>
    <desc>name=ferento; tourism=caravan_site;
    id=node/6524049685</desc>
  </wpt>
  <wpt lat="37.0728538" lon="15.2763287">
    <ele>9.0</ele>
    <name>Parking Paradise</name>
    <desc>name=Parking Paradise; opening_hours=24/7; phone=+39 366
    2683199; tourism=caravan_site;
    website=https://www.parkingparadise.it/;
    id=node/6539322285</desc>
    <link href="https://www.parkingparadise.it/"></link>
  </wpt>
  <wpt lat="40.0893686" lon="18.4862537">
    <ele>26.0</ele>
    <name>Tenuta L'Alba di Monte Matino</name>
    <desc>name=Tenuta L'Alba di Monte Matino; opening_hours=24/7;
    phone=+39 347 1198974; tourism=caravan_site;
    website=http://www.tenutamontematino.com/;
    id=node/6581302985</desc>
    <link href="http://www.tenutamontematino.com/"></link>
  </wpt>
  <wpt lat="37.6993513" lon="15.0004001">
    <ele>1902.0</ele>
    <name>node/6591832188</name>
    <desc>fee=yes; opening_hours=24/7; tourism=caravan_site;
    id=node/6591832188</desc>
  </wpt>
  <wpt lat="37.009786" lon="15.2898467">
    <ele>10.0</ele>
    <name>Agriturismo Terrauzza sul Mare</name>
    <desc>fee=yes; operator=Agriturismo Terrauzza sul Mare;
    tourism=caravan_site; id=node/6592308916</desc>
  </wpt>
  <wpt lat="42.4079001" lon="13.7452698">
    <ele>1508.0</ele>
    <name>Ristoro Mucciante</name>
    <desc>fee=no; internet_access=no; name=Ristoro Mucciante;
    note=Free no camper service; permanent_camping=no;
    power_supply=no; sanitary_dump_station=no; toilets=no;
    tourism=caravan_site;
    website=https://www.ristoromucciante.com/;
    id=node/6627858711</desc>
    <link href="https://www.ristoromucciante.com/"></link>
  </wpt>
  <wpt lat="44.2300983" lon="7.1063707">
    <ele>2000.0</ele>
    <name>Area Camper Sant’Anna di Vinadio</name>
    <desc>caravan_site=motorhome_stopover;
    caravan_site:type=mountains; ele=2000; fee=no; name=Area Camper
    Sant’Anna di Vinadio; power_supply=no;
    sanitary_dump_station=no; seasonal=no; tourism=caravan_site;
    id=node/6644275376</desc>
  </wpt>
  <wpt lat="46.4257955" lon="12.5672609">
    <ele>920.0</ele>
    <name>Forni di Sopra</name>
    <desc>access=permissive; capacity=30;
    caravan_site=motorhome_stopover;
    caravan_site:type=parking_lot,skiing;
    disused:amenity=sanitary_dump_station; disused:water_point=yes;
    fee=yes; name=Forni di Sopra; tourism=caravan_site;
    website=https://www.turismofvg.it/rnode/28641;
    id=node/6776906851</desc>
    <link href="https://www.turismofvg.it/rnode/28641"></link>
  </wpt>
  <wpt lat="39.2596571" lon="9.1839877">
    <ele>24.0</ele>
    <name>node/6780478585</name>
    <desc>tourism=caravan_site; id=node/6780478585</desc>
  </wpt>
  <wpt lat="46.2090632" lon="12.8139095">
    <ele>268.0</ele>
    <name>Ai Pradons</name>
    <desc>name=Ai Pradons; tourism=caravan_site;
    id=node/6788942185</desc>
  </wpt>
  <wpt lat="40.206057" lon="9.3565883">
    <ele>565.0</ele>
    <name>node/6845434685</name>
    <desc>name:de=Wohnwagenstellplatz; tourism=caravan_site;
    id=node/6845434685</desc>
  </wpt>
  <wpt lat="44.1325421" lon="10.0172246">
    <ele>474.0</ele>
    <name>Area sosta camper Fosdinovo</name>
    <desc>addr:city=Fosdinovo; caravan_site=motorhome_stopover;
    caravan_site:type=village; fee=no; name=Area sosta camper
    Fosdinovo; power_supply=no; sanitary_dump_station=no;
    surface=fine_gravel; tourism=caravan_site;
    id=node/6893905949</desc>
  </wpt>
  <wpt lat="43.3261514" lon="10.5995427">
    <ele>137.0</ele>
    <name>Serra del Pino</name>
    <desc>capacity=8; name=Serra del Pino; power_supply=yes;
    sanitary_dump_station=yes; tourism=caravan_site;
    id=node/6921312492</desc>
  </wpt>
  <wpt lat="45.994835" lon="8.369213">
    <ele>213.0</ele>
    <name>Area Sosta La Bourguignonne</name>
    <desc>caravan_site=motorhome_stopover;
    caravan_site:type=mountains; caravans=no; name=Area Sosta La
    Bourguignonne; tourism=caravan_site; id=node/7028215069</desc>
  </wpt>
  <wpt lat="39.72276" lon="8.8982419">
    <ele>165.0</ele>
    <name>Area sosta camper Baradili</name>
    <desc>name=Area sosta camper Baradili; opening_hours=24/7;
    tourism=caravan_site; id=node/7034178686</desc>
  </wpt>
  <wpt lat="44.9222842" lon="8.0773297">
    <ele>241.0</ele>
    <name>Area Camper Comunale Castelletto</name>
    <desc>caravan_site=motorhome_stopover;
    caravan_site:type=village; charge=5 EUR; fee=yes; name=Area
    Camper Comunale Castelletto; power_supply=yes;
    power_supply:fee=no; sanitary_dump_station=yes;
    sanitary_dump_station:fee=no; seasonal=yes; surface=grass;
    tourism=caravan_site; water_point=yes;
    id=node/7248385833</desc>
  </wpt>
  <wpt lat="40.170444" lon="16.5217613">
    <ele>481.0</ele>
    <name>node/7363795939</name>
    <desc>sanitary_dump_station=yes; tourism=caravan_site;
    id=node/7363795939</desc>
  </wpt>
  <wpt lat="41.392711" lon="12.9456674">
    <ele>10.0</ele>
    <name>node/7392351789</name>
    <desc>name:signed=no; tourism=caravan_site;
    id=node/7392351789</desc>
  </wpt>
  <wpt lat="37.8791735" lon="15.1765957">
    <ele>206.0</ele>
    <name>node/7444123334</name>
    <desc>tourism=caravan_site; id=node/7444123334</desc>
  </wpt>
  <wpt lat="39.9929078" lon="18.4115626">
    <ele>68.0</ele>
    <name>node/7522430915</name>
    <desc>survey:date=2023-09-03; tourism=caravan_site;
    id=node/7522430915</desc>
  </wpt>
  <wpt lat="39.1221262" lon="17.0824202">
    <ele>57.0</ele>
    <name>node/7635982630</name>
    <desc>tourism=caravan_site; id=node/7635982630</desc>
  </wpt>
  <wpt lat="46.8226081" lon="10.5094957">
    <ele>1500.0</ele>
    <name>Schöneben - Belpiano</name>
    <desc>fee=yes; name=Schöneben - Belpiano; name:de=Schöneben;
    name:it=Belpiano; tourism=caravan_site;
    id=node/7685952985</desc>
  </wpt>
  <wpt lat="40.1923391" lon="9.3494227">
    <ele>846.0</ele>
    <name>Area di sosta SUPRAMONTE</name>
    <desc>drinking_water=yes; name=Area di sosta SUPRAMONTE;
    opening_hours=Mo-Su 09:00-20:00; power_supply=yes;
    tourism=caravan_site; id=node/7707553786</desc>
  </wpt>
  <wpt lat="39.9835854" lon="9.6861252">
    <ele>10.0</ele>
    <name>Camper Service Costa Orientale</name>
    <desc>drinking_water=yes; fee=yes; name=Camper Service Costa
    Orientale; phone=+393339042522; power_supply=yes;
    sanitary_dump_station=yes; toilets=yes; tourism=caravan_site;
    id=node/7726873885; ; description=RV parking;
    id=way/120553251</desc>
  </wpt>
  <wpt lat="45.75825" lon="7.029251">
    <ele>927.0</ele>
    <name>Camper area sportiva Morgex</name>
    <desc>caravan_site=motorhome_stopover;
    caravan_site:type=sports_centre; fee=no; name=Camper area
    sportiva Morgex; opening_hours=24/7; picnic_table=yes;
    power_supply=no; sanitary_dump_station=no;
    tourism=caravan_site; id=node/7796512885</desc>
  </wpt>
  <wpt lat="39.087392" lon="8.39218">
    <ele>19.0</ele>
    <name>Area di Sosta Vittoriano</name>
    <desc>name=Area di Sosta Vittoriano; opening_hours=Mo-Su
    08:00-20:00; operator=Sig. Vittoriano; phone=+39 333 3773487;
    power_supply=yes; power_supply:maxcurrent=2;
    sanitary_dump_station=yes; socket:cee_blue=yes;
    tourism=caravan_site; id=node/7804695085</desc>
  </wpt>
  <wpt lat="44.2733909" lon="11.7210042">
    <ele>73.0</ele>
    <name>Area Sosta Camper Riolo Terme</name>
    <desc>fee=no; name=Area Sosta Camper Riolo Terme;
    power_supply=yes; sanitary_dump_station=yes;
    tourism=caravan_site; water_point=yes;
    id=node/7814478494</desc>
  </wpt>
  <wpt lat="46.1150699" lon="12.0307941">
    <ele>651.0</ele>
    <name>Area camper località Ligont</name>
    <desc>name=Area camper località Ligont; tourism=caravan_site;
    id=node/7820207203</desc>
  </wpt>
  <wpt lat="46.4883888" lon="12.4657181">
    <ele>796.0</ele>
    <name>Piccola zona attrezzata sosta camper</name>
    <desc>name=Piccola zona attrezzata sosta camper;
    tourism=caravan_site; id=node/7824325787</desc>
  </wpt>
  <wpt lat="42.0568917" lon="13.306883">
    <ele>771.0</ele>
    <name>Casale le Crete</name>
    <desc>name=Casale le Crete; tourism=caravan_site;
    id=node/7831628785</desc>
  </wpt>
  <wpt lat="43.7342652" lon="11.5564102">
    <ele>941.0</ele>
    <name>Area Camper Vallombrosa</name>
    <desc>name=Area Camper Vallombrosa; power_supply=yes;
    socket:cee_blue=yes; start_date=2024; tourism=caravan_site;
    id=node/7839542116; ; id=way/1316592640</desc>
  </wpt>
  <wpt lat="46.4899262" lon="9.3380503">
    <ele>1910.0</ele>
    <name>Stellplatz Montespluga</name>
    <desc>capacity=10; fee=yes; internet_access=no; name=Stellplatz
    Montespluga; power_supply=no; sanitary_dump_station=yes;
    tourism=caravan_site; id=node/7861880828</desc>
  </wpt>
  <wpt lat="40.284496" lon="8.4833143">
    <ele>0.0</ele>
    <name>node/7965302785</name>
    <desc>tourism=caravan_site; id=node/7965302785</desc>
  </wpt>
  <wpt lat="45.7943654" lon="8.5901483">
    <ele>210.0</ele>
    <name>Agricampeggio Lago Maggiore</name>
    <desc>capacity=20; caravan_site=motorhome_stopover;
    caravan_site:type=guest_house; charge=15 EUR/24 hours;
    drinking_water=yes; fee=yes; internet_access=wlan;
    internet_access:fee=customers; name=Agricampeggio Lago
    Maggiore; name:de=Wohnwagenstellplatz; note=Agricampeggio Lago
    Maggiore Ranco Area sosta Sass Cavalasc; power_supply=yes;
    sanitary_dump_station=yes; toilets=yes; tourism=caravan_site;
    website=http://www.agricamperlagomaggiore.it/;
    id=node/8047896585</desc>
    <link href="http://www.agricamperlagomaggiore.it/"></link>
  </wpt>
  <wpt lat="45.7602251" lon="7.8354435">
    <ele>1371.0</ele>
    <name>Parcheggio Weissmatten</name>
    <desc>caravan_site=motorhome_stopover;
    caravan_site:type=parking_lot; fee=yes; name=Parcheggio
    Weissmatten; power_supply=yes; sanitary_dump_station=yes;
    tourism=caravan_site; water_point=yes;
    id=node/8117181917</desc>
  </wpt>
  <wpt lat="36.9149766" lon="15.1487946">
    <ele>18.0</ele>
    <name>Oasi Pacaru</name>
    <desc>name=Oasi Pacaru; tourism=caravan_site;
    id=node/8276530484</desc>
  </wpt>
  <wpt lat="44.994449" lon="10.4887368">
    <ele>23.0</ele>
    <name>Area Sosta Camper Sabbioneta</name>
    <desc>name=Area Sosta Camper Sabbioneta; opening_hours=24/7;
    power_supply=no; sanitary_dump_station=yes;
    tourism=caravan_site; water_point=yes;
    wikimedia_commons=Category:Area Sosta Camper Sabbioneta;
    id=node/8361862617</desc>
  </wpt>
  <wpt lat="44.4143121" lon="12.1883925">
    <ele>3.0</ele>
    <name>node/8429839617</name>
    <desc>addr:postcode=48121; addr:street=Piazza della Resistenza;
    opening_hours=24/7; tourism=caravan_site;
    id=node/8429839617</desc>
  </wpt>
  <wpt lat="44.4142773" lon="12.1894312">
    <ele>2.0</ele>
    <name>node/8429839717</name>
    <desc>description:en=Zona de Servicios vaciado y agua;
    tourism=caravan_site; id=node/8429839717</desc>
  </wpt>
  <wpt lat="44.4304927" lon="12.2093574">
    <ele>1.0</ele>
    <name>node/8429839817</name>
    <desc>addr:housenumber=86; addr:postcode=48122; addr:street=Via
    Chiavica Romea; opening_hours=24/7; tourism=caravan_site;
    id=node/8429839817</desc>
  </wpt>
  <wpt lat="44.1454826" lon="12.2282192">
    <ele>25.0</ele>
    <name>node/8435877220</name>
    <desc>addr:housenumber=99; addr:postcode=47023;
    addr:street=Piazzale Paolo Tordi; opening_hours=24/7;
    tourism=caravan_site; id=node/8435877220</desc>
  </wpt>
  <wpt lat="44.1450777" lon="12.2288128">
    <ele>26.0</ele>
    <name>node/8435895018</name>
    <desc>opening_hours=24/7; tourism=caravan_site;
    id=node/8435895018</desc>
  </wpt>
  <wpt lat="40.3672464" lon="9.2967792">
    <ele>669.0</ele>
    <name>Agritourismo Costiolu</name>
    <desc>name=Agritourismo Costiolu; tourism=caravan_site;
    website=https://www.agriturismocostiolu.com/index.php;
    id=node/8749843978</desc>
    <link href="https://www.agriturismocostiolu.com/index.php">
    </link>
  </wpt>
  <wpt lat="44.0588006" lon="12.448892">
    <ele>40.0</ele>
    <name>node/8778604819</name>
    <desc>tourism=caravan_site; id=node/8778604819</desc>
  </wpt>
  <wpt lat="44.220028" lon="11.7817282">
    <ele>76.0</ele>
    <name>node/8778619617</name>
    <desc>tourism=caravan_site; id=node/8778619617</desc>
  </wpt>
  <wpt lat="44.0741868" lon="12.3258215">
    <ele>120.0</ele>
    <name>node/8778669617</name>
    <desc>fee=no; sanitary_dump_station=yes; tourism=caravan_site;
    id=node/8778669617</desc>
  </wpt>
  <wpt lat="44.1372639" lon="12.101997">
    <ele>49.0</ele>
    <name>node/8778686318</name>
    <desc>tourism=caravan_site; id=node/8778686318</desc>
  </wpt>
  <wpt lat="43.8960116" lon="12.3498425">
    <ele>575.0</ele>
    <name>node/8816459017</name>
    <desc>highway=rest_area; tourism=caravan_site;
    id=node/8816459017</desc>
  </wpt>
  <wpt lat="43.8862594" lon="12.6120278">
    <ele>398.0</ele>
    <name>node/8816459117</name>
    <desc>tourism=caravan_site; id=node/8816459117</desc>
  </wpt>
  <wpt lat="43.8584621" lon="12.6859851">
    <ele>278.0</ele>
    <name>node/8816459317</name>
    <desc>tourism=caravan_site; id=node/8816459317</desc>
  </wpt>
  <wpt lat="46.4620684" lon="10.3718944">
    <ele>1197.0</ele>
    <name>Area Bormio 2000</name>
    <desc>caravan_site=motorhome_stopover;
    caravan_site:type=parking_lot,skiing; caravans=no; dog=yes;
    name=Area Bormio 2000; power_supply=no;
    sanitary_dump_station=no; tents=no; tourism=caravan_site;
    id=node/9001181866</desc>
  </wpt>
  <wpt lat="44.5075374" lon="10.7340377">
    <ele>153.0</ele>
    <name>Area Sosta Camper Castellarano</name>
    <desc>fee=no; name=Area Sosta Camper Castellarano;
    power_supply=no; sanitary_dump_station=yes;
    tourism=caravan_site; water_point=yes;
    id=node/9031376962</desc>
  </wpt>
  <wpt lat="44.7096336" lon="10.6246097">
    <ele>51.0</ele>
    <name>Area Sosta Foro Boario</name>
    <desc>addr:city=Reggio Emilia; addr:postcode=42124;
    addr:street=Via Fratelli Manfredi; capacity=6;
    caravan_site=motorhome_stopover;
    caravan_site:type=city,parking_lot; description=Free shuttlebus
    to Reggio Emilia (Mo-Sa); fee=no; maxstay=24 hours; name=Area
    Sosta Foro Boario; power_supply=yes; sanitary_dump_station=yes;
    socket:cee_blue=yes; surface=asphalt; toilets=no;
    tourism=caravan_site; water_point=yes;
    website=https://www.reggioemiliawelcome.it/it/reggio-emilia/ospitalita/dove-dormire/aree-di-sosta-camper/area-attrezzata-per-camper;
    id=node/9031739084</desc>
    <link href="https://www.reggioemiliawelcome.it/it/reggio-emilia/ospitalita/dove-dormire/aree-di-sosta-camper/area-attrezzata-per-camper">
    </link>
  </wpt>
  <wpt lat="44.7675641" lon="10.7742118">
    <ele>34.0</ele>
    <name>Area Sosta Camper Correggio</name>
    <desc>addr:city=Correggio; addr:postcode=42025; addr:street=Via
    Fazzano; description=Area camper, usata principalmente durante
    concerti e partite importanti; drinking_water=yes; fee=no;
    internet_access=no; name=Area Sosta Camper Correggio;
    permanent_camping=no; power_supply=no;
    sanitary_dump_station=yes; toilets=no; tourism=caravan_site;
    id=node/9031824427</desc>
  </wpt>
  <wpt lat="44.3166458" lon="10.4185476">
    <ele>1296.0</ele>
    <name>Area Sosta Monte Orsaro</name>
    <desc>addr:city=Villa Minozzo; addr:housenumber=66;
    addr:postcode=42030; addr:street=Via Pradancino; name=Area
    Sosta Monte Orsaro; phone=+39 329 6216576;
    tourism=caravan_site;
    website=https://www.rifugiomonteorsaro.it/pernottare/;
    id=node/9041134140</desc>
    <link href="https://www.rifugiomonteorsaro.it/pernottare/">
    </link>
  </wpt>
  <wpt lat="39.7837578" lon="9.6684816">
    <ele>3.0</ele>
    <name>Area Sosta Camper Mare Blu</name>
    <desc>addr:city=Cardedu; name=Area Sosta Camper Mare Blu;
    name:it=Area Sosta Camper Mare Blu; sanitary_dump_station=yes;
    tourism=caravan_site; id=node/9050340485</desc>
  </wpt>
  <wpt lat="44.3111615" lon="11.1968207">
    <ele>407.0</ele>
    <name>Parcheggio Il Poggiolo</name>
    <desc>description=Parcheggio ampio e sterrato gratuito, senza
    illuminazione e altro servizio, adatto anche alla sosta
    notturna; name=Parcheggio Il Poggiolo; power_supply=no;
    sanitary_dump_station=no; tourism=caravan_site;
    id=node/9060441610</desc>
  </wpt>
  <wpt lat="44.235717" lon="9.4757433">
    <ele>57.0</ele>
    <name>node/9079939717</name>
    <desc>tourism=caravan_site; id=node/9079939717</desc>
  </wpt>
  <wpt lat="44.4291744" lon="10.4000275">
    <ele>679.0</ele>
    <name>Area Camper Castelnovo ne Monti</name>
    <desc>addr:housenumber=11; addr:street=Via dei Partigiani;
    fee=no; name=Area Camper Castelnovo ne Monti; power_supply=no;
    sanitary_dump_station=yes; toilets=no; tourism=caravan_site;
    id=node/9181929853</desc>
  </wpt>
  <wpt lat="44.1813491" lon="9.5842243">
    <ele>12.0</ele>
    <name>node/9216912137</name>
    <desc>access=yes; amenity=parking; drinking_water=yes; fee=yes;
    lit=yes; name:signed=no; opening_hours=24/7;
    parking=street_side; parking:orientation=parallel;
    power_supply=no; sanitary_dump_station=no; supervised=no;
    surface=asphalt; toilets=no; tourism=caravan_site;
    id=node/9216912137</desc>
  </wpt>
  <wpt lat="44.1804474" lon="9.5846897">
    <ele>7.0</ele>
    <name>node/9216912138</name>
    <desc>access=yes; amenity=parking; drinking_water=no; fee=yes;
    lit=yes; name:signed=no; opening_hours=24/7;
    parking=street_side; parking:orientation=parallel;
    power_supply=no; sanitary_dump_station=no; supervised=no;
    surface=asphalt; toilets=no; tourism=caravan_site;
    id=node/9216912138</desc>
  </wpt>
  <wpt lat="40.5728485" lon="16.7608286">
    <ele>238.0</ele>
    <name>node/9352411695</name>
    <desc>fee=yes; power_supply=yes; sanitary_dump_station=yes;
    tourism=caravan_site; id=node/9352411695</desc>
  </wpt>
  <wpt lat="46.3813928" lon="11.6634576">
    <ele>1205.0</ele>
    <name>Area Camper Fantolin</name>
    <desc>name=Area Camper Fantolin; tourism=caravan_site;
    id=node/9460472474</desc>
  </wpt>
  <wpt lat="40.4844137" lon="16.1598722">
    <ele>816.0</ele>
    <name>Area camper Accettura</name>
    <desc>name=Area camper Accettura; power_supply=yes;
    sanitary_dump_station=yes; tourism=caravan_site;
    id=node/9477113587</desc>
  </wpt>
  <wpt lat="43.5266307" lon="10.6126969">
    <ele>139.0</ele>
    <name>node/9563286412</name>
    <desc>tourism=caravan_site; id=node/9563286412</desc>
  </wpt>
  <wpt lat="37.5243521" lon="13.7294948">
    <ele>554.0</ele>
    <name>Aree di sosta camper a Sutera</name>
    <desc>fee=no; name=Aree di sosta camper a Sutera;
    permanent_camping=no; power_supply=no;
    sanitary_dump_station=yes; seasonal=no; tents=no; toilets=no;
    tourism=caravan_site; water_point=yes;
    id=node/9628716373</desc>
  </wpt>
  <wpt lat="39.6961502" lon="9.1238592">
    <ele>401.0</ele>
    <name>Area Attrezzata</name>
    <desc>capacity=5; name=Area Attrezzata; power_supply=yes;
    tourism=caravan_site; id=node/9666874390</desc>
  </wpt>
  <wpt lat="42.9508734" lon="10.6839369">
    <ele>1.0</ele>
    <name>Parcheggio Carbonifera</name>
    <desc>fee=yes; name=Parcheggio Carbonifera; power_supply=no;
    sanitary_dump_station=yes; tourism=caravan_site;
    id=node/9713622004</desc>
  </wpt>
  <wpt lat="43.3525024" lon="10.4510571">
    <ele>0.0</ele>
    <name>ASD Vada Camper parking</name>
    <desc>alt_name=Campo del Mare; fee=yes; name=ASD Vada Camper
    parking; opening_hours=Jun-Aug, Sep-May off;
    operator=Associazione Sportiva Vada; tourism=caravan_site;
    id=node/9733640757</desc>
  </wpt>
  <wpt lat="40.2005749" lon="8.5030703">
    <ele>252.0</ele>
    <name>La Rosa dei venti</name>
    <desc>name=La Rosa dei venti; tourism=caravan_site;
    id=node/9740842717</desc>
  </wpt>
  <wpt lat="39.9116525" lon="15.920276">
    <ele>184.0</ele>
    <name>node/9766710717</name>
    <desc>tourism=caravan_site; id=node/9766710717</desc>
  </wpt>
  <wpt lat="44.3065413" lon="9.9941052">
    <ele>326.0</ele>
    <name>Azienda Agricola del Lupo</name>
    <desc>addr:housenumber=8; addr:postcode=54021;
    addr:street=Località Pagazzana; name=Azienda Agricola del Lupo;
    tourism=caravan_site; id=node/9774175017</desc>
  </wpt>
  <wpt lat="36.9160767" lon="15.1510477">
    <ele>13.0</ele>
    <name>Tremoli Parking</name>
    <desc>name=Tremoli Parking; tourism=caravan_site;
    id=node/9775626901</desc>
  </wpt>
  <wpt lat="45.9701762" lon="7.9533861">
    <ele>1369.0</ele>
    <name>Area Sosta Camper Macugnaga</name>
    <desc>bbq=no; capacity=28; caravan_site=motorhome_stopover;
    caravan_site:type=ice_rink; caravans=no; charge=20 EUR/24
    hours; dog=leashed; email=prenotazioni@ossolacollection.com;
    fee=yes; lit=yes; maxstay=48 hours; name=Area Sosta Camper
    Macugnaga; operator=Società OssolaCollection Srl;
    power_supply=yes; power_supply:maxcurrent=6;
    sanitary_dump_station=yes; seasonal=yes; tents=no;
    tourism=caravan_site; water_point=yes;
    website=https://www.ossolacollection.com/en/camper-park-pattinaggio.php;
    whatsapp=+39 0324 740003; id=node/9890599128</desc>
    <link href="https://www.ossolacollection.com/en/camper-park-pattinaggio.php">
    </link>
  </wpt>
  <wpt lat="40.3403133" lon="14.9874888">
    <ele>23.0</ele>
    <name>Trentova Camping Park</name>
    <desc>addr:city=Agropoli; addr:housenumber=8;
    addr:postcode=84043; addr:street=Via Belvedere;
    caravan_site=motorhome_stopover; caravan_site:type=camp_site;
    charge=30 EUR; charge:conditional=35 EUR@Aug,25 EUR@(Sep-Jun);
    description=Orario check-out: 11:00; fee=yes;
    internet_access=wlan; internet_access:fee=customers;
    name=Trentova Camping Park; phone=+39 3393101925;
    power_supply=yes; reservation=recommended;
    sanitary_dump_station=yes; tents=yes; tourism=caravan_site;
    website=https://www.trentovacampingpark.it/; wheelchair=yes;
    id=node/9893020593</desc>
    <link href="https://www.trentovacampingpark.it/"></link>
  </wpt>
  <wpt lat="42.8552634" lon="10.4233824">
    <ele>38.0</ele>
    <name>node/9915363882</name>
    <desc>tourism=caravan_site; id=node/9915363882</desc>
  </wpt>
  <wpt lat="42.3289969" lon="11.5853837">
    <ele>2.0</ele>
    <name>node/10002208411</name>
    <desc>fee=yes; internet_access=no; power_supply=no;
    sanitary_dump_station=no; tourism=caravan_site;
    id=node/10002208411</desc>
  </wpt>
  <wpt lat="46.6410135" lon="11.6916481">
    <ele>1139.0</ele>
    <name>Sport Bar Saint Peter</name>
    <desc>capacity=40; caravan_site=motorhome_stopover;
    caravan_site:type=mountains; fee=yes; internet_access=wlan;
    internet_access:fee=no; name=Sport Bar Saint Peter;
    opening_hours=May-Nov; power_supply=yes; power_supply:fee=yes;
    sanitary_dump_station=yes; sanitary_dump_station:fee=yes;
    seasonal=yes; tourism=caravan_site; water_point=yes;
    water_point:fee=yes;
    website=https://www.suedtirol.info/en/en/experiences-and-events/plp-experiences/experiences-south-tyrol/pdp-experience.smgpoie3a5d8e813575971fb7a8400f25470d0.sportbar.s--pietro-st--peter---funes-villnoess;
    id=node/10013108559</desc>
    <link href="https://www.suedtirol.info/en/en/experiences-and-events/plp-experiences/experiences-south-tyrol/pdp-experience.smgpoie3a5d8e813575971fb7a8400f25470d0.sportbar.s--pietro-st--peter---funes-villnoess">
    </link>
  </wpt>
  <wpt lat="46.6409147" lon="10.8977067">
    <ele>1469.0</ele>
    <name>Ob Kastellbell</name>
    <desc>name=Ob Kastellbell; name:de=Ob Kastellbell;
    tourism=caravan_site; id=node/10020912317</desc>
  </wpt>
  <wpt lat="46.6316074" lon="11.8547269">
    <ele>1496.0</ele>
    <name>San Martino in Badia</name>
    <desc>name=San Martino in Badia; tourism=caravan_site;
    id=node/10024491217</desc>
  </wpt>
  <wpt lat="40.1530431" lon="9.5106116">
    <ele>1007.0</ele>
    <name>Camping Silana</name>
    <desc>fee=yes; internet_access=no; operator=Camping Silana;
    permanent_camping=no; power_supply=yes;
    sanitary_dump_station=yes; toilets=yes; tourism=caravan_site;
    id=node/10087329635</desc>
  </wpt>
  <wpt lat="37.9339146" lon="13.6611074">
    <ele>475.0</ele>
    <name>Area Sosta Camper Caccamo</name>
    <desc>addr:city=Caccamo; addr:street=Via Termitana;
    capacity=10; description=AREA DI SOSTA COMUNALE CON ACQUA E
    SCARICO; fee=no; name=Area Sosta Camper Caccamo;
    operator=PUBBLICO; power_supply=no; sanitary_dump_station=yes;
    tourism=caravan_site; id=node/10185888634</desc>
  </wpt>
  <wpt lat="44.5242535" lon="11.3327924">
    <ele>35.0</ele>
    <name>Bottega del campeggiatore</name>
    <desc>addr:city=Bologna; addr:housenumber=157;
    addr:postcode=40131; addr:street=Via della Beverara;
    name=Bottega del campeggiatore; operator=Bottega del
    campeggiatore; phone=+39 051 6341504;
    ref:corine_land_cover=1212; sanitary_dump_station=yes;
    tourism=caravan_site;
    website=https://www.bottegacampeggiatore.com/area-di-sosta.php;
    id=way/265893603; ; email=info@camperopoli.it; name=Camperopoli
    Area di Sosta Camper; phone=+39051641504;
    website=https://www.camperopoli.it/; id=node/10300285509</desc>
    <link href="https://www.bottegacampeggiatore.com/area-di-sosta.php">
    </link>
  </wpt>
  <wpt lat="41.0949453" lon="14.3710164">
    <ele>376.0</ele>
    <name>http://www.oasisanrocco.it</name>
    <desc>addr:housenumber=2; addr:postcode=81100; addr:street=Via
    G. Rossetti; email=info@oasisanrocco.it; name:es=Área de
    autocaravanas Oasi San Rocco; opening_hours=24/7; phone=+39
    0823371290; tourism=caravan_site;
    website=http://www.oasisanrocco.it; id=node/10315117378</desc>
    <link href="http://www.oasisanrocco.it"></link>
  </wpt>
  <wpt lat="44.0750315" lon="12.5687767">
    <ele>0.0</ele>
    <name>Marina di Rimini</name>
    <desc>addr:housenumber=80; addr:postcode=47900;
    addr:street=Viale Ortigara; email=info@marinadirimini.com;
    internet_access=wlan; name=Marina di Rimini;
    opening_hours=24/7; phone=+39054129488; tourism=caravan_site;
    website=https://marinadirimini.com/; id=node/10381464909</desc>
    <link href="https://marinadirimini.com/"></link>
  </wpt>
  <wpt lat="37.8769526" lon="15.1773709">
    <ele>190.0</ele>
    <name>Agripark</name>
    <desc>name=Agripark; tourism=caravan_site;
    id=node/10737752515</desc>
  </wpt>
  <wpt lat="45.4679454" lon="10.7500476">
    <ele>111.0</ele>
    <name>Parking Parco Termale</name>
    <desc>charge=7.50 EUR/5h; drinking_water=yes; fee=yes;
    name=Parking Parco Termale; power_supply=yes;
    sanitary_dump_station=yes; tourism=caravan_site;
    id=node/10788116854</desc>
  </wpt>
  <wpt lat="37.0998683" lon="13.941692">
    <ele>8.0</ele>
    <name>node/10789969647</name>
    <desc>tourism=caravan_site; id=node/10789969647</desc>
  </wpt>
  <wpt lat="37.9827964" lon="12.5308098">
    <ele>6.0</ele>
    <name>L’hotel Le Saline</name>
    <desc>bar=yes; laundry=yes; name=L’hotel Le Saline;
    power_supply=yes; sanitary_dump_station=yes; shower=yes;
    toilets=yes; tourism=caravan_site; water_point=yes;
    website=https://www.lesalinehotel.com/area-di-sosta-camper/;
    id=node/10790471322</desc>
    <link href="https://www.lesalinehotel.com/area-di-sosta-camper/">
    </link>
  </wpt>
  <wpt lat="37.7031385" lon="12.9390889">
    <ele>60.0</ele>
    <name>Terme Acqua Pia</name>
    <desc>name=Terme Acqua Pia; tourism=caravan_site;
    website=https://www.termeacquapia.it/servizi/area-camper/;
    id=node/10795116280</desc>
    <link href="https://www.termeacquapia.it/servizi/area-camper/">
    </link>
  </wpt>
  <wpt lat="45.7557064" lon="10.5846196">
    <ele>982.0</ele>
    <name>San Rocco</name>
    <desc>name=San Rocco; tourism=caravan_site;
    id=node/10826423005</desc>
  </wpt>
  <wpt lat="40.7374471" lon="17.7419399">
    <ele>1.0</ele>
    <name>node/10831509605</name>
    <desc>name:de=Parkplatz; tourism=caravan_site;
    id=node/10831509605</desc>
  </wpt>
  <wpt lat="40.0679972" lon="18.47983">
    <ele>67.0</ele>
    <name>node/10833541505</name>
    <desc>name:de=Parkplatz; tourism=caravan_site;
    id=node/10833541505</desc>
  </wpt>
  <wpt lat="40.1328886" lon="18.489253">
    <ele>30.0</ele>
    <name>Torre Pinta</name>
    <desc>name=Torre Pinta; tourism=caravan_site;
    id=node/10839410172</desc>
  </wpt>
  <wpt lat="38.4036713" lon="15.8670685">
    <ele>1.0</ele>
    <name>node/10848411905</name>
    <desc>name:de=Parkplatz; tourism=caravan_site;
    id=node/10848411905</desc>
  </wpt>
  <wpt lat="45.1250502" lon="8.3981596">
    <ele>174.0</ele>
    <name>Agricampeggio dal Barbalando</name>
    <desc>addr:city=Casale Monferrato; addr:housenumber=135;
    addr:place=Località Regina; addr:postcode=15033; capacity=30
    EUR@(length&gt;7.5), 30 EUR@(weight&gt;3.5);
    caravan_site=motorhome_stopover; caravan_site:type=guest_house;
    contact:email=info@barbalando.it; contact:phone=+39 0142
    408241; contact:website=https://www.barbalando.it/;
    description=eat at restaurant or buy from farmshop to stay;
    fee=purchase; name=Agricampeggio dal Barbalando;
    power_supply=yes; ref:vatin=IT01764830061;
    reservation=required; seasonal=no; tourism=caravan_site;
    water_point=yes; id=node/10863747559</desc>
    <link href="https://www.barbalando.it/"></link>
  </wpt>
  <wpt lat="37.8027694" lon="15.2510316">
    <ele>11.0</ele>
    <name>node/10875149705</name>
    <desc>name:de=Parkplatz; tourism=caravan_site;
    id=node/10875149705</desc>
  </wpt>
  <wpt lat="42.9042582" lon="12.3370832">
    <ele>206.0</ele>
    <name>node/10881243297</name>
    <desc>tourism=caravan_site; id=node/10881243297</desc>
  </wpt>
  <wpt lat="46.2909109" lon="12.7935992">
    <ele>332.0</ele>
    <name>Il Bosco delle Agan</name>
    <desc>caravan_site=motorhome_stopover;
    caravan_site:type=mountains; fee=no; name=Il Bosco delle Agan;
    picnic_table=yes; sanitary_dump_station=yes; surface=grass;
    tourism=caravan_site; water_point=yes;
    id=node/10882817686</desc>
  </wpt>
  <wpt lat="38.1683729" lon="15.4116692">
    <ele>419.0</ele>
    <name>node/10926260993</name>
    <desc>tourism=caravan_site; id=node/10926260993</desc>
  </wpt>
  <wpt lat="37.8750648" lon="14.0186954">
    <ele>1575.0</ele>
    <name>node/10926349213</name>
    <desc>tourism=caravan_site; id=node/10926349213</desc>
  </wpt>
  <wpt lat="37.0614176" lon="14.9084204">
    <ele>642.0</ele>
    <name>node/10929545546</name>
    <desc>fee=no; tourism=caravan_site; id=node/10929545546</desc>
  </wpt>
  <wpt lat="45.9993306" lon="8.3318671">
    <ele>214.0</ele>
    <name>Area camper Premosello-Chiovenda</name>
    <desc>caravan_site=motorhome_stopover;
    caravan_site:type=river,village; fee=no; name=Area camper
    Premosello-Chiovenda; opening_hours=24/7;
    sanitary_dump_station=yes; surface=asphalt;
    tourism=caravan_site; water_point=yes;
    id=node/10936732298</desc>
  </wpt>
  <wpt lat="45.4335635" lon="11.1816374">
    <ele>79.0</ele>
    <name>Area Camper Colognola ai Colli</name>
    <desc>addr:street=Via Nogarola;
    caravan_site=motorhome_stopover; caravan_site:type=parking_lot;
    fee=yes; name=Area Camper Colognola ai Colli; power_supply=no;
    sanitary_dump_station=yes; sanitary_dump_station:fee=no;
    seasonal=no; toilets=no; tourism=caravan_site; water_point=yes;
    water_point:fee=no; id=node/10963347586</desc>
  </wpt>
  <wpt lat="40.2746913" lon="8.4845644">
    <ele>4.0</ele>
    <name>node/10983642205</name>
    <desc>name:de=Parkplatz; tourism=caravan_site;
    id=node/10983642205</desc>
  </wpt>
  <wpt lat="40.9271405" lon="9.5471247">
    <ele>6.0</ele>
    <name>node/11001440415</name>
    <desc>name:de=Parkplatz; tourism=caravan_site;
    id=node/11001440415</desc>
  </wpt>
  <wpt lat="37.5105471" lon="14.3209603">
    <ele>690.0</ele>
    <name>Agriturismo Baglio Pollicarini</name>
    <desc>fee=yes; operator=Agriturismo Baglio Pollicarini;
    tourism=caravan_site; id=node/11002421096</desc>
  </wpt>
  <wpt lat="40.0384107" lon="18.0235755">
    <ele>4.0</ele>
    <name>Agricamping Parco degli Ulivi</name>
    <desc>name=Agricamping Parco degli Ulivi; power_supply=yes;
    tourism=caravan_site;
    website=https://www.agricampingdegliulivi.it/servizi/;
    id=node/11065801708</desc>
    <link href="https://www.agricampingdegliulivi.it/servizi/">
    </link>
  </wpt>
  <wpt lat="45.4611887" lon="12.1854228">
    <ele>0.0</ele>
    <name>AladinCamp</name>
    <desc>addr:housenumber=19f; addr:postcode=30034;
    addr:street=Via Cà Rubaldi; name=AladinCamp;
    name:it=AladinCamp; opening_hours=24/7; phone=+393534271805;
    tourism=caravan_site; id=node/11068842706</desc>
  </wpt>
  <wpt lat="46.0623338" lon="8.6900806">
    <ele>209.0</ele>
    <name>Cannobio, Casali Masserecci, 7</name>
    <desc>addr:housenumber=7; addr:postcode=28822; addr:street=Via
    Casali Masserecci; internet_access=wlan; name=Cannobio, Casali
    Masserecci, 7; tourism=caravan_site; id=node/11073126705</desc>
  </wpt>
  <wpt lat="40.3003372" lon="14.948546">
    <ele>8.0</ele>
    <name>Campo dei Rocchi</name>
    <desc>addr:city=Castellabate; addr:street=Piazzale dei Rocchi;
    email=info@campodeirocchi.it; internet_access=yes;
    internet_access:fee=customers; name=Campo dei Rocchi; phone=+39
    331 4728859; power_supply=yes; sanitary_dump_station=yes;
    tourism=caravan_site; website=https://www.campodeirocchi.it/;
    id=node/11107327773</desc>
    <link href="https://www.campodeirocchi.it/"></link>
  </wpt>
  <wpt lat="44.2960648" lon="11.1250751">
    <ele>231.0</ele>
    <name>Azienda Ca nova 123</name>
    <desc>addr:housenumber=123; addr:postcode=40030;
    addr:street=via Carviano; contact:instagram=azienda.canova_123;
    drinking_water=no; fee=no; name=Azienda Ca nova 123;
    opening_hours=24/7; phone=+39 3472338354; power_supply=no;
    sanitary_dump_station=no; toilets=no; tourism=caravan_site;
    website=https://www.aziendaagricolacanova.it/;
    id=node/11115030005</desc>
    <link href="https://www.aziendaagricolacanova.it/"></link>
  </wpt>
  <wpt lat="44.1648717" lon="8.2773952">
    <ele>33.0</ele>
    <name>Aloha area camper</name>
    <desc>addr:city=Tovo San Giacomo; addr:housenumber=253;
    addr:postcode=17020; addr:street=Via Nicolo Rembado;
    internet_access=yes; internet_access:fee=customers; name=Aloha
    area camper; power_supply=yes; sanitary_dump_station=yes;
    surface=grass; tourism=caravan_site; id=way/845318731; ;
    fee=yes; internet_access=wlan; name=Aloha;
    id=node/11119075902</desc>
  </wpt>
  <wpt lat="40.8696667" lon="14.2462497">
    <ele>169.0</ele>
    <name>Parcheggio IPM</name>
    <desc>addr:city=Napoli; addr:country=IT; addr:housenumber=27;
    addr:street=Viale Colli Aminei; alt_name=Area Camper IPM;
    name=Parcheggio IPM; name:es=Área de autocaravanas;
    power_supply=yes; sanitary_dump_station=yes;
    socket:cee_blue=yes; tourism=caravan_site;
    id=node/11166566353</desc>
  </wpt>
  <wpt lat="40.8038156" lon="14.3486015">
    <ele>26.0</ele>
    <name>Parcheggio camper Ercolano</name>
    <desc>addr:city=Ercolano; addr:postcode=80056; addr:street=Via
    dei Papiri Ercolanesi; fee=yes; name=Parcheggio camper
    Ercolano; power_supply=no; sanitary_dump_station=no;
    tourism=caravan_site; id=node/11169105998</desc>
  </wpt>
  <wpt lat="43.7700943" lon="10.4282274">
    <ele>2.0</ele>
    <name>Il Pruno</name>
    <desc>mobile=+39 335 6555327; name=Il Pruno;
    tourism=caravan_site;
    website=https://ilpruno.net/sosta-camper/;
    id=node/11215874307</desc>
    <link href="https://ilpruno.net/sosta-camper/"></link>
  </wpt>
  <wpt lat="46.7527685" lon="12.1132807">
    <ele>1095.0</ele>
    <name>Area di sosta Camper a Monguelfo</name>
    <desc>caravan_site=motorhome_stopover;
    caravan_site:type=parking_lot; charge=12 EUR/24 hours; fee=yes;
    name=Area di sosta Camper a Monguelfo; power_supply=no;
    sanitary_dump_station=no; tourism=caravan_site; water_point=no;
    website=https://www.gsieser-tal.com/it/pois/C0F1632C718CB214793535FA93C9F8C2-area-di-sosta-per-camper-a-monguelfo.html;
    id=node/11231074196</desc>
    <link href="https://www.gsieser-tal.com/it/pois/C0F1632C718CB214793535FA93C9F8C2-area-di-sosta-per-camper-a-monguelfo.html">
    </link>
  </wpt>
  <wpt lat="41.6454469" lon="14.2424414">
    <ele>895.0</ele>
    <name>node/11270261994</name>
    <desc>amenity=recycling; cabins=no; capacity=10; fee=no;
    internet_access=no; power_supply=yes;
    sanitary_dump_station=yes; toilets=yes; tourism=caravan_site;
    water_supply=yes; id=node/11270261994</desc>
  </wpt>
  <wpt lat="44.2163645" lon="10.6956013">
    <ele>1303.0</ele>
    <name>Area sosta camper "Rio delle Ghiaie"</name>
    <desc>addr:city=Riolunato; addr:street=Località Polle;
    internet_access=no; name=Area sosta camper "Rio delle Ghiaie";
    power_supply=yes; sanitary_dump_station=yes;
    tourism=caravan_site; id=node/11333015865</desc>
  </wpt>
  <wpt lat="40.6998185" lon="14.6952854">
    <ele>267.0</ele>
    <name>node/11335957556</name>
    <desc>capacity=10; fee=no; internet_access=no; power_supply=no;
    reservation=no; sanitary_dump_station=no; tourism=caravan_site;
    id=node/11335957556</desc>
  </wpt>
  <wpt lat="44.6125793" lon="11.8396034">
    <ele>6.0</ele>
    <name>Argenta</name>
    <desc>name=Argenta; tourism=caravan_site;
    id=node/11397964992</desc>
  </wpt>
  <wpt lat="46.2204035" lon="11.9953939">
    <ele>715.0</ele>
    <name>area sosta camper Lambroi</name>
    <desc>email=gosaldo@agordino.bl.it; fee=yes;
    internet_access=no; name=area sosta camper Lambroi;
    power_supply=yes; sanitary_dump_station=yes;
    tourism=caravan_site; id=node/11492725409</desc>
  </wpt>
  <wpt lat="45.8951395" lon="10.8884431">
    <ele>77.0</ele>
    <name>Agrisalus agricampeggio ad Arco</name>
    <desc>caravan_site=motorhome_stopover;
    caravan_site:type=farm_shop;
    facebook=https://www.facebook.com/p/AgriSalus-100076198607214/;
    fee=yes; name=Agrisalus agricampeggio ad Arco; produce=cheese;
    reservation=yes; surface=pebblestone; swimming_pool=yes;
    tents=yes; tourism=caravan_site;
    website=https://www.agrisalus.it/en/campsite/;
    id=node/11572083717</desc>
    <link href="https://www.agrisalus.it/en/campsite/"></link>
  </wpt>
  <wpt lat="39.6909059" lon="15.8154578">
    <ele>5.0</ele>
    <name>Lido Tropical</name>
    <desc>dog=yes; name=Lido Tropical; power_supply=yes;
    power_supply:maxcurrent=6; sanitary_dump_station=yes;
    shower=yes; socket:cee_blue=yes; survey:date=2024-03-17;
    toilets=yes; tourism=caravan_site;
    website=https://www.lidotropical.it; id=node/11738711169; ;
    id=way/1314337811</desc>
    <link href="https://www.lidotropical.it"></link>
  </wpt>
  <wpt lat="45.9575281" lon="11.0317647">
    <ele>903.0</ele>
    <name>Area sosta Bellaria</name>
    <desc>access=yes; capacity=15; drinking_water=yes; fee=no;
    name=Area sosta Bellaria; power_supply=no;
    sanitary_dump_station=yes; surface=compacted; toilets=no;
    tourism=caravan_site; wheelchair=yes;
    id=node/11762486173</desc>
  </wpt>
  <wpt lat="45.97257" lon="8.7528245">
    <ele>208.0</ele>
    <name>Area Camper Luino</name>
    <desc>fee=yes; name=Area Camper Luino; power_supply=yes;
    tourism=caravan_site; id=node/11766528501</desc>
  </wpt>
  <wpt lat="40.6035797" lon="14.8637992">
    <ele>3.0</ele>
    <name>
    https://www.camperstopitaly.com/it/area-sosta-camper-attrezzata-camperstopitaly.php</name>
    <desc>camping_behaviour=yes; caravan_site=motorhome_stopover;
    caravan_site:type=beach; charge=20 EUR; fee=yes; laundry=yes;
    power_supply=yes; tourism=caravan_site;
    website=https://www.camperstopitaly.com/it/area-sosta-camper-attrezzata-camperstopitaly.php;
    id=node/11767776359</desc>
    <link href="https://www.camperstopitaly.com/it/area-sosta-camper-attrezzata-camperstopitaly.php">
    </link>
  </wpt>
  <wpt lat="46.4635152" lon="12.4819359">
    <ele>1071.0</ele>
    <name>Lorenzago di Cadore Strada Statale 52 Carnica</name>
    <desc>name=Lorenzago di Cadore Strada Statale 52 Carnica;
    sanitary_dump_station=yes; tourism=caravan_site;
    id=node/11778877528</desc>
  </wpt>
  <wpt lat="44.9055991" lon="10.5608176">
    <ele>26.0</ele>
    <name>River Passion</name>
    <desc>addr:city=Boretto; addr:housenumber=5;
    addr:postcode=42022; addr:street=Via Argine; dog=yes; fee=yes;
    internet_access=wlan; name=River Passion; phone=+3905221402398;
    power_supply=yes; shower=yes; toilets=yes;
    tourism=caravan_site;
    website=https://riverpassion.it/areacamper.html;
    wheelchair=yes; id=node/11807236471</desc>
    <link href="https://riverpassion.it/areacamper.html"></link>
  </wpt>
  <wpt lat="42.996019" lon="10.5382685">
    <ele>9.0</ele>
    <name>node/11809361920</name>
    <desc>capacity=3; power_supply=no; sanitary_dump_station=no;
    tourism=caravan_site; id=node/11809361920</desc>
  </wpt>
  <wpt lat="45.6641791" lon="8.0704153">
    <ele>1424.0</ele>
    <name>Punto sosta Bielmonte Piazzale 2</name>
    <desc>caravan_site=motorhome_stopover;
    caravan_site:type=mountains; charge=8 EUR; fee=yes; name=Punto
    sosta Bielmonte Piazzale 2; operator=Wing Over Bar;
    power_supply=yes; reservation=recommended;
    sanitary_dump_station=yes; shower=yes; shower:charge=2 EUR;
    shower:fee=yes; toilets=yes; tourism=caravan_site;
    water_point=yes;
    website=https://www.viaggiaescopri.it/area-sosta-camper-bielmonte-oasi-zegna/;
    id=node/11848439272</desc>
    <link href="https://www.viaggiaescopri.it/area-sosta-camper-bielmonte-oasi-zegna/">
    </link>
  </wpt>
  <wpt lat="43.363806" lon="13.5497592">
    <ele>40.0</ele>
    <name>node/11935283797</name>
    <desc>sanitary_dump_station=yes; tourism=caravan_site;
    id=node/11935283797</desc>
  </wpt>
  <wpt lat="37.0580604" lon="15.2682307">
    <ele>5.0</ele>
    <name>node/11958662706</name>
    <desc>tourism=caravan_site; id=node/11958662706</desc>
  </wpt>
  <wpt lat="43.1470153" lon="13.2271366">
    <ele>291.0</ele>
    <name>node/11964798728</name>
    <desc>tourism=caravan_site; id=node/11964798728</desc>
  </wpt>
  <wpt lat="43.0880187" lon="13.0045992">
    <ele>766.0</ele>
    <name>node/11983723697</name>
    <desc>tourism=caravan_site; id=node/11983723697</desc>
  </wpt>
  <wpt lat="42.2480936" lon="13.1004446">
    <ele>543.0</ele>
    <name>Sostacamper</name>
    <desc>name=Sostacamper; tourism=caravan_site;
    id=node/12020066202</desc>
  </wpt>
  <wpt lat="38.2042512" lon="16.2362125">
    <ele>8.0</ele>
    <name>node/12054916570</name>
    <desc>note=Ex campeggio abbandonato; tourism=caravan_site;
    id=node/12054916570</desc>
  </wpt>
  <wpt lat="41.9161345" lon="15.3339122">
    <ele>0.0</ele>
    <name>Lido Rosa</name>
    <desc>name=Lido Rosa; power_supply=no;
    sanitary_dump_station=no; tourism=caravan_site;
    id=node/12057480062</desc>
  </wpt>
  <wpt lat="41.8936931" lon="15.3452424">
    <ele>2.0</ele>
    <name>In Laguna</name>
    <desc>capacity=10; email=info@inlaguna.it; name=In Laguna;
    phone=+39 3285 887054; sanitary_dump_station=no;
    tourism=caravan_site; website=https://www.inlaguna.it/;
    id=node/12057508900</desc>
    <link href="https://www.inlaguna.it/"></link>
  </wpt>
  <wpt lat="38.9644093" lon="16.151706">
    <ele>6.0</ele>
    <name>node/12062936370</name>
    <desc>tourism=caravan_site; id=node/12062936370</desc>
  </wpt>
  <wpt lat="41.287354" lon="15.8439881">
    <ele>92.0</ele>
    <name>node/12077926669</name>
    <desc>tourism=caravan_site; id=node/12077926669</desc>
  </wpt>
  <wpt lat="44.1205251" lon="11.0457499">
    <ele>466.0</ele>
    <name>La Spiaggetta</name>
    <desc>addr:city=Camugnano; addr:postcode=40032; name=La
    Spiaggetta; power_supply=no; tourism=caravan_site;
    id=node/12082679094</desc>
  </wpt>
  <wpt lat="43.8731768" lon="12.8030612">
    <ele>39.0</ele>
    <name>Parcheggio Borgo Santa Maria</name>
    <desc>addr:street=Strada del Foglia; description=Ampio
    parcheggio senza servizi utilizzato da camper e autocarri;
    description:en=Large parking lot without services used by
    campers and trucks; fee=no; internet_access=no; name=Parcheggio
    Borgo Santa Maria; power_supply=no; sanitary_dump_station=no;
    tourism=caravan_site; id=node/12089214890</desc>
  </wpt>
  <wpt lat="42.9960002" lon="11.5201497">
    <ele>327.0</ele>
    <name>node/12100497734</name>
    <desc>fee=no; tourism=caravan_site; id=node/12100497734</desc>
  </wpt>
  <wpt lat="42.017661" lon="14.5427927">
    <ele>490.0</ele>
    <name>node/12102098985</name>
    <desc>power_supply=yes; sanitary_dump_station=yes;
    tourism=caravan_site; id=node/12102098985</desc>
  </wpt>
  <wpt lat="46.4962888" lon="13.689141">
    <ele>847.0</ele>
    <name>Area camper Tarvisio</name>
    <desc>name=Area camper Tarvisio; tourism=caravan_site;
    id=node/12106864401</desc>
  </wpt>
  <wpt lat="41.8149252" lon="13.7646209">
    <ele>1230.0</ele>
    <name>Pescasserolandia</name>
    <desc>description=Email : info@pescasserolandia.it; mobile=+39
    338 172 6562; name=Pescasserolandia; tourism=caravan_site;
    website=https://www.pescasserolandia.it/;
    id=node/12139650555</desc>
    <link href="https://www.pescasserolandia.it/"></link>
  </wpt>
  <wpt lat="45.9000132" lon="10.9421169">
    <ele>1215.0</ele>
    <name>Area Sosta Camper Santa Barbara</name>
    <desc>addr:city=Ronzo-Chienis; capacity=8;
    caravan_site=motorhome_stopover; caravan_site:type=countryside;
    fee=no; maxstay=72 hours; name=Area Sosta Camper Santa Barbara;
    picnic_table=yes; power_supply=no; sanitary_dump_station=yes;
    surface=grass_paver; tourism=caravan_site; water_point=yes;
    id=node/12166224166</desc>
  </wpt>
  <wpt lat="46.5334297" lon="11.5326244">
    <ele>885.0</ele>
    <name>Seiser Alm</name>
    <desc>charge=39€; check_date=2025-07-29; fee=yes; name=Seiser
    Alm; tourism=caravan_site; id=node/12232149462</desc>
  </wpt>
  <wpt lat="44.1155226" lon="8.235666">
    <ele>10.0</ele>
    <name>Val Vartella Agri Camper Park</name>
    <desc>addr:city=Borghetto; caravan_site=motorhome_stopover;
    caravan_site:type=countryside; email=valvaratella@yahoo.it;
    name=Val Vartella Agri Camper Park; phone=+39 338 2453135;
    tourism=caravan_site; website=http://www.valvaratella.com/;
    id=node/12285642567</desc>
    <link href="http://www.valvaratella.com/"></link>
  </wpt>
  <wpt lat="44.8345579" lon="11.6343101">
    <ele>7.0</ele>
    <name>Parcheggio Camper Rampari di San Rocco</name>
    <desc>addr:street=Rampari di San Rocco; name=Parcheggio Camper
    Rampari di San Rocco; power_supply=no;
    sanitary_dump_station=no; tourism=caravan_site;
    website=https://www.ferraratua.it/parcheggio-camper-in-rampari-di-san-rocco/;
    id=node/12287455644</desc>
    <link href="https://www.ferraratua.it/parcheggio-camper-in-rampari-di-san-rocco/">
    </link>
  </wpt>
  <wpt lat="42.719395" lon="13.0168153">
    <ele>605.0</ele>
    <name>node/12313130755</name>
    <desc>tourism=caravan_site; id=node/12313130755; ;
    id=way/283347037</desc>
  </wpt>
  <wpt lat="45.0436717" lon="11.092406">
    <ele>10.0</ele>
    <name>Area camper Pieve di Coriano</name>
    <desc>name=Area camper Pieve di Coriano; power_supply=yes;
    tourism=caravan_site; id=node/12404408578</desc>
  </wpt>
  <wpt lat="43.4915876" lon="12.7710612">
    <ele>516.0</ele>
    <name>Camper Service Serra Sant'Abbondio</name>
    <desc>addr:city=Serra Sant'Abbondio; addr:postcode=61040;
    addr:street=Via Loreto; name=Camper Service Serra
    Sant'Abbondio; tourism=caravan_site;
    website=https://amarche.it/aree-camper-gratuite-pesaro-urbino/#Serra-Sant8217Abbondio-PU-camper-service-gratuito;
    id=node/12430790505</desc>
    <link href="https://amarche.it/aree-camper-gratuite-pesaro-urbino/#Serra-Sant8217Abbondio-PU-camper-service-gratuito">
    </link>
  </wpt>
  <wpt lat="41.5276746" lon="13.3703497">
    <ele>172.0</ele>
    <name>San Sosio</name>
    <desc>addr:housenumber=5 Piazza; addr:postcode=03020;
    addr:street=Via delle Orchidee; drinking_water=yes; fee=no;
    name=San Sosio; power_supply=yes; sanitary_dump_station=no;
    tourism=caravan_site; id=node/12570679201</desc>
  </wpt>
  <wpt lat="43.9723345" lon="8.1583959">
    <ele>13.0</ele>
    <name>Camping San Sebastiano</name>
    <desc>capacity=8; caravan_site=motorhome_stopover;
    caravan_site:type=camp_site; charge=50 EUR;
    charge:conditional=40 EUR@(mid_season),30 EUR@(low_season);
    fee=yes; name=Camping San Sebastiano; tourism=caravan_site;
    website=https://www.campingsansebastiano.com/it/tents-and-campers/;
    id=node/12598553301</desc>
    <link href="https://www.campingsansebastiano.com/it/tents-and-campers/">
    </link>
  </wpt>
  <wpt lat="44.1890249" lon="12.4152303">
    <ele>0.0</ele>
    <name>Area Camper ATR</name>
    <desc>addr:housenumber=14; addr:postcode=47042; addr:street=Via
    Cesenatico; capacity=20;
    contact:website=https://www.atr.fc.it/sosta/sostare-a-cesenatico-2/;
    drinking_water=no; fee=yes; maxstay=72 hours; name=Area Camper
    ATR; opening_hours=24/7; power_supply=no;
    sanitary_dump_station=yes; toilets=no; tourism=caravan_site;
    id=node/12630818737; ; id=way/1364074960</desc>
    <link href="https://www.atr.fc.it/sosta/sostare-a-cesenatico-2/">
    </link>
  </wpt>
  <wpt lat="43.0292546" lon="12.8911099">
    <ele>789.0</ele>
    <name>Area sosta camper Colfiorito</name>
    <desc>fee=yes; internet_access=no; name=Area sosta camper
    Colfiorito; payment:cash=yes; power_supply=yes;
    sanitary_dump_station=yes; tourism=caravan_site;
    wheelchair=yes; id=node/12631202782; ; id=way/1378185777</desc>
  </wpt>
  <wpt lat="42.9514189" lon="12.6914603">
    <ele>230.0</ele>
    <name>Sosta per camper</name>
    <desc>name=Sosta per camper; tourism=caravan_site;
    id=node/12631215931</desc>
  </wpt>
  <wpt lat="44.6231579" lon="8.842894">
    <ele>330.0</ele>
    <name>Area sosta Voltaggio</name>
    <desc>description=kostenlos, Toilette, Trinkwasser, Grauwasser;
    name=Area sosta Voltaggio; tourism=caravan_site;
    id=node/12716311976</desc>
  </wpt>
  <wpt lat="46.1265764" lon="11.2536047">
    <ele>981.0</ele>
    <name>Miola</name>
    <desc>addr:city=Miola; addr:postcode=38042; addr:street=Via
    dello Stadio; fee=no; power_supply=no;
    sanitary_dump_station=no; tourism=caravan_site;
    id=node/12749840324</desc>
  </wpt>
  <wpt lat="39.960095" lon="9.6787365">
    <ele>2.0</ele>
    <name>Camping Girasole</name>
    <desc>addr:city=Girasole; addr:postcode=08040; addr:street=Via
    Camping Girasole; name=Camping Girasole; power_supply=yes;
    tourism=caravan_site; website=https://campingirasole.it;
    id=node/12771830280</desc>
    <link href="https://campingirasole.it"></link>
  </wpt>
  <wpt lat="43.6097756" lon="12.9777377">
    <ele>194.0</ele>
    <name>node/12783731045</name>
    <desc>survey:date=2025-04-24; tourism=caravan_site;
    id=node/12783731045</desc>
  </wpt>
  <wpt lat="43.1482" lon="10.8607329">
    <ele>560.0</ele>
    <name>node/12796018752</name>
    <desc>power_supply=yes; sanitary_dump_station=yes;
    tourism=caravan_site; id=node/12796018752</desc>
  </wpt>
  <wpt lat="46.1602249" lon="12.6637635">
    <ele>314.0</ele>
    <name>Area Sosta Camper Montereale Valcellina=Serravalle
    Designer Outlet</name>
    <desc>capacity=6; caravan_site=motorhome_stopover;
    caravan_site:type=village; fee=no; name=Area Sosta Camper
    Montereale Valcellina=Serravalle Designer Outlet;
    opening_hours=24/7; picnic_table=yes;
    sanitary_dump_station=yes; sanitary_dump_station:fee=yes;
    seasonal=no; surface=paving_stones; tourism=caravan_site;
    water_point=yes;
    website=https://pfo.comunitafvg.it/it/tre-nuove-aree-camper-sul-territorio-della-comunita-di-montagna-delle-prealpi-friulane-orientali-140885;
    id=node/12811143101</desc>
    <link href="https://pfo.comunitafvg.it/it/tre-nuove-aree-camper-sul-territorio-della-comunita-di-montagna-delle-prealpi-friulane-orientali-140885">
    </link>
  </wpt>
  <wpt lat="42.90034" lon="13.4586414">
    <ele>520.0</ele>
    <name>Area sosta Camper Palmiano capoluogo</name>
    <desc>name=Area sosta Camper Palmiano capoluogo;
    tourism=caravan_site; id=node/12820441447</desc>
  </wpt>