<?xml version="1.0" encoding="utf-8"?>
<gpx xmlns="http://www.topografix.com/GPX/1/1"
xmlns:xsi="http://www.w3.org/2001/XMLSchema-instance"
xsi:schemaLocation="http://www.topografix.com/GPX/1/1 http://www.topografix.com/GPX/1/1/gpx.xsd"
version="1.1" creator="togpx">
  <metadata>
    <copyright>
      <license>"osm3s": { "timestamp_osm_base":
      "2025-09-09T08:12:32Z", "timestamp_areas_base":
      "2025-09-09T06:43:26Z", "copyright": "The data included in
      this document is from www.openstreetmap.org. The data is made
      available under ODbL." } // SRTM: { Elevation data missing in
      OSM was added by the NASA Shuttle Radar Topography Mission as
      public release version, if available there. } // { Check for
      latest version of this file on:
      https://github.com/GpxFeed/campgrounds }</license>
    </copyright>
  </metadata>
  <wpt lat="38.9638571" lon="8.6008964">
    <ele>0.0</ele>
    <name>Sardegna</name>
    <desc>fee=yes; name=Sardegna; name:ca=Sardenya;
    tourism=caravan_site; wheelchair=yes; id=node/26860543</desc>
  </wpt>
  <wpt lat="46.3518996" lon="11.6311156">
    <ele>1143.0</ele>
    <name>node/272337352</name>
    <desc>created_by=JOSM; sanitary_dump_station=yes;
    tourism=caravan_site; id=node/272337352</desc>
  </wpt>
  <wpt lat="45.7602017" lon="11.1948518">
    <ele>946.0</ele>
    <name>node/343439166</name>
    <desc>amenity=parking; parking=surface; surface=unpaved;
    tourism=caravan_site; id=way/58614941; ;
    id=node/343439166</desc>
  </wpt>
  <wpt lat="46.1347398" lon="9.262211">
    <ele>583.0</ele>
    <name>node/427691491</name>
    <desc>tourism=caravan_site; id=node/427691491</desc>
  </wpt>
  <wpt lat="43.2647711" lon="13.3462497">
    <ele>316.0</ele>
    <name>node/468761259</name>
    <desc>caravans=yes; tents=no; tourism=caravan_site;
    id=node/468761259</desc>
  </wpt>
  <wpt lat="45.0413375" lon="6.985042">
    <ele>1408.0</ele>
    <name>Magic Forest</name>
    <desc>name=Magic Forest; tourism=caravan_site;
    id=node/489568766</desc>
  </wpt>
  <wpt lat="40.3369114" lon="9.5262597">
    <ele>195.0</ele>
    <name>Agricamper Iloghe</name>
    <desc>name=Agricamper Iloghe; opening_hours=24/7;
    tourism=caravan_site; id=node/563303857</desc>
  </wpt>
  <wpt lat="44.6252956" lon="10.1009027">
    <ele>390.0</ele>
    <name>area bardone</name>
    <desc>amenity=parking; area=yes; caravans=yes; name=area
    bardone; power_supply=yes; service=parking_aisle; tents=no;
    toll=yes; tourism=caravan_site; id=way/119392785; ;
    id=node/767502713</desc>
  </wpt>
  <wpt lat="40.8434935" lon="17.4634619">
    <ele>0.0</ele>
    <name>node/768033306</name>
    <desc>tourism=caravan_site; id=node/768033306</desc>
  </wpt>
  <wpt lat="44.6975214" lon="7.1600662">
    <ele>1326.0</ele>
    <name>Area Camper Crissolo</name>
    <desc>name=Area Camper Crissolo; tourism=caravan_site;
    id=node/798769543</desc>
  </wpt>
  <wpt lat="41.8321056" lon="14.264575">
    <ele>1393.0</ele>
    <name>node/806691335</name>
    <desc>tourism=caravan_site; id=node/806691335</desc>
  </wpt>
  <wpt lat="40.6066441" lon="8.274823">
    <ele>14.0</ele>
    <name>I Platani</name>
    <desc>name=I Platani; tourism=caravan_site;
    id=node/808434030</desc>
  </wpt>
  <wpt lat="43.4719967" lon="11.887792">
    <ele>252.0</ele>
    <name>Area sosta camper comunale</name>
    <desc>name=Area sosta camper comunale; tourism=caravan_site;
    id=node/843264098; ; id=way/652666636</desc>
  </wpt>
  <wpt lat="46.0362804" lon="9.0516935">
    <ele>618.0</ele>
    <name>Camping San Rocco</name>
    <desc>drinking_water=yes; fee=yes; name=Camping San Rocco;
    power_supply=yes; sanitary_dump_station=yes; toilets=yes;
    tourism=caravan_site; id=node/886376734</desc>
  </wpt>
  <wpt lat="43.3095188" lon="13.3130018">
    <ele>322.0</ele>
    <name>node/894609696</name>
    <desc>capacity=2; tourism=caravan_site;
    id=node/894609696</desc>
  </wpt>
  <wpt lat="45.5618547" lon="7.9571923">
    <ele>787.0</ele>
    <name>node/901178327</name>
    <desc>tourism=caravan_site; id=node/901178327</desc>
  </wpt>
  <wpt lat="46.2532203" lon="11.8005878">
    <ele>1427.0</ele>
    <name>node/944507665</name>
    <desc>fee=yes; power_supply=yes; sanitary_dump_station=yes;
    tourism=caravan_site; water_supply=yes;
    id=node/944507665</desc>
  </wpt>
  <wpt lat="40.3960624" lon="15.3530494">
    <ele>535.0</ele>
    <name>Zona Roulottes</name>
    <desc>name=Zona Roulottes; tourism=caravan_site;
    id=node/1014180226</desc>
  </wpt>
  <wpt lat="40.6702034" lon="15.1177201">
    <ele>416.0</ele>
    <name>node/1232580798</name>
    <desc>tourism=caravan_site; id=node/1232580798</desc>
  </wpt>
  <wpt lat="46.1651669" lon="12.0601151">
    <ele>422.0</ele>
    <name>Area camper Pian Falcina</name>
    <desc>capacity=12; charge=10 EUR/24 hour; fee=yes; maxstay=72
    hours; name=Area camper Pian Falcina; tourism=caravan_site;
    id=node/1261121989</desc>
  </wpt>
  <wpt lat="40.2341792" lon="14.9540837">
    <ele>8.0</ele>
    <name>node/1314898865</name>
    <desc>tourism=caravan_site; id=node/1314898865</desc>
  </wpt>
  <wpt lat="43.9304161" lon="11.4650284">
    <ele>179.0</ele>
    <name>Zufolana</name>
    <desc>name=Zufolana; tourism=caravan_site;
    id=node/1341244455</desc>
  </wpt>
  <wpt lat="44.4144008" lon="8.7056863">
    <ele>32.0</ele>
    <name>Caravan Park La Vesima</name>
    <desc>name=Caravan Park La Vesima; tourism=caravan_site;
    url=http://www.caravanparklavesima.it/index.php;
    id=node/1350324956</desc>
    <link href="http://www.caravanparklavesima.it/index.php">
    </link>
  </wpt>
  <wpt lat="46.0608215" lon="8.6923388">
    <ele>207.0</ele>
    <name>Motorhome parking</name>
    <desc>check_date=2025-08-05; fee=yes; name=Motorhome parking;
    tourism=caravan_site; id=node/1378611002</desc>
  </wpt>
  <wpt lat="44.8984436" lon="7.2357886">
    <ele>496.0</ele>
    <name>Area camper Le Querce Rosse</name>
    <desc>name=Area camper Le Querce Rosse; power_supply=yes;
    sanitary_dump_station=yes; tourism=caravan_site;
    id=node/1382711580</desc>
  </wpt>
  <wpt lat="46.3086733" lon="11.883165">
    <ele>1332.0</ele>
    <name>Parcheggio Mandra ai Lach</name>
    <desc>access=yes; amenity=parking; capacity=50;
    capacity:disabled=1; fee=yes; name=Parcheggio Mandra ai Lach;
    operator=Comune di Canale d'Agordo; park_ride=no;
    parking=surface; payment:cash=yes; supervised=no;
    surface=gravel; tourism=caravan_site; id=node/1385118010</desc>
  </wpt>
  <wpt lat="43.1934076" lon="10.5416704">
    <ele>1.0</ele>
    <name>node/1390610049</name>
    <desc>fee=yes; tourism=caravan_site; id=node/1390610049</desc>
  </wpt>
  <wpt lat="43.1412581" lon="13.1905653">
    <ele>300.0</ele>
    <name>Valleverde</name>
    <desc>fee=yes; name=Valleverde; power_supply=yes; stars=2;
    tents=no; tourism=caravan_site; id=node/1397057861</desc>
  </wpt>
  <wpt lat="46.9454793" lon="12.0637982">
    <ele>1536.0</ele>
    <name>Parkplatz Rein</name>
    <desc>capacity=4; drinking_water=yes; fee=7-19 Uhr;
    name=Parkplatz Rein; power_supply=no;
    sanitary_dump_station=yes; toilets=yes; tourism=caravan_site;
    id=node/1433492147</desc>
  </wpt>
  <wpt lat="44.6251185" lon="9.8649109">
    <ele>732.0</ele>
    <name>node/1458904377</name>
    <desc>tourism=caravan_site; id=node/1458904377</desc>
  </wpt>
  <wpt lat="44.6305425" lon="7.550325">
    <ele>347.0</ele>
    <name>node/1482175591</name>
    <desc>tourism=caravan_site; id=node/1482175591</desc>
  </wpt>
  <wpt lat="45.8038776" lon="7.5552237">
    <ele>1748.0</ele>
    <name>node/1638845296</name>
    <desc>tourism=caravan_site; id=node/1638845296</desc>
  </wpt>
  <wpt lat="40.094408" lon="15.3590932">
    <ele>57.0</ele>
    <name>node/1702523265</name>
    <desc>tourism=caravan_site; id=node/1702523265</desc>
  </wpt>
  <wpt lat="43.4549659" lon="11.0359973">
    <ele>215.0</ele>
    <name>Stellplatz Via di Castell San Gimignano</name>
    <desc>name=Stellplatz Via di Castell San Gimignano;
    tourism=caravan_site; id=node/1719004738</desc>
  </wpt>
  <wpt lat="41.5438898" lon="12.9891393">
    <ele>211.0</ele>
    <name>node/1737020057</name>
    <desc>tourism=caravan_site; id=node/1737020057</desc>
  </wpt>
  <wpt lat="43.9153986" lon="8.0777738">
    <ele>14.0</ele>
    <name>node/1751157515</name>
    <desc>tourism=caravan_site; id=node/1751157515</desc>
  </wpt>
  <wpt lat="43.731457" lon="11.3008098">
    <ele>89.0</ele>
    <name>Area sosta Bagno a Ripoli</name>
    <desc>addr:city=Bagno a Ripoli; addr:postcode=50012;
    addr:street=Via di Belmonte; name=Area sosta Bagno a Ripoli;
    phone=+39 389 2133687; power_supply=no;
    sanitary_dump_station=no; tourism=caravan_site;
    id=node/1753752119</desc>
  </wpt>
  <wpt lat="44.6246898" lon="8.8428088">
    <ele>333.0</ele>
    <name>Area sosta camper Voltaggio</name>
    <desc>fee=no; name=Area sosta camper Voltaggio;
    sanitary_dump_station=yes; tents=no; tourism=caravan_site;
    water_point=yes; id=node/1757386371</desc>
  </wpt>
  <wpt lat="39.3717252" lon="8.3829496">
    <ele>17.0</ele>
    <name>node/1786340415</name>
    <desc>power_supply=no; sanitary_dump_station=no;
    tourism=caravan_site; id=node/1786340415</desc>
  </wpt>
  <wpt lat="45.8729978" lon="9.9168145">
    <ele>534.0</ele>
    <name>node/1796716149</name>
    <desc>tourism=caravan_site; id=node/1796716149</desc>
  </wpt>
  <wpt lat="40.921469" lon="8.7917721">
    <ele>18.0</ele>
    <name>Area Camper Punto Maragnani</name>
    <desc>charge=20€/24h; fee=yes; motorhome=designated; name=Area
    Camper Punto Maragnani; phone=+39 349 612 4675, +39 079 584
    9030; power_supply=yes; tourism=caravan_site;
    website=http://web.tiscali.it/areacampermaragnani/;
    id=node/1821619713</desc>
    <link href="http://web.tiscali.it/areacampermaragnani/"></link>
  </wpt>
  <wpt lat="41.768209" lon="13.9510438">
    <ele>981.0</ele>
    <name>Parcheggio Oasi del Lago</name>
    <desc>addr:city=Civitella Alfedena; addr:street=Via della
    Vittoria; name=Parcheggio Oasi del Lago;
    sanitary_dump_station=yes; tourism=caravan_site;
    id=node/1837579605</desc>
  </wpt>
  <wpt lat="43.4660512" lon="13.5558699">
    <ele>150.0</ele>
    <name>node/1873713537</name>
    <desc>capacity=3; maxstay=48 hours; sanitary_dump_station=yes;
    toilets=no; tourism=caravan_site; water_point=yes;
    id=node/1873713537</desc>
  </wpt>
  <wpt lat="43.9212002" lon="12.8955428">
    <ele>3.0</ele>
    <name>Parcheggio</name>
    <desc>internet_access=no; name=Parcheggio;
    tourism=caravan_site; wheelchair=yes; id=node/1875641814</desc>
  </wpt>
  <wpt lat="45.7616852" lon="8.7003005">
    <ele>244.0</ele>
    <name>node/1883901764</name>
    <desc>tourism=caravan_site; id=node/1883901764</desc>
  </wpt>
  <wpt lat="45.0730016" lon="6.7031903">
    <ele>1270.0</ele>
    <name>Free Caravan Park</name>
    <desc>name=Free Caravan Park; tourism=caravan_site;
    id=node/1888315701</desc>
  </wpt>
  <wpt lat="44.0617724" lon="11.8459127">
    <ele>214.0</ele>
    <name>node/1921463991</name>
    <desc>tourism=caravan_site; id=node/1921463991</desc>
  </wpt>
  <wpt lat="44.964822" lon="6.8810984">
    <ele>2050.0</ele>
    <name>Area Camper Sestriere</name>
    <desc>drain=yes; fee=yes; name=Area Camper Sestriere;
    opening_hours=Jan-Dec; power_supply=yes; tourism=caravan_site;
    water=yes; id=node/2031973470</desc>
  </wpt>
  <wpt lat="40.4146581" lon="15.0041828">
    <ele>14.0</ele>
    <name>node/2056326188</name>
    <desc>tourism=caravan_site; id=node/2056326188</desc>
  </wpt>
  <wpt lat="40.8696795" lon="14.1216775">
    <ele>64.0</ele>
    <name>node/2062991728</name>
    <desc>tourism=caravan_site; id=node/2062991728</desc>
  </wpt>
  <wpt lat="43.5007029" lon="10.3216876">
    <ele>11.0</ele>
    <name>node/2078455523</name>
    <desc>fee=no; power_supply=no; tents=no; tourism=caravan_site;
    water_point=no; id=node/2078455523</desc>
  </wpt>
  <wpt lat="44.1230403" lon="10.3996619">
    <ele>309.0</ele>
    <name>node/2087784021</name>
    <desc>tourism=caravan_site; id=node/2087784021</desc>
  </wpt>
  <wpt lat="44.2198965" lon="10.3515691">
    <ele>1168.0</ele>
    <name>Casini di Corte</name>
    <desc>name=Casini di Corte; tourism=caravan_site;
    id=node/2131226559</desc>
  </wpt>
  <wpt lat="41.9339951" lon="15.9557855">
    <ele>53.0</ele>
    <name>node/2149130547</name>
    <desc>tourism=caravan_site; id=node/2149130547</desc>
  </wpt>
  <wpt lat="43.3429707" lon="13.5708399">
    <ele>249.0</ele>
    <name>node/2195746370</name>
    <desc>tourism=caravan_site; id=node/2195746370</desc>
  </wpt>
  <wpt lat="46.0241204" lon="10.3431608">
    <ele>363.0</ele>
    <name>Pitoti Park</name>
    <desc>addr:postcode=25044; addr:street=Via Santo Stefano;
    contact:email=pitotipark@gmail.com;
    contact:facebook=100092691127406;
    contact:instagram=pitoti_park;
    contact:phone=3272977740,3791690327;
    contact:website=https://pitotipark.it/; name=Pitoti Park;
    opening_hours=Su-Fr 08:00-22:30, Sa 08:00-23:00;
    tourism=caravan_site; id=node/2246956423</desc>
    <link href="https://pitotipark.it/"></link>
  </wpt>
  <wpt lat="42.6373266" lon="11.6799202">
    <ele>343.0</ele>
    <name>node/2268461600</name>
    <desc>capacity=18; fee=yes; internet_access=no;
    power_supply=no; sanitary_dump_station=yes;
    tourism=caravan_site; id=node/2268461600</desc>
  </wpt>
  <wpt lat="43.7059034" lon="10.5000752">
    <ele>6.0</ele>
    <name>node/2283466746</name>
    <desc>tourism=caravan_site; id=node/2283466746</desc>
  </wpt>
  <wpt lat="45.5529782" lon="12.068453">
    <ele>13.0</ele>
    <name>Camper area</name>
    <desc>name=Camper area; tourism=caravan_site;
    id=node/2301689132</desc>
  </wpt>
  <wpt lat="45.8137153" lon="6.9565809">
    <ele>1299.0</ele>
    <name>Funivia Val Veny (PS+CS)</name>
    <desc>name=Funivia Val Veny (PS+CS); tourism=caravan_site;
    id=node/2327591199</desc>
  </wpt>
  <wpt lat="42.8303963" lon="12.068491">
    <ele>460.0</ele>
    <name>node/2333671670</name>
    <desc>tourism=caravan_site; id=node/2333671670</desc>
  </wpt>
  <wpt lat="42.3302477" lon="11.5780254">
    <ele>0.0</ele>
    <name>node/2339513878</name>
    <desc>tourism=caravan_site; id=node/2339513878</desc>
  </wpt>
  <wpt lat="45.9834527" lon="9.7526165">
    <ele>794.0</ele>
    <name>node/2340419005</name>
    <desc>tourism=caravan_site; id=node/2340419005</desc>
  </wpt>
  <wpt lat="43.1502851" lon="10.7364622">
    <ele>121.0</ele>
    <name>Agriturismo Tenuta Sant'Agnese</name>
    <desc>capacity=20; fee=yes; name=Agriturismo Tenuta
    Sant'Agnese; phone=+39 333 4875065; power_supply=yes;
    tourism=caravan_site; website=http://www.agrisantagnese.it/;
    id=node/2440193433</desc>
    <link href="http://www.agrisantagnese.it/"></link>
  </wpt>
  <wpt lat="43.538854" lon="12.0529667">
    <ele>445.0</ele>
    <name>node/2520821369</name>
    <desc>fee=no; sanitary_dump_station=yes; toilets=no;
    tourism=caravan_site; id=node/2520821369</desc>
  </wpt>
  <wpt lat="40.671167" lon="16.631491">
    <ele>417.0</ele>
    <name>Radogna Camp</name>
    <desc>description=Contrada Murgia Timone presso Jazzo Gattini
    centro visite del Parco della Murgia Materana, Acqua Pozzetto
    Elettricità Servizi igienici Bar Servizio navetta Si cani
    Aperta tutto l'anno; email=info@ceamatera.it; name=Radogna
    Camp; phone=+39 320 2636528; tourism=caravan_site;
    website=https://www.ceamatera.it/; id=node/2523697532</desc>
    <link href="https://www.ceamatera.it/"></link>
  </wpt>
  <wpt lat="45.7360725" lon="7.3302429">
    <ele>577.0</ele>
    <name>Area Camper Park</name>
    <desc>addr:city=Aosta; addr:housename=Via Caduti del Lavoro;
    addr:housenumber=15; addr:postcode=11100; addr:street=Via
    Caduti del Lavoro; fee=yes; name=Area Camper Park;
    opening_hours=24/7; phone=+39 338 6092956; power_supply=yes;
    sanitary_dump_station=yes; toilets=yes; tourism=caravan_site;
    id=node/2536579807</desc>
  </wpt>
  <wpt lat="45.7383887" lon="7.4891442">
    <ele>510.0</ele>
    <name>Conte de Challand</name>
    <desc>name=Conte de Challand; note=Free, consentito ma non
    esculiso. Auto + bus; tourism=caravan_site;
    website=https://www.camperonline.it/area-di-sosta/C-o-Albergo-Conte-di-Challand_3543;
    id=node/2544568500</desc>
    <link href="https://www.camperonline.it/area-di-sosta/C-o-Albergo-Conte-di-Challand_3543">
    </link>
  </wpt>
  <wpt lat="43.7195405" lon="10.4867981">
    <ele>3.0</ele>
    <name>node/2584019499</name>
    <desc>tourism=caravan_site; id=node/2584019499</desc>
  </wpt>
  <wpt lat="46.6412052" lon="11.5722192">
    <ele>522.0</ele>
    <name>Gamp</name>
    <desc>capacity=20; caravan_site=motorhome_stopover;
    caravan_site:type=town; fee=yes; name=Gamp; phone=+39 0472
    847425; tourism=caravan_site;
    website=https://www.camping-gamp.com/;
    id=node/2606284204</desc>
    <link href="https://www.camping-gamp.com/"></link>
  </wpt>
  <wpt lat="45.4792447" lon="12.5799638">
    <ele>1.0</ele>
    <name>node/2624670145</name>
    <desc>tourism=caravan_site; id=node/2624670145</desc>
  </wpt>
  <wpt lat="46.1725526" lon="13.3176">
    <ele>171.0</ele>
    <name>Punto Sosta</name>
    <desc>capacity=5; fee=no; name=Punto Sosta; picnic_area=yes;
    power_supply=no; sanitary_dump_station=yes;
    tourism=caravan_site; water_supply=yes;
    id=node/2639475232</desc>
  </wpt>
  <wpt lat="43.5252827" lon="13.3858306">
    <ele>60.0</ele>
    <name>Polverigi</name>
    <desc>fee=no; name=Polverigi; operator=Comune;
    sanitary_dump_station=yes; tourism=caravan_site;
    water_point=yes; water_point:description=diametro sconosciuto;
    id=node/2761559605</desc>
  </wpt>
  <wpt lat="45.8119043" lon="7.5890638">
    <ele>1033.0</ele>
    <name>Area Attrezzata Camper a Pagamento</name>
    <desc>name=Area Attrezzata Camper a Pagamento;
    tourism=caravan_site; id=node/2761632664</desc>
  </wpt>
  <wpt lat="45.9040517" lon="11.0370081">
    <ele>183.0</ele>
    <name>Area sosta camper Holiday Camper Club</name>
    <desc>access=private; fee=yes; name=Area sosta camper Holiday
    Camper Club; sanitary_dump_station=yes; tourism=caravan_site;
    id=node/2841347980</desc>
  </wpt>
  <wpt lat="41.9106261" lon="16.1294287">
    <ele>4.0</ele>
    <name>Casa Vanze Fusillo Rosina</name>
    <desc>email=fusilloros@gmail.com; name=Casa Vanze Fusillo
    Rosina; phone=+39 0884 273747; phone:mobile=+39 349 6077063;
    power_supply=yes; sanitary_dump_station=yes; shower=yes;
    tourism=caravan_site; washing_machine=yes; id=way/1306141895; ;
    fixme=This is a holiday village with chalets and an area for
    camper (RVs). ; name=Fusilio Rosina; id=node/2902801795</desc>
  </wpt>
  <wpt lat="46.0091619" lon="8.292208">
    <ele>221.0</ele>
    <name>Caravan Park</name>
    <desc>name=Caravan Park; tourism=caravan_site;
    id=node/2921097259</desc>
  </wpt>
  <wpt lat="45.4159596" lon="7.7626691">
    <ele>309.0</ele>
    <name>node/2921731886</name>
    <desc>fee=no; internet_access=no; power_supply=no; tents=no;
    tourism=caravan_site; id=node/2921731886</desc>
  </wpt>
  <wpt lat="45.3871771" lon="7.7577352">
    <ele>372.0</ele>
    <name>Piazzale Villalfonsina</name>
    <desc>fee=no; name=Piazzale Villalfonsina; power_supply=no;
    tents=no; tourism=caravan_site; id=node/2947383547</desc>
  </wpt>
  <wpt lat="45.6265181" lon="7.0625207">
    <ele>1651.0</ele>
    <name>Area camper Mondanges</name>
    <desc>fee=yes; internet_access=no; name=Area camper Mondanges;
    power_supply=yes; tents=no; tourism=caravan_site;
    id=node/2954245215</desc>
  </wpt>
  <wpt lat="46.155364" lon="12.2644862">
    <ele>368.0</ele>
    <name>node/3050731698</name>
    <desc>tourism=caravan_site; id=node/3050731698</desc>
  </wpt>
  <wpt lat="43.9761532" lon="10.5409007">
    <ele>88.0</ele>
    <name>Borgo a Mozzano</name>
    <desc>name=Borgo a Mozzano; tourism=caravan_site;
    water=charge,discharge; id=node/3063142892</desc>
  </wpt>
  <wpt lat="46.1953592" lon="11.6787837">
    <ele>827.0</ele>
    <name>Area Sosta Camper Caoria</name>
    <desc>currency:EUR=yes; internet_access=no; name=Area Sosta
    Camper Caoria; power_supply=yes; sanitary_dump_station=yes;
    tourism=caravan_site; id=node/3075526096</desc>
  </wpt>
  <wpt lat="44.1655253" lon="7.5514491">
    <ele>1362.0</ele>
    <name>Area sosta camper Limonetto</name>
    <desc>caravans=no; maxstay=72 hours; name=Area sosta camper
    Limonetto; surface=gravel; tents=no; tourism=caravan_site;
    id=node/3102793569</desc>
  </wpt>
  <wpt lat="42.8755127" lon="12.0463245">
    <ele>247.0</ele>
    <name>Piazzale F. Parri</name>
    <desc>fee=no; internet_access=wlan; internet_access:fee=no;
    name=Piazzale F. Parri; power_supply=no; tents=no;
    tourism=caravan_site;
    website=http://www.comune.orvieto.tr.it/i/39D10794.htm;
    id=node/3106192096</desc>
    <link href="http://www.comune.orvieto.tr.it/i/39D10794.htm">
    </link>
  </wpt>
  <wpt lat="42.8758702" lon="12.039237">
    <ele>235.0</ele>
    <name>Caravan Service</name>
    <desc>name=Caravan Service; tourism=caravan_site;
    id=node/3136803624</desc>
  </wpt>
  <wpt lat="40.9860112" lon="16.4333226">
    <ele>471.0</ele>
    <name>node/3419925748</name>
    <desc>tourism=caravan_site; id=node/3419925748</desc>
  </wpt>
  <wpt lat="44.618582" lon="8.0521614">
    <ele>536.0</ele>
    <name>node/3431245605</name>
    <desc>tourism=caravan_site; id=node/3431245605</desc>
  </wpt>
  <wpt lat="39.3373176" lon="17.1093533">
    <ele>15.0</ele>
    <name>node/3672581613</name>
    <desc>fee=yes; power_supply=yes; sanitary_dump_station=yes;
    tourism=caravan_site; id=node/3672581613</desc>
  </wpt>
  <wpt lat="44.2055311" lon="7.2691515">
    <ele>1425.0</ele>
    <name>node/3678515418</name>
    <desc>fee=yes; tourism=caravan_site; id=node/3678515418</desc>
  </wpt>
  <wpt lat="46.48726" lon="12.8693714">
    <ele>572.0</ele>
    <name>Casa del ciclista</name>
    <desc>name=Casa del ciclista; phone=+39 0433 67306;
    tourism=caravan_site; website=http://campeggiospin.it;
    id=node/3741787580</desc>
    <link href="http://campeggiospin.it"></link>
  </wpt>
  <wpt lat="45.8313066" lon="9.4081154">
    <ele>204.0</ele>
    <name>node/3778005702</name>
    <desc>internet_access=no; power_supply=no;
    sanitary_dump_station=yes; tourism=caravan_site;
    water_supply=yes; id=node/3778005702</desc>
  </wpt>
  <wpt lat="45.4528843" lon="11.3785293">
    <ele>46.0</ele>
    <name>node/3780636712</name>
    <desc>capacity=4; tourism=caravan_site;
    id=node/3780636712</desc>
  </wpt>
  <wpt lat="43.4044753" lon="12.9768222">
    <ele>213.0</ele>
    <name>Area Sosta Genga</name>
    <desc>capacity=6; email=grotte@frasassi.com; fee=no;
    internet_access=no; maxstay=48 hours; name=Area Sosta Genga;
    opening_hours=Jan-Dec; permanent_camping=no; phone=+39 0732
    90090; power_supply=yes; sanitary_dump_station=yes;
    toilets=yes; tourism=caravan_site; water_point=yes;
    id=node/3782216476</desc>
  </wpt>
  <wpt lat="42.7595355" lon="13.209478">
    <ele>1486.0</ele>
    <name>Colle le Cese</name>
    <desc>name=Colle le Cese; tourism=caravan_site;
    id=node/3789315050</desc>
  </wpt>
  <wpt lat="42.7860706" lon="13.2591844">
    <ele>1556.0</ele>
    <name>sosta Forca di Presta</name>
    <desc>name=sosta Forca di Presta; tourism=caravan_site;
    id=node/3789327403</desc>
  </wpt>
  <wpt lat="43.629962" lon="13.388667">
    <ele>20.0</ele>
    <name>node/3829827354</name>
    <desc>tourism=caravan_site; id=node/3829827354</desc>
  </wpt>
  <wpt lat="43.9438887" lon="10.9156512">
    <ele>71.0</ele>
    <name>Camper Service Olla Pistoia</name>
    <desc>fee=no; internet_access=no; name=Camper Service Olla
    Pistoia; sanitary_dump_station=yes; toilets=no;
    tourism=caravan_site; id=node/3935858109</desc>
  </wpt>
  <wpt lat="44.9210178" lon="8.6265406">
    <ele>90.0</ele>
    <name>Alessandria</name>
    <desc>addr:city=Alessandria; addr:postcode=15121;
    addr:street=Viale Teresa Michel; fee=no; tourism=caravan_site;
    id=node/4040489167</desc>
  </wpt>
  <wpt lat="37.815978" lon="15.2546186">
    <ele>21.0</ele>
    <name>Villaggio Alkantara</name>
    <desc>name=Villaggio Alkantara; tourism=caravan_site;
    id=node/4047542622</desc>
  </wpt>
  <wpt lat="45.7944302" lon="8.3829972">
    <ele>298.0</ele>
    <name>node/4076561989</name>
    <desc>tourism=caravan_site; id=node/4076561989</desc>
  </wpt>
  <wpt lat="45.1645416" lon="10.8121718">
    <ele>20.0</ele>
    <name>Area Attrezzata Camper Sparafucile</name>
    <desc>addr:housenumber=1; addr:street=Via Legnago;
    alt_name=Area Attrezzata Camper Spara Fucile; capacity=55;
    drinking_water=yes; fee=yes; name=Area Attrezzata Camper
    Sparafucile; opening_hours=Mo-Su 07:00-23:00; payment:cash=yes;
    payment:credit_cards=yes; payment:debit_cards=yes;
    power_supply=yes; sanitary_dump_station=yes; toilets=yes;
    tourism=caravan_site; wheelchair=yes; id=node/4111351891</desc>
  </wpt>
  <wpt lat="40.7327317" lon="17.5816345">
    <ele>187.0</ele>
    <name>node/4202374330</name>
    <desc>charge=2.25€; fee=yes; sanitary_dump_station=yes;
    tourism=caravan_site; id=node/4202374330</desc>
  </wpt>
  <wpt lat="41.3617401" lon="15.3063094">
    <ele>393.0</ele>
    <name>Area attrezzata comunale Campo Fiera</name>
    <desc>addr:city=Troia; addr:postcode=71029; addr:street=Via
    Campo Fiera; fee=no; name=Area attrezzata comunale Campo Fiera;
    power_supply=yes; sanitary_dump_station=yes; shower=no;
    socket:cee_blue=yes; toilets=yes; tourism=caravan_site;
    id=node/4202792151</desc>
  </wpt>
  <wpt lat="42.8521919" lon="13.5823482">
    <ele>158.0</ele>
    <name>Parcheggio Seminario</name>
    <desc>charge=3 EUR; fee=yes; name=Parcheggio Seminario;
    phone=+39 0736 255472; power_supply=yes; power_supply:charge=3
    EUR; power_supply:fee=yes; sanitary_dump_station=no;
    tourism=caravan_site;
    website=https://www.parcheggioseminario.it/;
    id=node/4202944566</desc>
    <link href="https://www.parcheggioseminario.it/"></link>
  </wpt>
  <wpt lat="44.3780284" lon="12.2349835">
    <ele>-3.0</ele>
    <name>node/4202998338</name>
    <desc>charge=2.25€; drinking_water=yes; fee=yes;
    internet_access=no; name:signed=no; power_supply=no;
    sanitary_dump_station=yes; toilets=no; tourism=caravan_site;
    wheelchair=yes; id=node/4202998338</desc>
  </wpt>
  <wpt lat="46.2559815" lon="13.2832354">
    <ele>616.0</ele>
    <name>Villanova delle Grotte</name>
    <desc>capacity=3; caravan_site=motorhome_stopover;
    caravan_site:type=cave; name=Villanova delle Grotte;
    sanitary_dump_station=yes; tents=no; tourism=caravan_site;
    id=node/4214947071</desc>
  </wpt>
  <wpt lat="45.5065114" lon="10.7725127">
    <ele>150.0</ele>
    <name>Tre Colline</name>
    <desc>addr:street=Strada Costiere di Calmasino; cabins=yes;
    capacity:pitches=10; caravans=yes; motorhome=yes; name=Tre
    Colline; phone=+39 045 723 5219; shower=yes; toilets=yes;
    tourism=caravan_site; website=https://trecollinebardolino.it/;
    id=node/4233230792</desc>
    <link href="https://trecollinebardolino.it/"></link>
  </wpt>
  <wpt lat="38.5629307" lon="14.8695101">
    <ele>80.0</ele>
    <name>node/4266193501</name>
    <desc>tourism=caravan_site; id=node/4266193501</desc>
  </wpt>
  <wpt lat="44.6233187" lon="7.9744099">
    <ele>319.0</ele>
    <name>node/4279412131</name>
    <desc>tourism=caravan_site; id=node/4279412131</desc>
  </wpt>
  <wpt lat="45.1971325" lon="7.4744361">
    <ele>562.0</ele>
    <name>node/4334478208</name>
    <desc>amenity=drinking_water; sanitary_dump_station=yes;
    tourism=caravan_site; id=node/4334478208</desc>
  </wpt>
  <wpt lat="46.5388603" lon="10.1644648">
    <ele>2209.0</ele>
    <name>Trepalle</name>
    <desc>charge=15.00 EUR; fee=yes; fee:conditional=yes @
    20:00-08:00; name=Trepalle; power_supply=no;
    sanitary_dump_station=yes; tourism=caravan_site;
    id=node/4349631291</desc>
  </wpt>
  <wpt lat="45.775459" lon="10.8143695">
    <ele>65.0</ele>
    <name>node/4349642389</name>
    <desc>capacity=6; fee=yes; power_supply=no;
    sanitary_dump_station=no; tourism=caravan_site;
    id=node/4349642389</desc>
  </wpt>
  <wpt lat="46.6084964" lon="12.6300371">
    <ele>1251.0</ele>
    <name>da Gasperini</name>
    <desc>name=da Gasperini; tourism=caravan_site;
    id=node/4352647891</desc>
  </wpt>
  <wpt lat="46.6084877" lon="12.6300423">
    <ele>1251.0</ele>
    <name>da Gasperina</name>
    <desc>name=da Gasperina; tourism=caravan_site;
    id=node/4352696889</desc>
  </wpt>
  <wpt lat="39.0236131" lon="17.1947059">
    <ele>21.0</ele>
    <name>node/4384114668</name>
    <desc>tourism=caravan_site; id=node/4384114668</desc>
  </wpt>
  <wpt lat="39.0240216" lon="17.1944913">
    <ele>21.0</ele>
    <name>node/4384114707</name>
    <desc>tourism=caravan_site; id=node/4384114707</desc>
  </wpt>
  <wpt lat="46.1664069" lon="13.0198626">
    <ele>187.0</ele>
    <name>node/4401061209</name>
    <desc>capacity=7; fee=no; opening_hours=Jan-Dec;
    picnic_site=no; power_supply=no; sanitary_dump_station=yes;
    toilets=no; tourism=caravan_site; water_point=yes;
    id=node/4401061209</desc>
  </wpt>
  <wpt lat="45.0286379" lon="7.6405374">
    <ele>248.0</ele>
    <name>Caio Mario parking area</name>
    <desc>capacity=60; charge=18 EUR; fee=yes; name=Caio Mario
    parking area; payment:cash=yes; payment:credit_cards=yes;
    payment:debit_cards=yes; power_supply=yes;
    sanitary_dump_station=yes; socket:cee_blue=yes;
    tourism=caravan_site;
    url=https://www.gtt.to.it/cms/parcheggi/31-barriera/rotazione/1630-caio-mario#camper;
    wheelchair=yes; id=node/4401669662</desc>
    <link href="https://www.gtt.to.it/cms/parcheggi/31-barriera/rotazione/1630-caio-mario#camper">
    </link>
  </wpt>
  <wpt lat="46.0162105" lon="13.3931325">
    <ele>89.0</ele>
    <name>node/4403910000</name>
    <desc>capacity=10; caravans=no; fee=no; opening_hours=Jan-Dec;
    playground=no; power_supply=yes; sanitary_dump_station=yes;
    shower=no; tents=no; toilets=no; tourism=caravan_site;
    water_point=yes; id=node/4403910000</desc>
  </wpt>
  <wpt lat="46.2758879" lon="13.1374002">
    <ele>233.0</ele>
    <name>node/4407799701</name>
    <desc>capacity=15; fee=no; opening_hours=Jan-Dec;
    playground=no; power_supply=no; sanitary_dump_station=yes;
    toilets=no; tourism=caravan_site; water_point=yes;
    id=node/4407799701</desc>
  </wpt>
  <wpt lat="46.2345428" lon="13.1493468">
    <ele>184.0</ele>
    <name>node/4407813346</name>
    <desc>capacity=3; fee=no; opening_hours=Jan-Dec; playground=no;
    power_supply=no; sanitary_dump_station=yes; toilets=no;
    tourism=caravan_site; water_point=yes;
    id=node/4407813346</desc>
  </wpt>
  <wpt lat="46.304959" lon="13.3220058">
    <ele>800.0</ele>
    <name>node/4407838860</name>
    <desc>fee=no; opening_hours=Jan-Dec; playground=yes;
    power_supply=no; sanitary_dump_station=yes; toilets=no;
    tourism=caravan_site; water_point=yes;
    id=node/4407838860</desc>
  </wpt>
  <wpt lat="43.3472527" lon="12.5676047">
    <ele>472.0</ele>
    <name>Aera Sosta Camper</name>
    <desc>name=Aera Sosta Camper; name:it=Aera Sosta Camper;
    tourism=caravan_site; id=node/4443686891</desc>
  </wpt>
  <wpt lat="43.2443213" lon="12.9993732">
    <ele>373.0</ele>
    <name>node/4443770891</name>
    <desc>fee=no; sanitary_dump_station=yes; tourism=caravan_site;
    water_point=yes; id=node/4443770891</desc>
  </wpt>
  <wpt lat="43.4733103" lon="11.2871464">
    <ele>571.0</ele>
    <name>node/4443771689</name>
    <desc>name:signed=no; tourism=caravan_site;
    id=node/4443771689</desc>
  </wpt>
  <wpt lat="45.1421858" lon="7.5723452">
    <ele>272.0</ele>
    <name>La Sosta del Re</name>
    <desc>addr:street=Viale Medici Del Vascello; name=La Sosta del
    Re; name:it=La Sosta del Re; phone=+393475920055;
    tourism=caravan_site; id=node/4460531791</desc>
  </wpt>
  <wpt lat="40.788343" lon="14.3622028">
    <ele>18.0</ele>
    <name>Parcheggio Torre Amarea H24</name>
    <desc>fee=yes; name=Parcheggio Torre Amarea H24;
    name:en=Parking Torre Amarea H24; sanitary_dump_station=no;
    tourism=caravan_site; id=node/4487444494</desc>
  </wpt>
  <wpt lat="39.5862879" lon="16.4175928">
    <ele>350.0</ele>
    <name>Camper-Service</name>
    <desc>internet_access=no; name=Camper-Service;
    name:it=Camper-Service; tourism=caravan_site; wheelchair=no;
    id=node/4504665496</desc>
  </wpt>
  <wpt lat="39.5734291" lon="16.6316616">
    <ele>282.0</ele>
    <name>Sosta Camper Rossano</name>
    <desc>fee=no; name=Sosta Camper Rossano;
    sanitary_dump_station=yes; tourism=caravan_site;
    water_point=yes; id=node/4506375190</desc>
  </wpt>
  <wpt lat="38.1551046" lon="14.9636808">
    <ele>14.0</ele>
    <name>Villa Pisani</name>
    <desc>addr:street=Via Mustazzo; internet_access=wlan;
    name=Villa Pisani; name:it=Villa Pisani; opening_hours=24/7;
    tourism=caravan_site; id=node/4655290989</desc>
  </wpt>
  <wpt lat="45.5460214" lon="8.1162566">
    <ele>307.0</ele>
    <name>Area camper Lago del Ricetto</name>
    <desc>addr:city=Candelo; addr:postcode=13878; addr:street=Via
    Mulini; charge=12 EUR; dog=leashed; fee=yes;
    internet_access=no; name=Area camper Lago del Ricetto; note=Non
    è consentito l'uso di generatori di corrente;
    opening_hours=24/7; phone=+39 3792595643; power_supply=no;
    sanitary_dump_station=yes; tourism=caravan_site;
    website=https://www.ricettodicandelo.it/area-camper#:~:text=Candelo%20Ricetto%20Medioevale.%20AREA%20CAMPER%20%22LAGO%20DEL%20RICETTO%22.;
    wheelchair=yes; id=node/4656513071</desc>
    <link href="https://www.ricettodicandelo.it/area-camper#:~:text=Candelo%20Ricetto%20Medioevale.%20AREA%20CAMPER%20%22LAGO%20DEL%20RICETTO%22.">
    </link>
  </wpt>
  <wpt lat="41.7579972" lon="12.6513485">
    <ele>318.0</ele>
    <name>Spiaggia del Lago</name>
    <desc>caravan_site=motorhome_stopover; caravans=no; fee=yes;
    name=Spiaggia del Lago; note=3€/ora e 10 €/giorno per camper;
    power_supply=no; sanitary_dump_station=no; tents=no;
    tourism=caravan_site; id=node/4701837492</desc>
  </wpt>
  <wpt lat="43.0290205" lon="12.4383855">
    <ele>189.0</ele>
    <name>Area Torgiano</name>
    <desc>name=Area Torgiano; sanitary_dump_station=yes;
    sanitary_dump_station:chemical_toilet=yes;
    sanitary_dump_station:grey_water=yes; tourism=caravan_site;
    water_point=yes; id=node/4716313496</desc>
  </wpt>
  <wpt lat="46.1952178" lon="12.7748192">
    <ele>275.0</ele>
    <name>Sosta Camper Cavasso Nuovo Bicigrill</name>
    <desc>capacity=5; fee=no; name=Sosta Camper Cavasso Nuovo
    Bicigrill; power_supply=yes; sanitary_dump_station=yes;
    tourism=caravan_site; id=node/4728259992</desc>
  </wpt>
  <wpt lat="44.4143595" lon="9.87026">
    <ele>529.0</ele>
    <name>node/4793972123</name>
    <desc>tourism=caravan_site; id=node/4793972123</desc>
  </wpt>
  <wpt lat="44.9614101" lon="9.9050437">
    <ele>62.0</ele>
    <name>node/4794008921</name>
    <desc>tourism=caravan_site; id=node/4794008921</desc>
  </wpt>
  <wpt lat="43.79595" lon="11.24864">
    <ele>75.0</ele>
    <name>Flog</name>
    <desc>drinking_water=no; fee=yes; name=Flog; power_supply=no;
    sanitary_dump_station=no; toilets=no; tourism=caravan_site;
    id=node/4794008922</desc>
  </wpt>
  <wpt lat="42.9934953" lon="12.6675134">
    <ele>219.0</ele>
    <name>Area Camper Spello</name>
    <desc>addr:street=Via Centrale Umbra; charge=5€/24h; fee=yes;
    internet_access=no; name=Area Camper Spello; power_supply=no;
    sanitary_dump_station=yes; tourism=caravan_site;
    id=node/4811656882</desc>
  </wpt>
  <wpt lat="39.7540375" lon="9.671214">
    <ele>7.0</ele>
    <name>Sosta Cardedu OG</name>
    <desc>name=Sosta Cardedu OG; name:it=Sosta Cardedu OG;
    tourism=caravan_site; id=node/4857125222</desc>
  </wpt>
  <wpt lat="39.3168555" lon="9.604108">
    <ele>5.0</ele>
    <name>Spiaggia di Feraxi</name>
    <desc>fee=yes; name=Spiaggia di Feraxi; name:it=Spiaggia di
    Feraxi; power_supply=no; sanitary_dump_station=no;
    tourism=caravan_site; id=node/4857222827</desc>
  </wpt>
  <wpt lat="46.0545425" lon="11.4638382">
    <ele>381.0</ele>
    <name>P3 Area sosta camper</name>
    <desc>addr:city=Borgo Valsugana; addr:country=IT;
    addr:postcode=38051; addr:province=TN; addr:street=Via Temanza;
    internet_access=no; name=P3 Area sosta camper;
    power_supply=yes; sanitary_dump_station=yes;
    tourism=caravan_site; id=node/4926845523</desc>
  </wpt>
  <wpt lat="46.4754915" lon="13.0168275">
    <ele>473.0</ele>
    <name>Area Sosta Arta Terme</name>
    <desc>addr:city=Arta Terme; addr:street=Via Nazionale - vicino
    al campo sportivo; capacity=7; description=Reservation: contact
    Comune Arta Terme 24h before arriving; fee=no; name=Area Sosta
    Arta Terme; opening_hours=Jan-Dec; operator=Comune di Arta
    Terme; parking=surface; phone=+39 0433 92037; picnic_site=yes;
    power_supply=yes; power_supply:fee=yes;
    sanitary_dump_station=yes; surface=grass; toilets=unknown;
    tourism=caravan_site; water_point=yes;
    website=https://www.turismofvg.it/rnode/41091;
    id=node/4940064353</desc>
    <link href="https://www.turismofvg.it/rnode/41091"></link>
  </wpt>
  <wpt lat="44.4034343" lon="8.9305384">
    <ele>28.0</ele>
    <name>node/4997079625</name>
    <desc>name:en=Camper; name:sv=Ställplats; tourism=caravan_site;
    id=node/4997079625</desc>
  </wpt>
  <wpt lat="41.4652762" lon="13.8053295">
    <ele>58.0</ele>
    <name>node/5016435921</name>
    <desc>tourism=caravan_site; id=node/5016435921</desc>
  </wpt>
  <wpt lat="39.612473" lon="8.819002">
    <ele>133.0</ele>
    <name>node/5039133726</name>
    <desc>tourism=caravan_site; id=node/5039133726</desc>
  </wpt>
  <wpt lat="39.8130027" lon="9.2754413">
    <ele>766.0</ele>
    <name>node/5039192421</name>
    <desc>tourism=caravan_site; id=node/5039192421</desc>
  </wpt>
  <wpt lat="45.9051755" lon="10.8576467">
    <ele>83.0</ele>
    <name>Verdepiano Bed &amp; Camping</name>
    <desc>drinking_water=yes; fee=yes; name=Verdepiano Bed &amp;
    Camping; power_supply=yes; sanitary_dump_station=yes;
    toilets=yes; tourism=caravan_site; id=node/5039356822</desc>
  </wpt>
  <wpt lat="45.0134093" lon="6.9428877">
    <ele>1517.0</ele>
    <name>Kinka</name>
    <desc>fee=yes; name=Kinka; tourism=caravan_site;
    id=node/5053664697</desc>
  </wpt>
  <wpt lat="45.006433" lon="6.9350734">
    <ele>1532.0</ele>
    <name>node/5053664714</name>
    <desc>fee=no; tourism=caravan_site; id=node/5053664714</desc>
  </wpt>
  <wpt lat="45.0390693" lon="7.0456321">
    <ele>1172.0</ele>
    <name>node/5062321513</name>
    <desc>tourism=caravan_site; id=node/5062321513</desc>
  </wpt>
  <wpt lat="40.8515911" lon="9.152282">
    <ele>1055.0</ele>
    <name>Vallicciola</name>
    <desc>name=Vallicciola; name:it=AA La Vallicciola;
    tourism=caravan_site; id=node/5079807321</desc>
  </wpt>
  <wpt lat="40.9035247" lon="8.2353496">
    <ele>1.0</ele>
    <name>node/5096665121</name>
    <desc>power_supply=no; toilets=no; tourism=caravan_site;
    id=node/5096665121</desc>
  </wpt>
  <wpt lat="40.5457471" lon="8.3209021">
    <ele>3.0</ele>
    <name>node/5096665122</name>
    <desc>tourism=caravan_site; id=node/5096665122</desc>
  </wpt>
  <wpt lat="40.0430157" lon="8.3963975">
    <ele>2.0</ele>
    <name>node/5120470021</name>
    <desc>tourism=caravan_site; id=node/5120470021</desc>
  </wpt>
  <wpt lat="40.5924693" lon="9.7568579">
    <ele>0.0</ele>
    <name>node/5138617421</name>
    <desc>tourism=caravan_site; id=node/5138617421</desc>
  </wpt>
  <wpt lat="42.7890176" lon="10.2488265">
    <ele>6.0</ele>
    <name>la Perla</name>
    <desc>bbq=yes; dog=yes; email=laperla.procchio@gmail.com;
    internet_access=yes; name=la Perla; name:de=la Perla; phone=+39
    339.1725879; power_supply=yes; socket:cee_blue=yes;
    toilets=yes; tourism=caravan_site;
    website=https://www.elbaincamper.it/; id=node/5158419321</desc>
    <link href="https://www.elbaincamper.it/"></link>
  </wpt>
  <wpt lat="40.3621335" lon="18.1675622">
    <ele>42.0</ele>
    <name>node/5278428738</name>
    <desc>opening_hours=24/7; tourism=caravan_site;
    id=node/5278428738</desc>
  </wpt>
  <wpt lat="45.1418277" lon="8.036908">
    <ele>199.0</ele>
    <name>Area sosta Camper Santa Fede</name>
    <desc>addr:postcode=10020; addr:street=Via San Lorenzo;
    name=Area sosta Camper Santa Fede; tourism=caravan_site;
    id=node/5299089721</desc>
  </wpt>
  <wpt lat="42.2340709" lon="14.3914866">
    <ele>251.0</ele>
    <name>Area di sosta camper Lanciano</name>
    <desc>addr:housenumber=29; addr:street=Via Frisa;
    drinking_water=yes; fee=no; name=Area di sosta camper Lanciano;
    opening_hours=24/7; power_supply=no; sanitary_dump_station=yes;
    toilets=yes; tourism=caravan_site; id=node/5305339324</desc>
  </wpt>
  <wpt lat="42.1163287" lon="14.703557">
    <ele>154.0</ele>
    <name>node/5305339325</name>
    <desc>covered=yes; opening_hours=24/7; tourism=caravan_site;
    id=node/5305339325</desc>
  </wpt>
  <wpt lat="40.147761" lon="18.4806179">
    <ele>26.0</ele>
    <name>Nelson Parl</name>
    <desc>addr:housenumber=76; addr:street=Strada Statale 16
    Adriatica; fee=yes; name=Nelson Parl; name:es=Área de
    autocaravanas Nelson Mandela; opening_hours=24/7;
    power_supply=no; sanitary_dump_station=no;
    tourism=caravan_site; id=node/5317024321</desc>
  </wpt>
  <wpt lat="37.8537838" lon="15.2766593">
    <ele>203.0</ele>
    <name>node/5325395922</name>
    <desc>fee=yes; tourism=caravan_site; id=node/5325395922</desc>
  </wpt>
  <wpt lat="39.3141336" lon="16.2352535">
    <ele>224.0</ele>
    <name>Autolavaggio Cavalcante</name>
    <desc>addr:housenumber=80; addr:postcode=87036; addr:street=Via
    Botticelli; description=Autolavaggio e parcheggio amper;
    name=Autolavaggio Cavalcante; opening_hours=24/7;
    tourism=caravan_site; id=node/5325412921</desc>
  </wpt>
  <wpt lat="38.7797435" lon="16.5778601">
    <ele>10.0</ele>
    <name>node/5325413021</name>
    <desc>name:es=Aparcamiento de Autocaravanas;
    opening_hours=24/7; tourism=caravan_site;
    id=node/5325413021</desc>
  </wpt>
  <wpt lat="37.4914252" lon="15.0620332">
    <ele>57.0</ele>
    <name>Autoparco Ghidara</name>
    <desc>name=Autoparco Ghidara; opening_hours=24/7;
    tourism=caravan_site; id=node/5325413022</desc>
  </wpt>
  <wpt lat="36.8836001" lon="15.0850868">
    <ele>45.0</ele>
    <name>Noto Parking</name>
    <desc>name=Noto Parking; opening_hours=24/7;
    tourism=caravan_site; id=node/5326211022</desc>
  </wpt>
  <wpt lat="37.0707996" lon="15.2612049">
    <ele>6.0</ele>
    <name>Ippocamper</name>
    <desc>name=Ippocamper; opening_hours=24/7; operator=Salvo;
    phone=+39 340 6177193; tourism=caravan_site;
    website=http://www.ippocampersr.it/; id=node/5326211222</desc>
    <link href="http://www.ippocampersr.it/"></link>
  </wpt>
  <wpt lat="36.8161273" lon="15.0988324">
    <ele>13.0</ele>
    <name>Area Parcheggio Calamosche</name>
    <desc>name=Area Parcheggio Calamosche; opening_hours=24/7;
    tourism=caravan_site; id=node/5326211223</desc>
  </wpt>
  <wpt lat="36.7371137" lon="15.0953239">
    <ele>25.0</ele>
    <name>AgriCamping Sophia</name>
    <desc>email=info@agricampingsophia.it; name=AgriCamping Sophia;
    opening_hours=24/7; phone=+393452396095; tourism=caravan_site;
    website=https://www.agricampingsophia.it/;
    id=node/5329680624</desc>
    <link href="https://www.agricampingsophia.it/"></link>
  </wpt>
  <wpt lat="36.7274157" lon="15.1204239">
    <ele>5.0</ele>
    <name>Dragomar</name>
    <desc>name=Dragomar; opening_hours=24/7; phone=+390931494454;
    tourism=caravan_site; website=http://www.dragomar-sosta.it;
    id=node/5329686522</desc>
    <link href="http://www.dragomar-sosta.it"></link>
  </wpt>
  <wpt lat="37.239794" lon="14.5069783">
    <ele>540.0</ele>
    <name>San Giovanni</name>
    <desc>name=San Giovanni; opening_hours=24/7;
    tourism=caravan_site; id=node/5329686622</desc>
  </wpt>
  <wpt lat="45.1337125" lon="11.7557398">
    <ele>8.0</ele>
    <name>Stanghella</name>
    <desc>addr:city=Stanghella; addr:postcode=35048; capacity=2;
    fee=no; power_supply=yes; sanitary_dump_station=yes;
    tourism=caravan_site; id=node/5343149680</desc>
  </wpt>
  <wpt lat="38.0354276" lon="14.0164896">
    <ele>2.0</ele>
    <name>node/5347819627</name>
    <desc>addr:housenumber=23; addr:postcode=90015;
    addr:street=Lungomare Giuseppe Giardina; fee=yes;
    opening_hours=24/7; tourism=caravan_site;
    id=node/5347819627</desc>
  </wpt>
  <wpt lat="38.1101877" lon="13.3431174">
    <ele>43.0</ele>
    <name>Parcheggio Auto Camper</name>
    <desc>addr:housenumber=11b; addr:postcode=90129;
    addr:street=Via Quarto dei Mille; dog=leashed;
    email=info@greencarpalermo.it; fee=yes; internet_access=wlan;
    name=Parcheggio Auto Camper; name:es=Área de autocaravanas;
    opening_hours=24/7; phone=+39 091 6515010; power_supply=yes;
    sanitary_dump_station=yes; shower=yes; socket:cee_blue=yes;
    toilets=yes; tourism=caravan_site;
    website=https://www.greencarpalermo.it/;
    id=node/5347853323</desc>
    <link href="https://www.greencarpalermo.it/"></link>
  </wpt>
  <wpt lat="45.5582506" lon="7.9396036">
    <ele>973.0</ele>
    <name>Ristorante La Bossola</name>
    <desc>capacity=4; fee=no; operator=Ristorante La Bossola;
    power_supply=yes; tourism=caravan_site;
    id=node/5413920359</desc>
  </wpt>
  <wpt lat="46.0159611" lon="13.3369321">
    <ele>83.0</ele>
    <name>node/5422072347</name>
    <desc>description=area sosta camper autocaravan con possibilità
    di scarico acque reflue; fee=no; maxstay=72 hours;
    power_supply=no; sanitary_dump_station=yes; toilets=no;
    tourism=caravan_site; id=node/5422072347</desc>
  </wpt>
  <wpt lat="43.4710984" lon="13.641534">
    <ele>1.0</ele>
    <name>Bellamare Camping</name>
    <desc>addr:city=Porto Recanati; addr:housenumber=13;
    addr:postcode=62017; addr:street=Viale Ludovico Scarfiotti;
    drinking_water=yes; fee=yes; name=Bellamare Camping;
    power_supply=yes; sanitary_dump_station=yes; toilets=yes;
    tourism=caravan_site; id=node/5488291209</desc>
  </wpt>
  <wpt lat="43.4664625" lon="13.6455023">
    <ele>1.0</ele>
    <name>La Medusa Ingresso Camping</name>
    <desc>addr:city=Porto Recanati; addr:postcode=62017;
    addr:street=Viale Ludovico Scarfiotti; name=La Medusa Ingresso
    Camping; tourism=caravan_site; id=node/5488332244</desc>
  </wpt>
  <wpt lat="43.4115713" lon="13.6754519">
    <ele>3.0</ele>
    <name>Campeggio Regina 2</name>
    <desc>addr:city=Porto Recanati; addr:postcode=62017;
    addr:street=Via delle Nazioni; name=Campeggio Regina 2;
    tourism=caravan_site; id=node/5488413029</desc>
  </wpt>
  <wpt lat="43.4169215" lon="13.6723191">
    <ele>2.0</ele>
    <name>Pineta Camping</name>
    <desc>addr:city=Porto Recanati; addr:postcode=62017;
    addr:street=Viale della Repubblica; name=Pineta Camping;
    tourism=caravan_site; id=node/5488413033</desc>
  </wpt>
  <wpt lat="43.8589358" lon="11.1090145">
    <ele>46.0</ele>
    <name>Parcheggio Scambiatore Piazzale del Museo</name>
    <desc>addr:city=Prato; addr:postcode=59100; addr:street=Viale
    Leonardo da Vinci; capacity=50; fee=no; internet_access=no;
    name=Parcheggio Scambiatore Piazzale del Museo;
    power_supply=no; sanitary_dump_station=yes;
    tourism=caravan_site; id=node/5548163594</desc>
  </wpt>
  <wpt lat="39.5237649" lon="16.8996065">
    <ele>4.0</ele>
    <name>da Mario</name>
    <desc>name=da Mario; power_supply=yes;
    sanitary_dump_station=yes; tourism=caravan_site;
    website=http://www.camping-damario.eu;
    id=node/5548745922</desc>
    <link href="http://www.camping-damario.eu"></link>
  </wpt>
  <wpt lat="45.7850247" lon="8.4411961">
    <ele>520.0</ele>
    <name>node/5572904371</name>
    <desc>tourism=caravan_site; id=node/5572904371</desc>
  </wpt>
  <wpt lat="45.7897763" lon="8.372351">
    <ele>670.0</ele>
    <name>node/5572904379</name>
    <desc>tourism=caravan_site; id=node/5572904379</desc>
  </wpt>
  <wpt lat="45.7885905" lon="8.3861142">
    <ele>295.0</ele>
    <name>node/5572904384</name>
    <desc>tourism=caravan_site; id=node/5572904384</desc>
  </wpt>
  <wpt lat="46.2109293" lon="9.449221">
    <ele>203.0</ele>
    <name>Via al Lido</name>
    <desc>addr:street=Via al Lido; name=Via al Lido; name:it=Novate
    Mezzola; tourism=caravan_site; id=node/5618994722</desc>
  </wpt>
  <wpt lat="44.6719469" lon="12.2461719">
    <ele>5.0</ele>
    <name>node/5634224821</name>
    <desc>tourism=caravan_site; id=node/5634224821</desc>
  </wpt>
  <wpt lat="45.5981" lon="13.7822">
    <ele>4.0</ele>
    <name>node/5636075921</name>
    <desc>tourism=caravan_site; id=node/5636075921</desc>
  </wpt>
  <wpt lat="42.3417063" lon="13.3958608">
    <ele>686.0</ele>
    <name>node/5642528323</name>
    <desc>access=yes; addr:street=Viale XXIV Maggio;
    opening_hours=24/7; tourism=caravan_site;
    id=node/5642528323</desc>
  </wpt>
  <wpt lat="40.2347497" lon="14.9486674">
    <ele>20.0</ele>
    <name>lo scoglio</name>
    <desc>name=lo scoglio; tourism=caravan_site;
    id=node/5663436821</desc>
  </wpt>
  <wpt lat="40.6483651" lon="17.2256196">
    <ele>456.0</ele>
    <name>Foresteria</name>
    <desc>name=Foresteria; tourism=caravan_site;
    id=node/5675837741</desc>
  </wpt>
  <wpt lat="37.8187381" lon="15.2642393">
    <ele>20.0</ele>
    <name>node/5700456822</name>
    <desc>tourism=caravan_site; id=node/5700456822</desc>
  </wpt>
  <wpt lat="37.2892437" lon="13.4783346">
    <ele>49.0</ele>
    <name>node/5708310522</name>
    <desc>charge=20€; fee=yes; tourism=caravan_site;
    id=node/5708310522</desc>
  </wpt>
  <wpt lat="37.4429989" lon="15.0869455">
    <ele>8.0</ele>
    <name>node/5730124995</name>
    <desc>tourism=caravan_site; id=node/5730124995</desc>
  </wpt>
  <wpt lat="42.4151461" lon="11.207263">
    <ele>0.0</ele>
    <name>node/5766163464</name>
    <desc>tourism=caravan_site; id=node/5766163464</desc>
  </wpt>
  <wpt lat="45.6787779" lon="13.786642">
    <ele>386.0</ele>
    <name>node/5776969355</name>
    <desc>tourism=caravan_site; id=node/5776969355</desc>
  </wpt>
  <wpt lat="45.4803649" lon="11.2902667">
    <ele>83.0</ele>
    <name>node/5781555606</name>
    <desc>tourism=caravan_site; id=node/5781555606</desc>
  </wpt>
  <wpt lat="41.9223144" lon="13.8561546">
    <ele>944.0</ele>
    <name>node/5781686854</name>
    <desc>tourism=caravan_site; id=node/5781686854</desc>
  </wpt>
  <wpt lat="44.4322165" lon="8.8137181">
    <ele>98.0</ele>
    <name>Camping villa doria</name>
    <desc>addr:housenumber=15; addr:postcode=16156; addr:street=Via
    Campeggio Villa Doria; email=campingvilladoria@gmail.com;
    internet_access=wlan; name=Camping villa doria;
    name:de=Campingplatz Villa Doria; phone=+39 010 6969600;
    tourism=caravan_site;
    website=https://www.campingvilladoria.it/;
    id=node/5810210353</desc>
    <link href="https://www.campingvilladoria.it/"></link>
  </wpt>
  <wpt lat="43.4728241" lon="11.8833069">
    <ele>250.0</ele>
    <name>node/5829712993</name>
    <desc>tourism=caravan_site; id=node/5829712993</desc>
  </wpt>
  <wpt lat="40.3176957" lon="9.3307422">
    <ele>502.0</ele>
    <name>node/5839836586</name>
    <desc>name:ru=car; tourism=caravan_site;
    id=node/5839836586</desc>
  </wpt>
  <wpt lat="40.9569428" lon="15.7944102">
    <ele>440.0</ele>
    <name>node/5840579866</name>
    <desc>tourism=caravan_site; id=node/5840579866</desc>
  </wpt>
  <wpt lat="44.1338018" lon="10.8209424">
    <ele>1411.0</ele>
    <name>node/5843928485</name>
    <desc>tourism=caravan_site; id=node/5843928485</desc>
  </wpt>
  <wpt lat="43.9055553" lon="10.2203982">
    <ele>4.0</ele>
    <name>Park Camper Kennedy</name>
    <desc>name=Park Camper Kennedy; tourism=caravan_site;
    id=node/5893089529</desc>
  </wpt>
  <wpt lat="43.0928674" lon="11.7103714">
    <ele>472.0</ele>
    <name>node/5896880786</name>
    <desc>name:pl=Agro turystyka - camping camper; shop=outdoor;
    tourism=caravan_site; id=node/5896880786</desc>
  </wpt>
  <wpt lat="46.198886" lon="12.6129335">
    <ele>415.0</ele>
    <name>node/5906194486</name>
    <desc>name:de=Stellplatz mit Entsorgung; name:en=Camping;
    opening_hours=24/7; tourism=caravan_site;
    id=node/5906194486</desc>
  </wpt>
  <wpt lat="45.5006355" lon="11.4251867">
    <ele>66.0</ele>
    <name>node/5933417179</name>
    <desc>tourism=caravan_site; id=node/5933417179</desc>
  </wpt>
  <wpt lat="40.744489" lon="17.4275859">
    <ele>356.0</ele>
    <name>node/5952277587</name>
    <desc>addr:postcode=72014; addr:street=Via Francesco Clarizia;
    drinking_water=yes; fee=no; opening_hours=24/7;
    power_supply=no; sanitary_dump_station=yes;
    tourism=caravan_site; id=node/5952277587</desc>
  </wpt>
  <wpt lat="43.5240407" lon="13.4366752">
    <ele>309.0</ele>
    <name>Area sosta camper Offagna</name>
    <desc>addr:city=Offagna; addr:street=Via Martin Luther King;
    capacity=5; fee=no; internet_access=no; name=Area sosta camper
    Offagna; power_supply=no; tourism=caravan_site;
    id=node/6077175435</desc>
  </wpt>
  <wpt lat="43.5699088" lon="12.1367555">
    <ele>322.0</ele>
    <name>Area sosta camper Sansepolcro</name>
    <desc>addr:city=Sansepolcro; addr:street=Viale Alessandro
    Volta; capacity=10; description=Parcheggio misto, divieto di
    campeggio, rifornimento acqua e scarico acque reflue; fee=no;
    internet_access=no; internet_access:fee=no; name=Area sosta
    camper Sansepolcro; operator=Comunale; power_supply=no;
    sanitary_dump_station=yes; tourism=caravan_site;
    water_supply=yes; id=node/6083322052</desc>
  </wpt>
  <wpt lat="42.5814945" lon="13.6261757">
    <ele>262.0</ele>
    <name>node/6086660814</name>
    <desc>tourism=caravan_site; id=node/6086660814</desc>
  </wpt>
  <wpt lat="42.7646268" lon="10.3112671">
    <ele>18.0</ele>
    <name>Orti di mare</name>
    <desc>name=Orti di mare; tourism=caravan_site;
    id=node/6103916585</desc>
  </wpt>
  <wpt lat="44.7260984" lon="12.2248463">
    <ele>-1.0</ele>
    <name>Ariaperta Comacchio</name>
    <desc>name=Ariaperta Comacchio; opening_hours=24/7;
    tourism=caravan_site; id=node/6168225487</desc>
  </wpt>
  <wpt lat="42.8699117" lon="11.8782726">
    <ele>573.0</ele>
    <name>node/6223589194</name>
    <desc>tourism=caravan_site; id=node/6223589194</desc>
  </wpt>
  <wpt lat="45.1000031" lon="7.9477197">
    <ele>339.0</ele>
    <name>node/6351721884</name>
    <desc>sanitary_dump_station=yes; tourism=caravan_site;
    id=node/6351721884</desc>
  </wpt>
  <wpt lat="40.6260197" lon="14.3415928">
    <ele>30.0</ele>
    <name>node/6418985025</name>
    <desc>tourism=caravan_site; id=node/6418985025</desc>
  </wpt>
  <wpt lat="42.4249141" lon="11.6268463">
    <ele>67.0</ele>
    <name>Parco archeologico Vulci</name>
    <desc>fee=no; internet_access=no; name=Parco archeologico
    Vulci; power_supply=no; sanitary_dump_station=no;
    tourism=caravan_site; id=node/6422843701</desc>
  </wpt>
  <wpt lat="43.8206609" lon="10.6533973">
    <ele>21.0</ele>
    <name>node/6432699655</name>
    <desc>drinking_water=no; fee=no; name:signed=no;
    power_supply=no; sanitary_dump_station=no; toilets=no;
    tourism=caravan_site; id=node/6432699655</desc>
  </wpt>
  <wpt lat="39.9110507" lon="18.3903284">
    <ele>47.0</ele>
    <name>node/6436062285</name>
    <desc>tourism=caravan_site; id=node/6436062285</desc>
  </wpt>
  <wpt lat="39.0833454" lon="17.1251152">
    <ele>4.0</ele>
    <name>node/6462408215</name>
    <desc>tourism=caravan_site; id=node/6462408215</desc>
  </wpt>
  <wpt lat="38.1442107" lon="15.5172076">
    <ele>89.0</ele>
    <name>node/6478914185</name>
    <desc>opening_hours=24/7; tourism=caravan_site;
    id=node/6478914185</desc>
  </wpt>
  <wpt lat="37.8187073" lon="15.2529595">
    <ele>24.0</ele>
    <name>node/6478914186</name>
    <desc>opening_hours=24/7; tourism=caravan_site;
    id=node/6478914186</desc>
  </wpt>
  <wpt lat="37.3870753" lon="14.3677826">
    <ele>667.0</ele>
    <name>PIAZZiAmoci alle ANTICHE MURA</name>
    <desc>addr:postcode=94015; addr:street=Via Giacinto Lo Giudice;
    drinking_water=yes; fee=yes; name=PIAZZiAmoci alle ANTICHE
    MURA; opening_hours=24/7; operator=Comune di Piazza Armerina;
    power_supply=yes; sanitary_dump_station=yes;
    survey:date=2024-03-02; tourism=caravan_site;
    id=node/6478914286</desc>
  </wpt>
  <wpt lat="37.5055211" lon="13.0765115">
    <ele>6.0</ele>
    <name>Area sosta camper Parcheggio a Sciacca</name>
    <desc>addr:housenumber=68; addr:postcode=92019; addr:street=Via
    Gaia di Garaffe; name=Area sosta camper Parcheggio a Sciacca;
    opening_hours=24/7; power_supply=no; sanitary_dump_station=no;
    seasonal=no; tourism=caravan_site; id=node/6478914686</desc>
  </wpt>
  <wpt lat="41.4440688" lon="12.9851888">
    <ele>9.0</ele>
    <name>node/6481505086</name>
    <desc>opening_hours=24/7; tourism=caravan_site;
    id=node/6481505086</desc>
  </wpt>
  <wpt lat="45.5614977" lon="10.7148352">
    <ele>73.0</ele>
    <name>Park Camper Serenella</name>
    <desc>capacity=10; drinking_water=yes; fee=yes; name=Park
    Camper Serenella; power_supply=no;
    sanitary_dump_station=customers; toilets=no;
    tourism=caravan_site; wheelchair=yes; id=node/6482696601</desc>
  </wpt>
  <wpt lat="41.080095" lon="16.275111">
    <ele>497.0</ele>
    <name>node/6504582785</name>
    <desc>fee=yes; opening_hours=24/7; tourism=caravan_site;
    id=node/6504582785</desc>
  </wpt>
  <wpt lat="41.0768029" lon="16.2754842">
    <ele>475.0</ele>
    <name>node/6509189385</name>
    <desc>description:es=Área de autocaravanas con todos los
    servicios; fee=yes; opening_hours=24/7; tourism=caravan_site;
    id=node/6509189385</desc>
  </wpt>
  <wpt lat="45.7288347" lon="10.7814174">
    <ele>68.0</ele>
    <name>node/6513807929</name>
    <desc>name:en=Camping Antonio; tourism=caravan_site;
    id=node/6513807929</desc>
  </wpt>
  <wpt lat="42.4983611" lon="12.236058">
    <ele>129.0</ele>
    <name>node/6516320186</name>
    <desc>tourism=caravan_site; id=node/6516320186</desc>
  </wpt>
  <wpt lat="42.4880432" lon="12.1313544">
    <ele>302.0</ele>
    <name>ferento</name>
    <desc>name=ferento; tourism=caravan_site;
    id=node/6524049685</desc>
  </wpt>
  <wpt lat="37.0728538" lon="15.2763287">
    <ele>9.0</ele>
    <name>Parking Paradise</name>
    <desc>name=Parking Paradise; opening_hours=24/7; phone=+39 366
    2683199; tourism=caravan_site;
    website=https://www.parkingparadise.it/;
    id=node/6539322285</desc>
    <link href="https://www.parkingparadise.it/"></link>
  </wpt>
  <wpt lat="46.0376347" lon="10.0098351">
    <ele>907.0</ele>
    <name>Area Sosta Camper Sabiunet</name>
    <desc>fee=yes; name=Area Sosta Camper Sabiunet;
    power_supply=yes; sanitary_dump_station=yes; toilets=yes;
    tourism=caravan_site; id=node/6572422155</desc>
  </wpt>
  <wpt lat="40.0893686" lon="18.4862537">
    <ele>26.0</ele>
    <name>Tenuta L'Alba di Monte Matino</name>
    <desc>name=Tenuta L'Alba di Monte Matino; opening_hours=24/7;
    phone=+39 347 1198974; tourism=caravan_site;
    website=http://www.tenutamontematino.com/;
    id=node/6581302985</desc>
    <link href="http://www.tenutamontematino.com/"></link>
  </wpt>
  <wpt lat="37.6993513" lon="15.0004001">
    <ele>1902.0</ele>
    <name>node/6591832188</name>
    <desc>fee=yes; opening_hours=24/7; tourism=caravan_site;
    id=node/6591832188</desc>
  </wpt>
  <wpt lat="37.009786" lon="15.2898467">
    <ele>10.0</ele>
    <name>Agriturismo Terrauzza sul Mare</name>
    <desc>fee=yes; operator=Agriturismo Terrauzza sul Mare;
    tourism=caravan_site; id=node/6592308916</desc>
  </wpt>
  <wpt lat="42.4079001" lon="13.7452698">
    <ele>1508.0</ele>
    <name>Ristoro Mucciante</name>
    <desc>fee=no; internet_access=no; name=Ristoro Mucciante;
    note=Free no camper service; permanent_camping=no;
    power_supply=no; sanitary_dump_station=no; toilets=no;
    tourism=caravan_site;
    website=https://www.ristoromucciante.com/;
    id=node/6627858711</desc>
    <link href="https://www.ristoromucciante.com/"></link>
  </wpt>
  <wpt lat="44.3852004" lon="6.9640706">
    <ele>1629.0</ele>
    <name>node/6637843734</name>
    <desc>tourism=caravan_site; id=node/6637843734</desc>
  </wpt>
  <wpt lat="44.2297514" lon="7.1062326">
    <ele>2029.0</ele>
    <name>node/6644275376</name>
    <desc>fee=no; tourism=caravan_site; id=node/6644275376</desc>
  </wpt>
  <wpt lat="44.2306051" lon="7.1071835">
    <ele>2003.0</ele>
    <name>node/6644275377</name>
    <desc>fee=no; tourism=caravan_site; id=node/6644275377</desc>
  </wpt>
  <wpt lat="46.4257031" lon="12.5671389">
    <ele>920.0</ele>
    <name>node/6776906851</name>
    <desc>access=permissive; charge=7€ x 24h;
    disused:amenity=sanitary_dump_station; disused:water_point=yes;
    fee=yes; tourism=caravan_site;
    website=https://www.turismofvg.it/rnode/28641;
    id=node/6776906851</desc>
    <link href="https://www.turismofvg.it/rnode/28641"></link>
  </wpt>
  <wpt lat="39.2596571" lon="9.1839877">
    <ele>24.0</ele>
    <name>node/6780478585</name>
    <desc>tourism=caravan_site; id=node/6780478585</desc>
  </wpt>
  <wpt lat="46.2090632" lon="12.8139095">
    <ele>268.0</ele>
    <name>Ai Pradons</name>
    <desc>name=Ai Pradons; tourism=caravan_site;
    id=node/6788942185</desc>
  </wpt>
  <wpt lat="46.0312991" lon="10.5132976">
    <ele>1570.0</ele>
    <name>node/6837133488</name>
    <desc>access=yes; fee=no; sanitary_dump_station=yes;
    tourism=caravan_site; water_point=no; id=node/6837133488</desc>
  </wpt>
  <wpt lat="42.1839396" lon="12.1327928">
    <ele>406.0</ele>
    <name>Lacastellina15</name>
    <desc>addr:city=Oriolo Romano; addr:country=IT;
    addr:housenumber=15; addr:postcode=01010; addr:street=Strada
    della Castellina; email=lacastellina15@gmail.com; fee=yes;
    internet_access=yes; internet_access:fee=no;
    name=Lacastellina15; phone=+39 335 585 2133; power_supply=no;
    sanitary_dump_station=no; tents=yes; tourism=caravan_site;
    website=https://www.lacastellina15.com/; wheelchair=no;
    id=node/6845152620</desc>
    <link href="https://www.lacastellina15.com/"></link>
  </wpt>
  <wpt lat="40.206057" lon="9.3565883">
    <ele>565.0</ele>
    <name>node/6845434685</name>
    <desc>name:de=Wohnwagenstellplatz; tourism=caravan_site;
    id=node/6845434685</desc>
  </wpt>
  <wpt lat="44.1327462" lon="10.0172863">
    <ele>474.0</ele>
    <name>node/6893905949</name>
    <desc>tourism=caravan_site; id=node/6893905949; ;
    id=way/736359200</desc>
  </wpt>
  <wpt lat="43.3261514" lon="10.5995427">
    <ele>137.0</ele>
    <name>Serra del Pino</name>
    <desc>capacity=8; name=Serra del Pino; power_supply=yes;
    sanitary_dump_station=yes; tourism=caravan_site;
    id=node/6921312492</desc>
  </wpt>
  <wpt lat="46.4397584" lon="11.2819642">
    <ele>497.0</ele>
    <name>Camping Montiggl</name>
    <desc>addr:housenumber=62a; addr:street=Montiggler Straße - Via
    Monticolo; addr:street:de=Montiggler Straße; addr:street:it=Via
    Monticolo; fee=yes; internet_access=yes; name=Camping Montiggl;
    power_supply=yes; sanitary_dump_station=yes; toilets=yes;
    tourism=caravan_site; website=https://www.campingmontiggl.com/;
    id=node/7021263666</desc>
    <link href="https://www.campingmontiggl.com/"></link>
  </wpt>
  <wpt lat="45.994835" lon="8.369213">
    <ele>213.0</ele>
    <name>node/7028215069</name>
    <desc>tourism=caravan_site; id=node/7028215069</desc>
  </wpt>
  <wpt lat="39.72276" lon="8.8982419">
    <ele>165.0</ele>
    <name>Area sosta camper Baradili</name>
    <desc>name=Area sosta camper Baradili; opening_hours=24/7;
    tourism=caravan_site; id=node/7034178686</desc>
  </wpt>
  <wpt lat="44.9223431" lon="8.0772801">
    <ele>241.0</ele>
    <name>node/7248385833</name>
    <desc>tourism=caravan_site; id=node/7248385833</desc>
  </wpt>
  <wpt lat="45.5620699" lon="8.6966312">
    <ele>148.0</ele>
    <name>node/7332732989</name>
    <desc>tourism=caravan_site; id=node/7332732989</desc>
  </wpt>
  <wpt lat="40.170444" lon="16.5217613">
    <ele>481.0</ele>
    <name>node/7363795939</name>
    <desc>sanitary_dump_station=yes; tourism=caravan_site;
    id=node/7363795939</desc>
  </wpt>
  <wpt lat="45.8182887" lon="8.2495566">
    <ele>462.0</ele>
    <name>node/7371302471</name>
    <desc>check_date=2024-04-08; name:signed=no;
    tourism=caravan_site; id=node/7371302471</desc>
  </wpt>
  <wpt lat="41.392711" lon="12.9456674">
    <ele>10.0</ele>
    <name>node/7392351789</name>
    <desc>name:signed=no; tourism=caravan_site;
    id=node/7392351789</desc>
  </wpt>
  <wpt lat="37.8791735" lon="15.1765957">
    <ele>206.0</ele>
    <name>node/7444123334</name>
    <desc>tourism=caravan_site; id=node/7444123334</desc>
  </wpt>
  <wpt lat="39.9929078" lon="18.4115626">
    <ele>68.0</ele>
    <name>node/7522430915</name>
    <desc>survey:date=2023-09-03; tourism=caravan_site;
    id=node/7522430915</desc>
  </wpt>
  <wpt lat="44.0542946" lon="10.7942805">
    <ele>605.0</ele>
    <name>node/7580003281</name>
    <desc>tourism=caravan_site; id=node/7580003281</desc>
  </wpt>
  <wpt lat="45.9140018" lon="11.1709974">
    <ele>1135.0</ele>
    <name>node/7580327460</name>
    <desc>access=yes; amenity=parking; fee=no; parking=surface;
    power_supply=no; sanitary_dump_station=yes;
    tourism=caravan_site; id=node/7580327460</desc>
  </wpt>
  <wpt lat="39.1221262" lon="17.0824202">
    <ele>57.0</ele>
    <name>node/7635982630</name>
    <desc>tourism=caravan_site; id=node/7635982630</desc>
  </wpt>
  <wpt lat="46.8226081" lon="10.5094957">
    <ele>1500.0</ele>
    <name>Schöneben - Belpiano</name>
    <desc>fee=yes; name=Schöneben - Belpiano; name:de=Schöneben;
    name:it=Belpiano; tourism=caravan_site;
    id=node/7685952985</desc>
  </wpt>
  <wpt lat="40.1923391" lon="9.3494227">
    <ele>846.0</ele>
    <name>Area di sosta SUPRAMONTE</name>
    <desc>drinking_water=yes; name=Area di sosta SUPRAMONTE;
    opening_hours=Mo-Su 09:00-20:00; power_supply=yes;
    tourism=caravan_site; id=node/7707553786</desc>
  </wpt>
  <wpt lat="39.9835854" lon="9.6861252">
    <ele>10.0</ele>
    <name>Camper Service Costa Orientale</name>
    <desc>fee=yes; name=Camper Service Costa Orientale;
    phone=+393339042522; tourism=caravan_site; id=node/7726873885;
    ; description=RV parking; id=way/120553251</desc>
  </wpt>
  <wpt lat="44.2064581" lon="8.017571">
    <ele>578.0</ele>
    <name>node/7772614686</name>
    <desc>tourism=caravan_site; id=node/7772614686</desc>
  </wpt>
  <wpt lat="45.7083297" lon="7.2239994">
    <ele>689.0</ele>
    <name>node/7781731785</name>
    <desc>opening_hours=24/7; tourism=caravan_site;
    id=node/7781731785</desc>
  </wpt>
  <wpt lat="45.75825" lon="7.029251">
    <ele>927.0</ele>
    <name>node/7796512885</name>
    <desc>opening_hours=24/7; tourism=caravan_site;
    id=node/7796512885</desc>
  </wpt>
  <wpt lat="39.087392" lon="8.39218">
    <ele>19.0</ele>
    <name>Area di Sosta Vittoriano</name>
    <desc>name=Area di Sosta Vittoriano; opening_hours=Mo-Su
    08:00-20:00; operator=Sig. Vittoriano; phone=+39 333 3773487;
    power_supply=yes; power_supply:maxcurrent=2;
    sanitary_dump_station=yes; socket:cee_blue=yes;
    tourism=caravan_site; id=node/7804695085</desc>
  </wpt>
  <wpt lat="44.2733909" lon="11.7210042">
    <ele>73.0</ele>
    <name>Area Sosta Camper Riolo Terme</name>
    <desc>fee=no; name=Area Sosta Camper Riolo Terme;
    power_supply=yes; sanitary_dump_station=yes;
    tourism=caravan_site; water_point=yes;
    id=node/7814478494</desc>
  </wpt>
  <wpt lat="46.1150699" lon="12.0307941">
    <ele>651.0</ele>
    <name>Area camper località Ligont</name>
    <desc>name=Area camper località Ligont; tourism=caravan_site;
    id=node/7820207203</desc>
  </wpt>
  <wpt lat="46.4883888" lon="12.4657181">
    <ele>796.0</ele>
    <name>Piccola zona attrezzata sosta camper</name>
    <desc>name=Piccola zona attrezzata sosta camper;
    tourism=caravan_site; id=node/7824325787</desc>
  </wpt>
  <wpt lat="42.0568917" lon="13.306883">
    <ele>771.0</ele>
    <name>Casale le Crete</name>
    <desc>name=Casale le Crete; tourism=caravan_site;
    id=node/7831628785</desc>
  </wpt>
  <wpt lat="43.7342652" lon="11.5564102">
    <ele>941.0</ele>
    <name>Area Camper Vallombrosa</name>
    <desc>name=Area Camper Vallombrosa; power_supply=yes;
    socket:cee_blue=yes; start_date=2024; tourism=caravan_site;
    id=node/7839542116; ; id=way/1316592640</desc>
  </wpt>
  <wpt lat="46.4899262" lon="9.3380503">
    <ele>1910.0</ele>
    <name>Stellplatz Montespluga</name>
    <desc>capacity=10; fee=yes; internet_access=no; name=Stellplatz
    Montespluga; power_supply=no; sanitary_dump_station=yes;
    tourism=caravan_site; id=node/7861880828</desc>
  </wpt>
  <wpt lat="41.2362363" lon="13.4885162">
    <ele>3.0</ele>
    <name>Internazionale</name>
    <desc>fee=yes; name=Internazionale; tourism=caravan_site;
    id=node/7929724935</desc>
  </wpt>
  <wpt lat="44.1910259" lon="8.128521">
    <ele>707.0</ele>
    <name>node/7947299785</name>
    <desc>tourism=caravan_site; id=node/7947299785</desc>
  </wpt>
  <wpt lat="40.284496" lon="8.4833143">
    <ele>0.0</ele>
    <name>node/7965302785</name>
    <desc>name:de=Wohnwagenstellplatz; tourism=caravan_site;
    id=node/7965302785</desc>
  </wpt>
  <wpt lat="45.7943654" lon="8.5901483">
    <ele>210.0</ele>
    <name>Agricampeggio Lago Maggiore</name>
    <desc>capacity=20; drinking_water=yes; fee=yes;
    internet_access=wlan; internet_access:fee=customers;
    name=Agricampeggio Lago Maggiore; name:de=Wohnwagenstellplatz;
    note=Agricampeggio Lago Maggiore Ranco; Area sosta Sass
    Cavalasc; power_supply=yes; sanitary_dump_station=yes;
    toilets=yes; tourism=caravan_site;
    website=http://www.agricamperlagomaggiore.it/;
    id=node/8047896585</desc>
    <link href="http://www.agricamperlagomaggiore.it/"></link>
  </wpt>
  <wpt lat="45.7602055" lon="7.8354502">
    <ele>1371.0</ele>
    <name>node/8117181917</name>
    <desc>fee=yes; tourism=caravan_site; id=node/8117181917</desc>
  </wpt>
  <wpt lat="44.637699" lon="7.92844">
    <ele>445.0</ele>
    <name>Il laghetto</name>
    <desc>addr:housenumber=8; addr:postcode=12064;
    addr:street=Strada Laghetto; capacity=8; charge=12 euro;
    description=Call the restaurant for booking; fee=yes;
    internet_access=yes; name=Il laghetto; opening_hours=24/7;
    operator=the owner of the near restaurant;
    permanent_camping=no; power_supply=yes;
    sanitary_dump_station=yes; toilets=no; tourism=caravan_site;
    id=node/8152023317</desc>
  </wpt>
  <wpt lat="44.7276" lon="8.11343">
    <ele>253.0</ele>
    <name>node/8180785217</name>
    <desc>addr:postcode=12052; addr:street=Via Circonvallazione;
    description=Free of charge. No facilities at all. Playground
    close by. (visited in July 2021); fee=yes;
    tourism=caravan_site; id=node/8180785217</desc>
  </wpt>
  <wpt lat="45.4180028" lon="11.082925">
    <ele>47.0</ele>
    <name>node/8184925458</name>
    <desc>access=yes; amenity=sanitary_dump_station; fee=no;
    tourism=caravan_site; water_point=yes;
    id=node/8184925458</desc>
  </wpt>
  <wpt lat="45.4181233" lon="11.0827667">
    <ele>47.0</ele>
    <name>node/8184925459</name>
    <desc>access=yes; amenity=sanitary_dump_station; fee=no;
    tourism=caravan_site; water_point=yes;
    id=node/8184925459</desc>
  </wpt>
  <wpt lat="45.7852326" lon="8.4411158">
    <ele>520.0</ele>
    <name>node/8195174817</name>
    <desc>fee=yes; tourism=caravan_site; id=node/8195174817</desc>
  </wpt>
  <wpt lat="45.8878285" lon="8.5264769">
    <ele>215.0</ele>
    <name>node/8196242417</name>
    <desc>addr:housenumber=32; addr:postcode=28838; addr:street=Via
    Principe di Piemonte; capacity=9; charge=2.7€/h;
    check_date=2023-05-19; description=8 parking spaces to stay, 1
    parking space is a dumping station. Paying from 09:00-22:00;
    fee=yes; opening_hours=24/7;
    panoramax=fdbd4e91-8aa6-4984-981b-e9f3895dfb33;
    permanent_camping=no; sanitary_dump_station=yes; toilets=no;
    tourism=caravan_site; id=node/8196242417</desc>
  </wpt>
  <wpt lat="45.9272971" lon="8.5628701">
    <ele>209.0</ele>
    <name>node/8197191523</name>
    <desc>addr:housenumber=66; addr:postcode=28922;
    addr:street=Corso Europa; opening_hours=24/7;
    tourism=caravan_site; id=node/8197191523</desc>
  </wpt>
  <wpt lat="40.9063761" lon="14.1257723">
    <ele>105.0</ele>
    <name>node/8255772472</name>
    <desc>tourism=caravan_site; id=node/8255772472</desc>
  </wpt>
  <wpt lat="36.9149766" lon="15.1487946">
    <ele>18.0</ele>
    <name>Oasi Pacaru</name>
    <desc>name=Oasi Pacaru; tourism=caravan_site;
    id=node/8276530484</desc>
  </wpt>
  <wpt lat="46.110581" lon="13.083519">
    <ele>167.0</ele>
    <name>Camping Borgo Terra di Fagagna</name>
    <desc>capacity=4; contact:mobile=+39 340 4555336; name=Camping
    Borgo Terra di Fagagna; opening_hours=Jan-Dec;
    tourism=caravan_site; id=node/8311113835</desc>
  </wpt>
  <wpt lat="44.994449" lon="10.4887368">
    <ele>23.0</ele>
    <name>Area Sosta Camper Sabbioneta</name>
    <desc>name=Area Sosta Camper Sabbioneta; name:es=Área de
    Autocaravanas; opening_hours=24/7; power_supply=no;
    sanitary_dump_station=yes; tourism=caravan_site;
    id=node/8361862617</desc>
  </wpt>
  <wpt lat="44.6466976" lon="10.8878517">
    <ele>37.0</ele>
    <name>node/8381303617</name>
    <desc>opening_hours=24/7; tourism=caravan_site;
    id=node/8381303617</desc>
  </wpt>
  <wpt lat="45.6700256" lon="12.2578599">
    <ele>14.0</ele>
    <name>node/8418096418</name>
    <desc>addr:housenumber=7; addr:postcode=31100; addr:street=Via
    Castello d'Amore; opening_hours=24/7; tourism=caravan_site;
    id=node/8418096418</desc>
  </wpt>
  <wpt lat="45.6674417" lon="12.2636352">
    <ele>10.0</ele>
    <name>node/8419973717</name>
    <desc>opening_hours=24/7; tourism=caravan_site;
    id=node/8419973717</desc>
  </wpt>
  <wpt lat="44.4143121" lon="12.1883925">
    <ele>3.0</ele>
    <name>node/8429839617</name>
    <desc>addr:postcode=48121; addr:street=Piazza della Resistenza;
    opening_hours=24/7; tourism=caravan_site;
    id=node/8429839617</desc>
  </wpt>
  <wpt lat="44.4142773" lon="12.1894312">
    <ele>2.0</ele>
    <name>node/8429839717</name>
    <desc>description:en=Zona de Servicios vaciado y agua;
    tourism=caravan_site; id=node/8429839717</desc>
  </wpt>
  <wpt lat="44.4304927" lon="12.2093574">
    <ele>1.0</ele>
    <name>node/8429839817</name>
    <desc>addr:housenumber=86; addr:postcode=48122; addr:street=Via
    Chiavica Romea; opening_hours=24/7; tourism=caravan_site;
    id=node/8429839817</desc>
  </wpt>
  <wpt lat="44.1454826" lon="12.2282192">
    <ele>25.0</ele>
    <name>node/8435877220</name>
    <desc>addr:housenumber=99; addr:postcode=47023;
    addr:street=Piazzale Paolo Tordi; opening_hours=24/7;
    tourism=caravan_site; id=node/8435877220</desc>
  </wpt>
  <wpt lat="44.1450777" lon="12.2288128">
    <ele>26.0</ele>
    <name>node/8435895018</name>
    <desc>opening_hours=24/7; tourism=caravan_site;
    id=node/8435895018</desc>
  </wpt>
  <wpt lat="45.1029813" lon="7.3303517">
    <ele>367.0</ele>
    <name>BiciGrill San Michele</name>
    <desc>fee=yes; operator=BiciGrill San Michele;
    power_supply=yes; tourism=caravan_site;
    id=node/8475680858</desc>
  </wpt>
  <wpt lat="40.3672464" lon="9.2967792">
    <ele>669.0</ele>
    <name>Agritourismo Costiolu</name>
    <desc>name=Agritourismo Costiolu; tourism=caravan_site;
    website=https://www.agriturismocostiolu.com/index.php;
    id=node/8749843978</desc>
    <link href="https://www.agriturismocostiolu.com/index.php">
    </link>
  </wpt>
  <wpt lat="44.0588006" lon="12.448892">
    <ele>40.0</ele>
    <name>node/8778604819</name>
    <desc>tourism=caravan_site; id=node/8778604819</desc>
  </wpt>
  <wpt lat="44.220028" lon="11.7817282">
    <ele>76.0</ele>
    <name>node/8778619617</name>
    <desc>tourism=caravan_site; id=node/8778619617</desc>
  </wpt>
  <wpt lat="44.0741868" lon="12.3258215">
    <ele>120.0</ele>
    <name>node/8778669617</name>
    <desc>fee=no; sanitary_dump_station=yes; tourism=caravan_site;
    id=node/8778669617</desc>
  </wpt>
  <wpt lat="44.1372639" lon="12.101997">
    <ele>49.0</ele>
    <name>node/8778686318</name>
    <desc>tourism=caravan_site; id=node/8778686318</desc>
  </wpt>
  <wpt lat="44.5204848" lon="10.9593054">
    <ele>95.0</ele>
    <name>node/8816458718</name>
    <desc>tourism=caravan_site; id=node/8816458718</desc>
  </wpt>
  <wpt lat="43.8960116" lon="12.3498425">
    <ele>575.0</ele>
    <name>node/8816459017</name>
    <desc>highway=rest_area; tourism=caravan_site;
    id=node/8816459017</desc>
  </wpt>
  <wpt lat="43.8862594" lon="12.6120278">
    <ele>398.0</ele>
    <name>node/8816459117</name>
    <desc>tourism=caravan_site; id=node/8816459117</desc>
  </wpt>
  <wpt lat="43.8584621" lon="12.6859851">
    <ele>278.0</ele>
    <name>node/8816459317</name>
    <desc>tourism=caravan_site; id=node/8816459317</desc>
  </wpt>
  <wpt lat="46.4620684" lon="10.3718944">
    <ele>1197.0</ele>
    <name>Area Bormio 2000</name>
    <desc>caravans=no; dog=yes; name=Area Bormio 2000; tents=no;
    tourism=caravan_site; id=node/9001181866</desc>
  </wpt>
  <wpt lat="44.5275808" lon="8.7179474">
    <ele>586.0</ele>
    <name>node/9016365974</name>
    <desc>tourism=caravan_site; id=node/9016365974</desc>
  </wpt>
  <wpt lat="45.5570189" lon="11.5733464">
    <ele>35.0</ele>
    <name>http://www.agriturismovillacorona.com/</name>
    <desc>addr:housenumber=53; addr:street=Strada di Bertesina;
    capacity=6; email=michela.brogliato@hotmail.it; fee=yes;
    operator=Agriturismo Villa Corona; phone=+39 0444 501892, +39
    339 582 4119; power_supply=yes; sanitary_dump_station=yes;
    tourism=caravan_site;
    website=http://www.agriturismovillacorona.com/;
    id=node/9023148275</desc>
    <link href="http://www.agriturismovillacorona.com/"></link>
  </wpt>
  <wpt lat="46.1560026" lon="10.1653207">
    <ele>1155.0</ele>
    <name>Area Camper Stofoll</name>
    <desc>contact:email=info@residencestofol.it; contact:phone=+39
    333 4633768;
    contact:website=https://www.residencestofol.it/area-camper.php;
    fee=yes; name=Area Camper Stofoll; power_supply=yes;
    sanitary_dump_station=yes; tourism=caravan_site;
    id=way/1377993376; ; addr:city=Aprica; addr:housenumber=18;
    addr:postcode=23013; addr:street=Piazzale Funivia;
    id=node/9025026667</desc>
    <link href="https://www.residencestofol.it/area-camper.php">
    </link>
  </wpt>
  <wpt lat="44.5075374" lon="10.7340377">
    <ele>153.0</ele>
    <name>Area Sosta Camper Castellarano</name>
    <desc>fee=no; name=Area Sosta Camper Castellarano;
    power_supply=no; sanitary_dump_station=yes;
    tourism=caravan_site; water_point=yes;
    id=node/9031376962</desc>
  </wpt>
  <wpt lat="44.7096336" lon="10.6246097">
    <ele>51.0</ele>
    <name>Area Sosta Foro Boario</name>
    <desc>addr:city=Reggio Emilia; addr:postcode=42124;
    addr:street=Via Fratelli Manfredi; capacity=6; maxstay=24
    hours; name=Area Sosta Foro Boario; power_supply=yes;
    sanitary_dump_station=yes; socket:cee_blue=yes; toilets=no;
    tourism=caravan_site;
    website=https://www.reggioemiliawelcome.it/it/reggio-emilia/ospitalita/dove-dormire/aree-di-sosta-camper/area-attrezzata-per-camper;
    id=node/9031739084</desc>
    <link href="https://www.reggioemiliawelcome.it/it/reggio-emilia/ospitalita/dove-dormire/aree-di-sosta-camper/area-attrezzata-per-camper">
    </link>
  </wpt>
  <wpt lat="44.7675641" lon="10.7742118">
    <ele>34.0</ele>
    <name>Area Sosta Camper Correggio</name>
    <desc>addr:city=Correggio; addr:postcode=42025; addr:street=Via
    Fazzano; description=Area camper, usata principalmente durante
    concerti e partite importanti; drinking_water=yes; fee=no;
    internet_access=no; name=Area Sosta Camper Correggio;
    permanent_camping=no; power_supply=no;
    sanitary_dump_station=yes; toilets=no; tourism=caravan_site;
    id=node/9031824427</desc>
  </wpt>
  <wpt lat="44.3166458" lon="10.4185476">
    <ele>1296.0</ele>
    <name>Area Sosta Monte Orsaro</name>
    <desc>addr:city=Villa Minozzo; addr:housenumber=66;
    addr:postcode=42030; addr:street=Via Pradancino; name=Area
    Sosta Monte Orsaro; phone=+39 329 6216576;
    tourism=caravan_site;
    website=https://www.rifugiomonteorsaro.it/pernottare/;
    id=node/9041134140</desc>
    <link href="https://www.rifugiomonteorsaro.it/pernottare/">
    </link>
  </wpt>
  <wpt lat="39.7837578" lon="9.6684816">
    <ele>3.0</ele>
    <name>Area Sosta Camper Mare Blu</name>
    <desc>addr:city=Cardedu; name=Area Sosta Camper Mare Blu;
    name:it=Area Sosta Camper Mare Blu; sanitary_dump_station=yes;
    tourism=caravan_site; id=node/9050340485</desc>
  </wpt>
  <wpt lat="44.3111615" lon="11.1968207">
    <ele>407.0</ele>
    <name>Parcheggio Il Poggiolo</name>
    <desc>description=Parcheggio ampio e sterrato gratuito, senza
    illuminazione e altro servizio, adatto anche alla sosta
    notturna; name=Parcheggio Il Poggiolo; power_supply=no;
    sanitary_dump_station=no; tourism=caravan_site;
    id=node/9060441610</desc>
  </wpt>
  <wpt lat="44.1824389" lon="10.6469297">
    <ele>927.0</ele>
    <name>node/9065813417</name>
    <desc>tourism=caravan_site; id=node/9065813417</desc>
  </wpt>
  <wpt lat="39.9294034" lon="15.7547402">
    <ele>2.0</ele>
    <name>Area Camper Riva Riva</name>
    <desc>addr:street=Loc, 85046 Castrocucco di Maratea PZ;
    name=Area Camper Riva Riva; phone=+39 377 347 2852;
    tourism=caravan_site; id=node/9077691088</desc>
  </wpt>
  <wpt lat="44.235717" lon="9.4757433">
    <ele>57.0</ele>
    <name>node/9079939717</name>
    <desc>tourism=caravan_site; id=node/9079939717</desc>
  </wpt>
  <wpt lat="44.0986867" lon="10.7545406">
    <ele>653.0</ele>
    <name>Area sosta Cutigliano</name>
    <desc>name=Area sosta Cutigliano; sanitary_dump_station=yes;
    tourism=caravan_site; id=node/9127387062</desc>
  </wpt>
  <wpt lat="44.4291744" lon="10.4000275">
    <ele>679.0</ele>
    <name>Area Camper Castelnovo ne Monti</name>
    <desc>addr:housenumber=11; addr:street=Via dei Partigiani;
    fee=no; name=Area Camper Castelnovo ne Monti; power_supply=no;
    sanitary_dump_station=yes; toilets=no; tourism=caravan_site;
    id=node/9181929853</desc>
  </wpt>
  <wpt lat="46.0959588" lon="11.0172685">
    <ele>571.0</ele>
    <name>node/9216577017</name>
    <desc>name:de=Covelo; tourism=caravan_site;
    id=node/9216577017</desc>
  </wpt>
  <wpt lat="44.1813491" lon="9.5842243">
    <ele>12.0</ele>
    <name>node/9216912137</name>
    <desc>access=yes; amenity=parking; drinking_water=yes; fee=yes;
    lit=yes; name:signed=no; opening_hours=24/7;
    parking=street_side; parking:orientation=parallel;
    power_supply=no; sanitary_dump_station=no; supervised=no;
    surface=asphalt; toilets=no; tourism=caravan_site;
    id=node/9216912137</desc>
  </wpt>
  <wpt lat="44.1804474" lon="9.5846897">
    <ele>7.0</ele>
    <name>node/9216912138</name>
    <desc>access=yes; amenity=parking; drinking_water=no; fee=yes;
    lit=yes; name:signed=no; opening_hours=24/7;
    parking=street_side; parking:orientation=parallel;
    power_supply=no; sanitary_dump_station=no; supervised=no;
    surface=asphalt; toilets=no; tourism=caravan_site;
    id=node/9216912138</desc>
  </wpt>
  <wpt lat="45.1571846" lon="8.0527918">
    <ele>164.0</ele>
    <name>node/9331403799</name>
    <desc>internet_access=wlan; tourism=caravan_site;
    id=node/9331403799</desc>
  </wpt>
  <wpt lat="44.9070022" lon="7.4281661">
    <ele>282.0</ele>
    <name>node/9343915270</name>
    <desc>tourism=caravan_site; id=node/9343915270</desc>
  </wpt>
  <wpt lat="44.9066653" lon="7.4294734">
    <ele>280.0</ele>
    <name>node/9343915278</name>
    <desc>name:signed=no; toilets=no; tourism=caravan_site;
    wheelchair=yes; id=node/9343915278</desc>
  </wpt>
  <wpt lat="40.5728485" lon="16.7608286">
    <ele>238.0</ele>
    <name>node/9352411695</name>
    <desc>fee=yes; power_supply=yes; sanitary_dump_station=yes;
    tourism=caravan_site; id=node/9352411695</desc>
  </wpt>
  <wpt lat="45.3693123" lon="7.277163">
    <ele>1064.0</ele>
    <name>node/9407810809</name>
    <desc>amenity=sanitary_dump_station; charge=5€/day; fee=yes;
    note=Una 20ina di piazzole con corrente. Senza corrente
    centinaia di posti. Si paga 5€ gg con app MyGroscavallo.;
    power_supply=yes; toilets=yes; tourism=caravan_site;
    water_point=yes; id=node/9407810809</desc>
  </wpt>
  <wpt lat="44.2124514" lon="11.4727673">
    <ele>484.0</ele>
    <name>node/9441735442</name>
    <desc>power_supply=yes; tourism=caravan_site;
    id=node/9441735442</desc>
  </wpt>
  <wpt lat="46.3813928" lon="11.6634576">
    <ele>1205.0</ele>
    <name>Area Camper Fantolin</name>
    <desc>name=Area Camper Fantolin; tourism=caravan_site;
    id=node/9460472474</desc>
  </wpt>
  <wpt lat="40.4844137" lon="16.1598722">
    <ele>816.0</ele>
    <name>Area camper Accettura</name>
    <desc>name=Area camper Accettura; power_supply=yes;
    sanitary_dump_station=yes; tourism=caravan_site;
    id=node/9477113587</desc>
  </wpt>
  <wpt lat="45.3651347" lon="7.3328898">
    <ele>887.0</ele>
    <name>node/9482845603</name>
    <desc>name:signed=no; tourism=caravan_site;
    id=node/9482845603</desc>
  </wpt>
  <wpt lat="43.6901836" lon="10.5831051">
    <ele>10.0</ele>
    <name>Area Camper Vicopisano</name>
    <desc>addr:city=Vicopisano; addr:postcode=56012;
    addr:street=Piazza Comunardo Ferrucci; internet_access=wlan;
    internet_access:fee=no; lit=yes; name=Area Camper Vicopisano;
    power_supply=no; sanitary_dump_station=yes; toilets=no;
    tourism=caravan_site;
    website=https://www.comune.vicopisano.pi.it/Servizi/Area-Camper-servizi-e-accesso#;
    id=way/1312473453; ; id=node/9552331708</desc>
    <link href="https://www.comune.vicopisano.pi.it/Servizi/Area-Camper-servizi-e-accesso#">
    </link>
  </wpt>
  <wpt lat="43.5266307" lon="10.6126969">
    <ele>139.0</ele>
    <name>node/9563286412</name>
    <desc>tourism=caravan_site; id=node/9563286412</desc>
  </wpt>
  <wpt lat="46.3112631" lon="11.6146751">
    <ele>1063.0</ele>
    <name>Area Camper Fiemme Predazzo</name>
    <desc>addr:city=Predazzo; addr:street=SS50; description=Area
    Attrezzata per camper. Circa 50 posti; name=Area Camper Fiemme
    Predazzo; opening_hours=24/7; surface=gravel;
    tourism=caravan_site; id=way/1044322552; ;
    capacity:caravans=50; internet_access=yes;
    internet_access:fee=yes; power_supply=yes;
    sanitary_dump_station=yes; id=node/9609477680</desc>
  </wpt>
  <wpt lat="37.5243521" lon="13.7294948">
    <ele>554.0</ele>
    <name>Aree di sosta camper a Sutera</name>
    <desc>fee=no; name=Aree di sosta camper a Sutera;
    permanent_camping=no; power_supply=no;
    sanitary_dump_station=yes; seasonal=no; tents=no; toilets=no;
    tourism=caravan_site; water_point=yes;
    id=node/9628716373</desc>
  </wpt>
  <wpt lat="39.6961502" lon="9.1238592">
    <ele>401.0</ele>
    <name>Area Attrezzata</name>
    <desc>capacity=5; name=Area Attrezzata; power_supply=yes;
    tourism=caravan_site; id=node/9666874390</desc>
  </wpt>
  <wpt lat="44.0327692" lon="10.0749366">
    <ele>2.0</ele>
    <name>Time Break</name>
    <desc>name=Time Break; opening_hours=Mo-Su
    08:00-12:30,15:00-22:00; tourism=caravan_site;
    id=node/9674487617</desc>
  </wpt>
  <wpt lat="44.1499017" lon="7.9090163">
    <ele>813.0</ele>
    <name>private</name>
    <desc>operator=private; tourism=caravan_site;
    id=node/9700023180</desc>
  </wpt>
  <wpt lat="41.2298004" lon="13.5001049">
    <ele>4.0</ele>
    <name>Quirino Area Sosta Camper</name>
    <desc>addr:city=Gaeta; addr:housenumber=Km 21.700;
    addr:postcode=04024; addr:street=Via Flacca; currency:XBT=yes;
    description=Area totalmente ombreggiata da una splendida
    pineta. Ambiente familiare e cordiale, personale sempre
    presente. Disponiamo di carico e scarico acque grigie e nere
    (riservato agli ospiti all'interno dell'area), allaccio
    elettrico in piazzola, bagni, lavatoi; dog=yes;
    drinking_water=yes; email=quirinoareasosta@gmail.com; fee=yes;
    internet_access=no; name=Quirino Area Sosta Camper;
    payment:cash=yes; payment:lightning=yes; payment:onchain=yes;
    phone=+39 328 373 6209,+39 339 385 6881; power_supply=yes;
    reservation=required; sanitary_dump_station=yes;
    survey:date=2025-08-12; toilets=yes; tourism=caravan_site;
    website=https://quirino-area-sosta-camper.business.site/;
    wheelchair=yes; id=node/9709882121</desc>
    <link href="https://quirino-area-sosta-camper.business.site/">
    </link>
  </wpt>
  <wpt lat="42.9508734" lon="10.6839369">
    <ele>1.0</ele>
    <name>Parcheggio Carbonifera</name>
    <desc>fee=yes; name=Parcheggio Carbonifera; power_supply=no;
    sanitary_dump_station=yes; tourism=caravan_site;
    id=node/9713622004</desc>
  </wpt>
  <wpt lat="43.3525024" lon="10.4510571">
    <ele>0.0</ele>
    <name>ASD Vada Camper parking</name>
    <desc>alt_name=Campo del Mare; fee=yes; name=ASD Vada Camper
    parking; opening_hours=Jun-Aug, Sep-May off;
    operator=Associazione Sportiva Vada; tourism=caravan_site;
    id=node/9733640757</desc>
  </wpt>
  <wpt lat="40.2005749" lon="8.5030703">
    <ele>252.0</ele>
    <name>La Rosa dei venti</name>
    <desc>name=La Rosa dei venti; tourism=caravan_site;
    id=node/9740842717</desc>
  </wpt>
  <wpt lat="39.9116525" lon="15.920276">
    <ele>184.0</ele>
    <name>node/9766710717</name>
    <desc>tourism=caravan_site; id=node/9766710717</desc>
  </wpt>
  <wpt lat="44.3065413" lon="9.9941052">
    <ele>326.0</ele>
    <name>Azienda Agricola del Lupo</name>
    <desc>addr:housenumber=8; addr:postcode=54021;
    addr:street=Località Pagazzana; name=Azienda Agricola del Lupo;
    tourism=caravan_site; id=node/9774175017</desc>
  </wpt>
  <wpt lat="36.9160767" lon="15.1510477">
    <ele>13.0</ele>
    <name>Tremoli Parking</name>
    <desc>name=Tremoli Parking; tourism=caravan_site;
    id=node/9775626901</desc>
  </wpt>
  <wpt lat="45.8072028" lon="10.0504051">
    <ele>309.0</ele>
    <name>Pianico</name>
    <desc>capacity:caravans=4; fee=no; internet_access=no;
    name=Pianico; power_supply=yes; sanitary_dump_station=no;
    tourism=caravan_site; wheelchair=yes; id=node/9777314743; ;
    id=way/1313762094</desc>
  </wpt>
  <wpt lat="41.4110693" lon="12.8604479">
    <ele>-1.0</ele>
    <name>Area camper Alta Marea</name>
    <desc>name=Area camper Alta Marea; tourism=caravan_site;
    id=node/9833636175</desc>
  </wpt>
  <wpt lat="45.9701333" lon="7.9537026">
    <ele>1369.0</ele>
    <name>node/9890599128</name>
    <desc>tourism=caravan_site; id=node/9890599128</desc>
  </wpt>
  <wpt lat="40.3405126" lon="14.987694">
    <ele>21.0</ele>
    <name>Trentova Camping Park</name>
    <desc>addr:city=Agropoli; addr:housenumber=8;
    addr:postcode=84043; addr:street=Via Belvedere;
    description=Orario check-out: 11:00; fee=yes;
    internet_access=wlan; internet_access:fee=customers;
    name=Trentova Camping Park; phone=+39 3393101925;
    power_supply=yes; reservation=recommended;
    sanitary_dump_station=yes; tourism=caravan_site;
    website=https://www.trentovacampingpark.it/; wheelchair=yes;
    id=node/9893020593</desc>
    <link href="https://www.trentovacampingpark.it/"></link>
  </wpt>
  <wpt lat="42.8552634" lon="10.4233824">
    <ele>38.0</ele>
    <name>node/9915363882</name>
    <desc>tourism=caravan_site; id=node/9915363882</desc>
  </wpt>
  <wpt lat="42.3289969" lon="11.5853837">
    <ele>2.0</ele>
    <name>node/10002208411</name>
    <desc>fee=yes; internet_access=no; power_supply=no;
    sanitary_dump_station=no; tourism=caravan_site;
    id=node/10002208411</desc>
  </wpt>
  <wpt lat="46.6410135" lon="11.6916481">
    <ele>1139.0</ele>
    <name>node/10013108559</name>
    <desc>sanitary_dump_station=yes; tourism=caravan_site;
    id=node/10013108559</desc>
  </wpt>
  <wpt lat="46.6409147" lon="10.8977067">
    <ele>1469.0</ele>
    <name>Ob Kastellbell</name>
    <desc>name=Ob Kastellbell; name:de=Ob Kastellbell;
    tourism=caravan_site; id=node/10020912317</desc>
  </wpt>
  <wpt lat="46.6316074" lon="11.8547269">
    <ele>1496.0</ele>
    <name>San Martino in Badia</name>
    <desc>name=San Martino in Badia; tourism=caravan_site;
    id=node/10024491217</desc>
  </wpt>
  <wpt lat="46.5438723" lon="11.2079606">
    <ele>280.0</ele>
    <name>node/10027578838</name>
    <desc>tourism=caravan_site; id=node/10027578838</desc>
  </wpt>
  <wpt lat="40.1530431" lon="9.5106116">
    <ele>1007.0</ele>
    <name>Camping Silana</name>
    <desc>fee=yes; internet_access=no; operator=Camping Silana;
    permanent_camping=no; power_supply=yes;
    sanitary_dump_station=yes; toilets=yes; tourism=caravan_site;
    id=node/10087329635</desc>
  </wpt>
  <wpt lat="37.9339146" lon="13.6611074">
    <ele>475.0</ele>
    <name>Area Sosta Camper Caccamo</name>
    <desc>addr:city=Caccamo; addr:street=Via Termitana;
    capacity=10; description=AREA DI SOSTA COMUNALE CON ACQUA E
    SCARICO; fee=no; name=Area Sosta Camper Caccamo;
    operator=PUBBLICO; power_supply=no; sanitary_dump_station=yes;
    tourism=caravan_site; id=node/10185888634</desc>
  </wpt>
  <wpt lat="44.5242535" lon="11.3327924">
    <ele>35.0</ele>
    <name>Bottega del campeggiatore</name>
    <desc>addr:city=Bologna; addr:housenumber=157;
    addr:postcode=40131; addr:street=Via della Beverara;
    name=Bottega del campeggiatore; operator=Bottega del
    campeggiatore; phone=+39 051 6341504;
    ref:corine_land_cover=1212; sanitary_dump_station=yes;
    tourism=caravan_site;
    website=https://www.bottegacampeggiatore.com/area-di-sosta.php;
    id=way/265893603; ; email=info@camperopoli.it; name=Camperopoli
    Area di Sosta Camper; phone=+39051641504;
    website=https://www.camperopoli.it/; id=node/10300285509</desc>
    <link href="https://www.bottegacampeggiatore.com/area-di-sosta.php">
    </link>
  </wpt>
  <wpt lat="41.0949453" lon="14.3710164">
    <ele>376.0</ele>
    <name>http://www.oasisanrocco.it</name>
    <desc>addr:housenumber=2; addr:postcode=81100; addr:street=Via
    G. Rossetti; email=info@oasisanrocco.it; name:es=Área de
    autocaravanas Oasi San Rocco; opening_hours=24/7; phone=+39
    0823371290; tourism=caravan_site;
    website=http://www.oasisanrocco.it; id=node/10315117378</desc>
    <link href="http://www.oasisanrocco.it"></link>
  </wpt>
  <wpt lat="44.0750315" lon="12.5687767">
    <ele>0.0</ele>
    <name>Marina di Rimini</name>
    <desc>addr:housenumber=80; addr:postcode=47900;
    addr:street=Viale Ortigara; email=info@marinadirimini.com;
    internet_access=wlan; name=Marina di Rimini;
    opening_hours=24/7; phone=+39054129488; tourism=caravan_site;
    website=https://marinadirimini.com/; id=node/10381464909</desc>
    <link href="https://marinadirimini.com/"></link>
  </wpt>
  <wpt lat="45.7055688" lon="10.1098904">
    <ele>194.0</ele>
    <name>Centro camper Sebino</name>
    <desc>name=Centro camper Sebino; tourism=caravan_site;
    id=node/10572937609</desc>
  </wpt>
  <wpt lat="37.8769526" lon="15.1773709">
    <ele>190.0</ele>
    <name>Agripark</name>
    <desc>name=Agripark; tourism=caravan_site;
    id=node/10737752515</desc>
  </wpt>
  <wpt lat="45.0074916" lon="8.2586977">
    <ele>255.0</ele>
    <name>node/10777574641</name>
    <desc>tourism=caravan_site; id=node/10777574641</desc>
  </wpt>
  <wpt lat="45.4679454" lon="10.7500476">
    <ele>111.0</ele>
    <name>Parking Parco Termale</name>
    <desc>charge=7.50 EUR/5h; drinking_water=yes; fee=yes;
    name=Parking Parco Termale; power_supply=yes;
    sanitary_dump_station=yes; tourism=caravan_site;
    id=node/10788116854</desc>
  </wpt>
  <wpt lat="37.0998683" lon="13.941692">
    <ele>8.0</ele>
    <name>node/10789969647</name>
    <desc>tourism=caravan_site; id=node/10789969647</desc>
  </wpt>
  <wpt lat="37.9827964" lon="12.5308098">
    <ele>6.0</ele>
    <name>L’hotel Le Saline</name>
    <desc>bar=yes; laundry=yes; name=L’hotel Le Saline;
    power_supply=yes; sanitary_dump_station=yes; shower=yes;
    toilets=yes; tourism=caravan_site; water_point=yes;
    website=https://www.lesalinehotel.com/area-di-sosta-camper/;
    id=node/10790471322</desc>
    <link href="https://www.lesalinehotel.com/area-di-sosta-camper/">
    </link>
  </wpt>
  <wpt lat="37.7031385" lon="12.9390889">
    <ele>60.0</ele>
    <name>Terme Acqua Pia</name>
    <desc>name=Terme Acqua Pia; tourism=caravan_site;
    website=https://www.termeacquapia.it/servizi/area-camper/;
    id=node/10795116280</desc>
    <link href="https://www.termeacquapia.it/servizi/area-camper/">
    </link>
  </wpt>
  <wpt lat="45.7557064" lon="10.5846196">
    <ele>982.0</ele>
    <name>San Rocco</name>
    <desc>name=San Rocco; tourism=caravan_site;
    id=node/10826423005</desc>
  </wpt>
  <wpt lat="40.7374471" lon="17.7419399">
    <ele>1.0</ele>
    <name>node/10831509605</name>
    <desc>name:de=Parkplatz; tourism=caravan_site;
    id=node/10831509605</desc>
  </wpt>
  <wpt lat="40.0679972" lon="18.47983">
    <ele>67.0</ele>
    <name>node/10833541505</name>
    <desc>name:de=Parkplatz; tourism=caravan_site;
    id=node/10833541505</desc>
  </wpt>
  <wpt lat="40.1328886" lon="18.489253">
    <ele>30.0</ele>
    <name>Torre Pinta</name>
    <desc>name=Torre Pinta; tourism=caravan_site;
    id=node/10839410172</desc>
  </wpt>
  <wpt lat="38.4036713" lon="15.8670685">
    <ele>1.0</ele>
    <name>node/10848411905</name>
    <desc>name:de=Parkplatz; tourism=caravan_site;
    id=node/10848411905</desc>
  </wpt>
  <wpt lat="46.4734059" lon="11.3270236">
    <ele>242.0</ele>
    <name>node/10853044805</name>
    <desc>opening_hours=24/7; tourism=caravan_site;
    id=node/10853044805</desc>
  </wpt>
  <wpt lat="46.4776824" lon="11.3265397">
    <ele>246.0</ele>
    <name>node/10853044808</name>
    <desc>description:es=Punto de Servicios para Autocaravanas;
    opening_hours=24/7; tourism=caravan_site;
    id=node/10853044808</desc>
  </wpt>
  <wpt lat="45.1249584" lon="8.3981086">
    <ele>174.0</ele>
    <name>Agricampeggio dal Barbalando</name>
    <desc>addr:city=Casale Monferrato; addr:housenumber=135;
    addr:place=Località Regina; addr:postcode=15033;
    contact:email=info@barbalando.it; contact:phone=+39 0142
    408241; contact:website=https://www.barbalando.it/;
    name=Agricampeggio dal Barbalando; ref:vatin=IT01764830061;
    tourism=caravan_site; id=node/10863747559</desc>
    <link href="https://www.barbalando.it/"></link>
  </wpt>
  <wpt lat="37.8027694" lon="15.2510316">
    <ele>11.0</ele>
    <name>node/10875149705</name>
    <desc>name:de=Parkplatz; tourism=caravan_site;
    id=node/10875149705</desc>
  </wpt>
  <wpt lat="45.5166307" lon="10.2343741">
    <ele>119.0</ele>
    <name>Area sosta camper Brescia</name>
    <desc>addr:city=Brescia; name=Area sosta camper Brescia;
    power_supply=yes; sanitary_dump_station=yes;
    tourism=caravan_site; id=node/10875842485</desc>
  </wpt>
  <wpt lat="42.9042582" lon="12.3370832">
    <ele>206.0</ele>
    <name>node/10881243297</name>
    <desc>tourism=caravan_site; id=node/10881243297</desc>
  </wpt>