<?xml version="1.0" encoding="utf-8"?>
<gpx xmlns="http://www.topografix.com/GPX/1/1"
xmlns:xsi="http://www.w3.org/2001/XMLSchema-instance"
xsi:schemaLocation="http://www.topografix.com/GPX/1/1 http://www.topografix.com/GPX/1/1/gpx.xsd"
version="1.1" creator="togpx">
  <metadata>
    <copyright>
      <license>"osm3s": { "timestamp_osm_base":
      "2025-10-01T10:17:00Z", "timestamp_areas_base":
      "2025-10-01T03:35:03Z", "copyright": "The data included in
      this document is from www.openstreetmap.org. The data is made
      available under ODbL." } // SRTM: { Elevation data missing in
      OSM was added by the NASA Shuttle Radar Topography Mission as
      public release version, if available there. } // { Check for
      latest version of this file on:
      https://github.com/GpxFeed/campgrounds }</license>
    </copyright>
  </metadata>
  <wpt lat="57.1368791" lon="24.3344639">
    <ele>16.0</ele>
    <name>Kempings „Dzirnezers K”</name>
    <desc>email=dzirnkalns@inbox.lv; name=Kempings „Dzirnezers K”;
    phone=+371 67700343; tourism=camp_site; id=node/26860116</desc>
  </wpt>
  <wpt lat="56.406669" lon="20.995827">
    <ele>11.0</ele>
    <name>Gaili</name>
    <desc>name=Gaili; tourism=camp_site; id=node/26860118</desc>
  </wpt>
  <wpt lat="56.641944" lon="22.566111">
    <ele>104.0</ele>
    <name>Radi</name>
    <desc>name=Radi; tourism=camp_site;
    website=https://www.radi.lv/; id=node/26860126</desc>
    <link href="https://www.radi.lv/"></link>
  </wpt>
  <wpt lat="57.352222" lon="25.087222">
    <ele>73.0</ele>
    <name>Ungurs</name>
    <desc>name=Ungurs; tourism=camp_site; id=node/26860130</desc>
  </wpt>
  <wpt lat="57.4921865" lon="21.6594252">
    <ele>18.0</ele>
    <name>Jēņi</name>
    <desc>email=camping_jeni@inbox.lv; internet_access=wlan;
    name=Jēņi; tourism=camp_site;
    website=https://www.campingjeni.lv/; id=node/61084309</desc>
    <link href="https://www.campingjeni.lv/"></link>
  </wpt>
  <wpt lat="57.5837166" lon="22.6306461">
    <ele>17.0</ele>
    <name>Pūrciems</name>
    <desc>name=Pūrciems; tourism=camp_site;
    id=node/281140175</desc>
  </wpt>
  <wpt lat="57.5416589" lon="22.7087201">
    <ele>11.0</ele>
    <name>node/281140350</name>
    <desc>tourism=camp_site; id=node/281140350</desc>
  </wpt>
  <wpt lat="55.912228" lon="26.7975871">
    <ele>104.0</ele>
    <name>Ozianna</name>
    <desc>name=Ozianna; phone=+37129182474; tourism=camp_site;
    website=https://www.piedaugavas.lv/; id=node/460022654</desc>
    <link href="https://www.piedaugavas.lv/"></link>
  </wpt>
  <wpt lat="57.150461" lon="24.761282">
    <ele>19.0</ele>
    <name>Lielais Akmens</name>
    <desc>backcountry=yes; caravans=no; fee=no; name=Lielais
    Akmens; openfire=yes; picnic_table=yes; tents=yes; toilets=yes;
    tourism=camp_site; id=node/474412709</desc>
  </wpt>
  <wpt lat="57.3673526" lon="24.4041641">
    <ele>10.0</ele>
    <name>Lauču akmens</name>
    <desc>name=Lauču akmens; phone=+371 26 350 536;
    tourism=camp_site; website=https://lv.laucuakmens.lv/;
    id=node/805113446</desc>
    <link href="https://lv.laucuakmens.lv/"></link>
  </wpt>
  <wpt lat="57.1784923" lon="24.8511756">
    <ele>27.0</ele>
    <name>Dainas</name>
    <desc>cabins=yes; caravans=yes; name=Dainas; shower=yes;
    tents=yes; toilets=yes; tourism=camp_site;
    id=node/840521721</desc>
  </wpt>
  <wpt lat="56.1072227" lon="27.025932">
    <ele>157.0</ele>
    <name>Aglonas Alpi</name>
    <desc>cabins=yes; caravans=yes; email=aglonasalpi@gmail.com;
    motorhome=yes; name=Aglonas Alpi; phone=+371 29194362,+371
    29275701; shower=yes; tents=yes; toilets=yes;
    tourism=camp_site; website=https://www.aglonasalpi.lv/;
    id=node/850015888</desc>
    <link href="https://www.aglonasalpi.lv/"></link>
  </wpt>
  <wpt lat="56.1055433" lon="27.0229616">
    <ele>143.0</ele>
    <name>Varavas</name>
    <desc>name=Varavas; note=Is this part of Aglonas Alpi or a
    seperate camping?; phone=+371 20 075 225; tourism=camp_site;
    id=node/850015966</desc>
  </wpt>
  <wpt lat="57.2409581" lon="22.2003194">
    <ele>28.0</ele>
    <name>Brekši</name>
    <desc>name=Brekši; tourism=camp_site; id=node/883069828</desc>
  </wpt>
  <wpt lat="56.6287053" lon="23.014314">
    <ele>88.0</ele>
    <name>node/1296803975</name>
    <desc>tourism=camp_site; id=node/1296803975</desc>
  </wpt>
  <wpt lat="56.5636894" lon="24.1678082">
    <ele>24.0</ele>
    <name>Labirinti</name>
    <desc>access=customers; capacity=50; caravans=yes;
    changing_table=no; drinking_water=yes; email=info@labirinti.lv;
    internet_access=wlan; name=Labirinti; operator=Labirinti;
    phone=+37126320336; power_supply=yes; shower=yes; tents=yes;
    toilets=yes; toilets:access=customers; toilets:fee=no;
    toilets:handwashing=yes; toilets:paper_supplied=yes;
    toilets:position=seated; toilets:wheelchair=no;
    tourism=camp_site; website=https://www.labirinti.lv/;
    wheelchair=no; id=node/1325567240</desc>
    <link href="https://www.labirinti.lv/"></link>
  </wpt>
  <wpt lat="57.9230317" lon="24.9720355">
    <ele>44.0</ele>
    <name>Puņmutes</name>
    <desc>internet_access=no; name=Puņmutes; phone=+37126477024;
    tourism=camp_site; id=node/1338628906</desc>
  </wpt>
  <wpt lat="57.8806185" lon="24.8037984">
    <ele>45.0</ele>
    <name>Virši</name>
    <desc>internet_access=no; name=Virši; phone=+37126859427;
    tourism=camp_site; id=node/1339058313</desc>
  </wpt>
  <wpt lat="57.4175668" lon="24.9176704">
    <ele>62.0</ele>
    <name>Ruckas ezers</name>
    <desc>name=Ruckas ezers; tourism=camp_site;
    id=node/1340400984</desc>
  </wpt>
  <wpt lat="57.2794518" lon="25.1362124">
    <ele>31.0</ele>
    <name>Briedīši</name>
    <desc>internet_access=no; name=Briedīši; tourism=camp_site;
    id=node/1382858640</desc>
  </wpt>
  <wpt lat="56.547135" lon="27.5881528">
    <ele>136.0</ele>
    <name>node/1414372042</name>
    <desc>tourism=camp_site; id=node/1414372042</desc>
  </wpt>
  <wpt lat="57.2515582" lon="25.0181575">
    <ele>29.0</ele>
    <name>Katrīnas</name>
    <desc>backcountry=yes; caravans=no; name=Katrīnas;
    picnic_table=yes; shower=no; tents=yes; toilets=yes;
    tourism=camp_site; id=node/1444617193</desc>
  </wpt>
  <wpt lat="56.3855026" lon="20.9889486">
    <ele>4.0</ele>
    <name>Chill Inn</name>
    <desc>internet_access=wlan; internet_access:fee=no;
    operator=Chill Inn; tourism=camp_site;
    id=node/1453551902</desc>
  </wpt>
  <wpt lat="56.99162" lon="23.1371784">
    <ele>86.0</ele>
    <name>Vāgnera</name>
    <desc>name=Vāgnera; tourism=camp_site;
    id=node/1455293013</desc>
  </wpt>
  <wpt lat="56.64609" lon="22.5648839">
    <ele>101.0</ele>
    <name>Zvejnieki</name>
    <desc>name=Zvejnieki; tourism=camp_site;
    id=node/1545062016</desc>
  </wpt>
  <wpt lat="56.8928065" lon="21.1860732">
    <ele>4.0</ele>
    <name>Pāvilostas telšu laukums</name>
    <desc>fee=no; name=Pāvilostas telšu laukums; tourism=camp_site;
    id=node/1702486163</desc>
  </wpt>
  <wpt lat="57.3571659" lon="25.2375035">
    <ele>33.0</ele>
    <name>Lenči</name>
    <desc>name=Lenči; tourism=camp_site; id=node/1740462411</desc>
  </wpt>
  <wpt lat="57.2806941" lon="25.1921064">
    <ele>34.0</ele>
    <name>Kvēpene</name>
    <desc>caravans=yes; drinking_water=no; name=Kvēpene;
    power_supply=no; sanitary_dump_station=no; shower=no;
    tents=yes; toilets=yes; tourism=camp_site;
    id=node/1770620653</desc>
  </wpt>
  <wpt lat="56.8114963" lon="24.5620542">
    <ele>23.0</ele>
    <name>Sniedzes</name>
    <desc>name=Sniedzes; tourism=camp_site;
    id=node/1827183749</desc>
  </wpt>
  <wpt lat="56.6012018" lon="21.1302882">
    <ele>17.0</ele>
    <name>Lauras</name>
    <desc>name=Lauras; tourism=camp_site; id=node/1879987050</desc>
  </wpt>
  <wpt lat="56.9954547" lon="23.5203609">
    <ele>5.0</ele>
    <name>node/1893779073</name>
    <desc>tourism=camp_site; id=node/1893779073</desc>
  </wpt>
  <wpt lat="56.9879219" lon="23.536193">
    <ele>6.0</ele>
    <name>node/1909174583</name>
    <desc>phone=+371 28700104; tourism=camp_site;
    id=node/1909174583</desc>
  </wpt>
  <wpt lat="56.9673572" lon="23.7582078">
    <ele>8.0</ele>
    <name>Jūrmala</name>
    <desc>backcountry=no; caravans=yes; drinking_water=yes;
    name=Jūrmala; phone=+371 27336642; reservation=yes;
    sanitary_dump_station=yes; tents=yes; tourism=camp_site;
    website=http://www.campingdubulti.lv/;
    id=node/1910767593</desc>
    <link href="http://www.campingdubulti.lv/"></link>
  </wpt>
  <wpt lat="56.3120463" lon="24.3439494">
    <ele>29.0</ele>
    <name>node/1925125232</name>
    <desc>tourism=camp_site; id=node/1925125232</desc>
  </wpt>
  <wpt lat="56.995297" lon="23.1345523">
    <ele>87.0</ele>
    <name>node/1932185211</name>
    <desc>tourism=camp_site; id=node/1932185211</desc>
  </wpt>
  <wpt lat="57.5470097" lon="25.4902189">
    <ele>36.0</ele>
    <name>Jaunarāji</name>
    <desc>name=Jaunarāji; source=LĢIA Vietvārdu DB;
    tourism=camp_site; id=node/2073559288</desc>
  </wpt>
  <wpt lat="57.7866967" lon="24.3490396">
    <ele>1.0</ele>
    <name>Kapteiņu osta</name>
    <desc>name=Kapteiņu osta; phone=+371 293 90312;
    tourism=camp_site; website=https://www.kapteinuosta.lv/;
    id=node/2164981806; ; id=way/1394567722</desc>
    <link href="https://www.kapteinuosta.lv/"></link>
  </wpt>
  <wpt lat="57.3065914" lon="25.2213049">
    <ele>26.0</ele>
    <name>Camping Žagarkalns</name>
    <desc>capacity=50; caravans=yes; internet_access=yes;
    internet_access:fee=no; name=Camping Žagarkalns; nobrand=yes;
    panoramax=04609867-cab9-4296-b91c-4111f9ab040f;
    panoramax:0=d1a67a8d-5c03-4085-9fcf-cf86fd2fd472; tents=yes;
    tourism=camp_site; website=https://www.zagarkalns.lv/;
    id=node/2164993610</desc>
    <link href="https://www.zagarkalns.lv/"></link>
  </wpt>
  <wpt lat="56.7981536" lon="23.259808">
    <ele>42.0</ele>
    <name>JAUNMEDŅI</name>
    <desc>name=JAUNMEDŅI; tourism=camp_site;
    id=node/2206922914</desc>
  </wpt>
  <wpt lat="56.8475351" lon="24.2205445">
    <ele>0.0</ele>
    <name>Susurmuiža</name>
    <desc>name=Susurmuiža; tourism=camp_site;
    id=node/2311466342</desc>
  </wpt>
  <wpt lat="56.1669924" lon="27.6525953">
    <ele>171.0</ele>
    <name>Sauleskrasti</name>
    <desc>internet_access=no; name=Sauleskrasti; phone=+371 27 775
    019; smoking=yes; tourism=camp_site; id=node/2320358963</desc>
  </wpt>
  <wpt lat="56.3276728" lon="27.5111307">
    <ele>170.0</ele>
    <name>node/2320365675</name>
    <desc>phone=+371 26585735, +371 26409809; tourism=camp_site;
    id=node/2320365675</desc>
  </wpt>
  <wpt lat="57.022819" lon="22.654084">
    <ele>40.0</ele>
    <name>Plosti</name>
    <desc>name=Plosti; tourism=camp_site; website=plosti.lv;
    id=node/2338878379</desc>
    <link href="plosti.lv"></link>
  </wpt>
  <wpt lat="57.2961491" lon="25.2144273">
    <ele>32.0</ele>
    <name>Ozolkalns</name>
    <desc>name=Ozolkalns; tourism=camp_site;
    id=node/2356955267</desc>
  </wpt>
  <wpt lat="56.5107252" lon="21.8185322">
    <ele>101.0</ele>
    <name>Embūtes pilskalns</name>
    <desc>access=yes; name=Embūtes pilskalns; tourism=camp_site;
    id=node/2360432204</desc>
  </wpt>
  <wpt lat="56.3866532" lon="20.9874487">
    <ele>4.0</ele>
    <name>Atmatas</name>
    <desc>name=Atmatas; tourism=camp_site;
    id=node/2370272909</desc>
  </wpt>
  <wpt lat="56.6803511" lon="26.21098">
    <ele>117.0</ele>
    <name>node/2401828113</name>
    <desc>tourism=camp_site; id=node/2401828113</desc>
  </wpt>
  <wpt lat="56.8116662" lon="26.56584">
    <ele>106.0</ele>
    <name>node/2401841059</name>
    <desc>tourism=camp_site; id=node/2401841059</desc>
  </wpt>
  <wpt lat="57.4601343" lon="25.3925938">
    <ele>38.0</ele>
    <name>Sapa</name>
    <desc>name=Sapa; opening_hours=24/7; tents=yes;
    tourism=camp_site; id=node/2405449871</desc>
  </wpt>
  <wpt lat="57.3676386" lon="25.3637624">
    <ele>35.0</ele>
    <name>Rauna</name>
    <desc>name=Rauna; tourism=camp_site; id=node/2405449917</desc>
  </wpt>
  <wpt lat="57.3610203" lon="25.3053785">
    <ele>33.0</ele>
    <name>Jāņarāmis</name>
    <desc>access=yes; backcountry=yes; check_date=2025-07-18;
    drinking_water=no; fee=no; internet_access=no; name=Jāņarāmis;
    opening_hours=24/7; power_supply=no; shower=no; tents=yes;
    toilets=yes; tourism=camp_site; id=node/2405449946</desc>
  </wpt>
  <wpt lat="57.3673462" lon="25.2782912">
    <ele>36.0</ele>
    <name>Príedulājs</name>
    <desc>name=Príedulājs; tourism=camp_site;
    id=node/2405449987</desc>
  </wpt>
  <wpt lat="57.3327907" lon="25.220388">
    <ele>35.0</ele>
    <name>Lenčupe</name>
    <desc>name=Lenčupe; tourism=camp_site;
    id=node/2405450086</desc>
  </wpt>
  <wpt lat="57.8529906" lon="24.5163817">
    <ele>34.0</ele>
    <name>Selgas</name>
    <desc>name=Selgas; tourism=camp_site; id=node/2593142771</desc>
  </wpt>
  <wpt lat="56.3794789" lon="23.2093373">
    <ele>70.0</ele>
    <name>node/2601720827</name>
    <desc>name:signed=no; tourism=camp_site;
    id=node/2601720827</desc>
  </wpt>
  <wpt lat="57.7327152" lon="25.2929202">
    <ele>46.0</ele>
    <name>Ezerpriedes</name>
    <desc>name=Ezerpriedes; tourism=camp_site;
    id=node/2659207810</desc>
  </wpt>
  <wpt lat="57.7266117" lon="22.458216">
    <ele>13.0</ele>
    <name>Purvziedi</name>
    <desc>name=Purvziedi; phone=+371 22 453 946; tourism=camp_site;
    website=https://viesunamiem.lv/purvziedi;
    id=node/2942047523</desc>
    <link href="https://viesunamiem.lv/purvziedi"></link>
  </wpt>
  <wpt lat="57.4426129" lon="27.0506867">
    <ele>193.0</ele>
    <name>Jaunsētas Alūksne</name>
    <desc>name=Jaunsētas Alūksne; tourism=camp_site;
    id=node/2971175941</desc>
  </wpt>
  <wpt lat="57.2475891" lon="22.1278192">
    <ele>36.0</ele>
    <name>Lakši</name>
    <desc>name=Lakši; tourism=camp_site; id=node/2973279341</desc>
  </wpt>
  <wpt lat="57.5176393" lon="21.8863135">
    <ele>12.0</ele>
    <name>Rindas skola</name>
    <desc>fee=yes; name=Rindas skola; payment:cash=yes;
    tourism=camp_site; id=node/2997256890</desc>
  </wpt>
  <wpt lat="57.2467078" lon="24.9611454">
    <ele>21.0</ele>
    <name>node/3556040080</name>
    <desc>tourism=camp_site; id=node/3556040080</desc>
  </wpt>
  <wpt lat="57.2163524" lon="24.9024124">
    <ele>20.0</ele>
    <name>Bērzi</name>
    <desc>backcountry=yes; caravans=no; fee=no; name=Bērzi;
    openfire=yes; picnic_table=yes; tents=yes; tourism=camp_site;
    id=node/3556043505</desc>
  </wpt>
  <wpt lat="57.2617789" lon="25.1382508">
    <ele>44.0</ele>
    <name>Pie Amatas</name>
    <desc>access=yes; caravans=no; description:lv=ūdenstūristu
    apmetne; drinking_water=no; fee=no; name=Pie Amatas;
    power_supply=no; shower=no; static_caravans=no; tents=yes;
    toilets=yes; tourism=camp_site; id=node/3556231253</desc>
  </wpt>
  <wpt lat="57.1367307" lon="24.3086233">
    <ele>2.0</ele>
    <name>Atpūtas bāze „Dzirnkalns”</name>
    <desc>email=dzirnkalns@inbox.lv; name=Atpūtas bāze
    „Dzirnkalns”; phone=+371 29234937; tourism=camp_site;
    id=node/3600660668</desc>
  </wpt>
  <wpt lat="57.4232715" lon="25.9619956">
    <ele>135.0</ele>
    <name>Atpūtas vieta pie Spiciera ezera</name>
    <desc>fee=no; name=Atpūtas vieta pie Spiciera ezera;
    operator=LVM; source=https://www.lvmgeo.lv/dati Tūrisma vietas;
    tourism=camp_site; id=node/3617543490</desc>
  </wpt>
  <wpt lat="57.4144096" lon="25.9078095">
    <ele>148.0</ele>
    <name>Atpūtas vieta pie Klievezera</name>
    <desc>fee=no; name=Atpūtas vieta pie Klievezera; operator=LVM;
    source=https://www.lvmgeo.lv/dati Tūrisma vietas;
    tourism=camp_site; id=node/3617547622</desc>
  </wpt>
  <wpt lat="57.7790026" lon="24.3526108">
    <ele>11.0</ele>
    <name>Milleri</name>
    <desc>access=yes; caravans=yes; fee=yes; internet_access=wlan;
    name=Milleri; tents=yes; tourism=camp_site;
    id=node/3620794620</desc>
  </wpt>
  <wpt lat="56.4404589" lon="24.0451038">
    <ele>22.0</ele>
    <name>node/3627437078</name>
    <desc>internet_access=no; sanitary_dump_station=no;
    tourism=camp_site; id=node/3627437078</desc>
  </wpt>
  <wpt lat="57.2785899" lon="27.6134277">
    <ele>116.0</ele>
    <name>LVM atpūtas vieta "Pie dīķa"</name>
    <desc>name=LVM atpūtas vieta "Pie dīķa"; operator=LVM;
    source=https://www.lvmgeo.lv/dati Tūrisma vietas;
    tourism=camp_site; id=node/3657970395</desc>
  </wpt>
  <wpt lat="57.0095809" lon="21.979453">
    <ele>18.0</ele>
    <name>node/3661438169</name>
    <desc>tourism=camp_site; id=node/3661438169</desc>
  </wpt>
  <wpt lat="56.1647493" lon="21.0236882">
    <ele>-1.0</ele>
    <name>node/3701796288</name>
    <desc>description=nicht sehr freundlich zu Touristen/not very
    tourist friendly; tourism=camp_site; id=node/3701796288</desc>
  </wpt>
  <wpt lat="56.1929753" lon="21.0832286">
    <ele>1.0</ele>
    <name>node/3702822369</name>
    <desc>tourism=camp_site; id=node/3702822369</desc>
  </wpt>
  <wpt lat="57.3082681" lon="25.1661153">
    <ele>60.0</ele>
    <name>node/3708439289</name>
    <desc>tourism=camp_site; id=node/3708439289</desc>
  </wpt>
  <wpt lat="56.6071065" lon="25.4996421">
    <ele>77.0</ele>
    <name>node/3709073870</name>
    <desc>tourism=camp_site; id=node/3709073870</desc>
  </wpt>
  <wpt lat="56.9860889" lon="23.0836989">
    <ele>103.0</ele>
    <name>node/3733128045</name>
    <desc>tourism=camp_site; id=node/3733128045</desc>
  </wpt>
  <wpt lat="56.4834054" lon="25.0164027">
    <ele>78.0</ele>
    <name>Atpūtas vieta "Magoņu krusts"</name>
    <desc>fee=no; name=Atpūtas vieta "Magoņu krusts"; operator=LVM;
    source=https://www.lvmgeo.lv/dati Tūrisma vietas;
    tourism=camp_site; id=node/3902595867</desc>
  </wpt>
  <wpt lat="57.0746708" lon="21.813302">
    <ele>17.0</ele>
    <name>Camping Nabite</name>
    <desc>name=Camping Nabite; tourism=camp_site;
    id=node/4080308764</desc>
  </wpt>
  <wpt lat="57.671303" lon="26.0093194">
    <ele>56.0</ele>
    <name>Atpūtas vieta pie Gaujas "Plostu sienamā vieta"</name>
    <desc>fee=no; name=Atpūtas vieta pie Gaujas "Plostu sienamā
    vieta"; operator=LVM; source=https://www.lvmgeo.lv/dati Tūrisma
    vietas; tourism=camp_site; id=node/4081402184</desc>
  </wpt>
  <wpt lat="57.2857016" lon="24.8937507">
    <ele>66.0</ele>
    <name>Atpūtas vietas pie Pīļezera</name>
    <desc>name=Atpūtas vietas pie Pīļezera; operator=LVM;
    source=https://www.lvmgeo.lv/dati Tūrisma vietas;
    tourism=camp_site; id=node/4081402300</desc>
  </wpt>
  <wpt lat="57.2865105" lon="24.8910951">
    <ele>68.0</ele>
    <name>node/4081402301</name>
    <desc>tourism=camp_site; id=node/4081402301</desc>
  </wpt>
  <wpt lat="56.4019897" lon="26.2222325">
    <ele>108.0</ele>
    <name>LVM</name>
    <desc>operator=LVM; tourism=camp_site;
    id=node/4187245829</desc>
  </wpt>
  <wpt lat="56.4186203" lon="25.9345656">
    <ele>104.0</ele>
    <name>Atpūtas vieta "Piļkas"</name>
    <desc>name=Atpūtas vieta "Piļkas"; operator=LVM;
    source=https://www.lvmgeo.lv/dati Tūrisma vietas;
    tourism=camp_site; id=node/4187344339</desc>
  </wpt>
  <wpt lat="57.3923346" lon="26.4300248">
    <ele>85.0</ele>
    <name>Atpūtas vietas pie Tirziņas ietekas Gaujā</name>
    <desc>name=Atpūtas vietas pie Tirziņas ietekas Gaujā;
    operator=LVM; source=https://www.lvmgeo.lv/dati Tūrisma vietas;
    tourism=camp_site; id=node/4213655760</desc>
  </wpt>
  <wpt lat="57.2687243" lon="26.5533739">
    <ele>101.0</ele>
    <name>Lejasciema Ķemeru Sēravots</name>
    <desc>fee=no; name=Lejasciema Ķemeru Sēravots;
    tourism=camp_site; id=node/4213655779</desc>
  </wpt>
  <wpt lat="57.5293585" lon="26.3715166">
    <ele>57.0</ele>
    <name>node/4213691491</name>
    <desc>tourism=camp_site; id=node/4213691491</desc>
  </wpt>
  <wpt lat="57.4196885" lon="24.8307545">
    <ele>62.0</ele>
    <name>Sāruma</name>
    <desc>name=Sāruma; phone=+37128366416; tourism=camp_site;
    id=node/4246141929</desc>
  </wpt>
  <wpt lat="56.8487545" lon="21.2101179">
    <ele>6.0</ele>
    <name>Kempings Levlejas</name>
    <desc>alt_name=Pirtiņa Kempings; email=ievlejasagita@inbox.lv;
    facebook=https://www.facebook.com/ievlejas/; name=Kempings
    Levlejas; phone=+371 29 124 128; tourism=camp_site;
    id=node/4282385996</desc>
  </wpt>
  <wpt lat="56.9776846" lon="21.3405641">
    <ele>0.0</ele>
    <name>Kempings</name>
    <desc>name=Kempings; name:en=Kamping; name:lv=Kempings;
    phone=+37129479335; tourism=camp_site;
    id=node/4282472891</desc>
  </wpt>
  <wpt lat="57.2568635" lon="25.0606129">
    <ele>47.0</ele>
    <name>node/4289184309</name>
    <desc>tourism=camp_site; id=node/4289184309</desc>
  </wpt>
  <wpt lat="56.5642762" lon="21.0163687">
    <ele>15.0</ele>
    <name>BB camping</name>
    <desc>caravans=yes; description=BUNGALOW HOUSES, TENT &amp;
    CAMPER PLACES; drinking_water=yes; name=BB camping;
    power_supply=yes; sanitary_dump_station=yes; shower=yes;
    tents=yes; toilets=yes; tourism=camp_site;
    website=https://bbcamping.lv/; id=node/4291634122</desc>
    <link href="https://bbcamping.lv/"></link>
  </wpt>
  <wpt lat="56.8209061" lon="22.9630237">
    <ele>77.0</ele>
    <name>Viesatas 1. pikniks</name>
    <desc>name=Viesatas 1. pikniks; tourism=camp_site;
    id=node/4308393137</desc>
  </wpt>
  <wpt lat="56.8118336" lon="22.9428818">
    <ele>87.0</ele>
    <name>Viesatas dabas taka</name>
    <desc>name=Viesatas dabas taka; tourism=camp_site;
    id=node/4308393139</desc>
  </wpt>
  <wpt lat="56.4162448" lon="21.0017775">
    <ele>4.0</ele>
    <name>Veckurši</name>
    <desc>internet_access=wlan; name=Veckurši; phone=+371 29682623;
    tourism=camp_site; website=http://www.veckursi.lv;
    id=node/4314001591</desc>
    <link href="http://www.veckursi.lv"></link>
  </wpt>
  <wpt lat="56.7645755" lon="27.1504502">
    <ele>107.0</ele>
    <name>Atpūtas vieta pie Lielā Svētiņu ezera</name>
    <desc>fee=no; name=Atpūtas vieta pie Lielā Svētiņu ezera;
    operator=LVM; source=https://www.lvmgeo.lv/dati Tūrisma vietas;
    tourism=camp_site; id=node/4318515797</desc>
  </wpt>
  <wpt lat="57.412203" lon="25.40066">
    <ele>32.0</ele>
    <name>Grīviņu laivu tūristu atpūtas vieta</name>
    <desc>name=Grīviņu laivu tūristu atpūtas vieta; operator=LVM;
    tourism=camp_site; id=node/4360375345</desc>
  </wpt>
  <wpt lat="57.2258447" lon="25.9032847">
    <ele>183.0</ele>
    <name>Jogas ferma "Arjuna"</name>
    <desc>internet_access=wlan; name=Jogas ferma "Arjuna";
    name:en=Yoga Farm Arjuna; name:lv=Jogas ferma "Arjuna";
    tourism=camp_site; id=node/4403650992</desc>
  </wpt>
  <wpt lat="56.8143741" lon="22.9569997">
    <ele>90.0</ele>
    <name>Viesatas 2. pikniks</name>
    <desc>name=Viesatas 2. pikniks; tourism=camp_site;
    id=node/4510798729</desc>
  </wpt>
  <wpt lat="56.7449502" lon="21.0617273">
    <ele>15.0</ele>
    <name>Ziemupes stāvlaukums</name>
    <desc>email=ziemupiite@inbox.lv; name=Ziemupes stāvlaukums;
    phone=+371 29 400 470,+371 26338229; tents=yes;
    tourism=camp_site; website=https://ziemupiite.lv/;
    id=node/4960530398</desc>
    <link href="https://ziemupiite.lv/"></link>
  </wpt>
  <wpt lat="56.9897538" lon="22.0741005">
    <ele>37.0</ele>
    <name>Pliennieki</name>
    <desc>name=Pliennieki; tourism=camp_site;
    id=node/4983046830</desc>
  </wpt>
  <wpt lat="57.6936562" lon="26.1764662">
    <ele>56.0</ele>
    <name>node/4989659165</name>
    <desc>capacity=20; fee=no; tourism=camp_site;
    id=node/4989659165</desc>
  </wpt>
  <wpt lat="57.6184133" lon="25.6995916">
    <ele>41.0</ele>
    <name>node/5003642858</name>
    <desc>tourism=camp_site; id=node/5003642858</desc>
  </wpt>
  <wpt lat="57.5520699" lon="21.8673805">
    <ele>16.0</ele>
    <name>Atpūtas vieta pie Irbes "Rindas Lāži"</name>
    <desc>name=Atpūtas vieta pie Irbes "Rindas Lāži"; operator=LVM;
    source=https://www.lvmgeo.lv/dati Tūrisma vietas;
    tourism=camp_site; id=node/5030649925</desc>
  </wpt>
  <wpt lat="56.8563021" lon="21.1032987">
    <ele>3.0</ele>
    <name>node/5060032198</name>
    <desc>tourism=camp_site; id=node/5060032198</desc>
  </wpt>
  <wpt lat="57.4092849" lon="22.952494">
    <ele>5.0</ele>
    <name>Valgalciema stāvlaukums</name>
    <desc>name=Valgalciema stāvlaukums; tourism=camp_site;
    id=node/5060310089</desc>
  </wpt>
  <wpt lat="57.0654907" lon="23.2933867">
    <ele>8.0</ele>
    <name>node/5060314422</name>
    <desc>tourism=camp_site; id=node/5060314422</desc>
  </wpt>
  <wpt lat="57.5340436" lon="25.4684313">
    <ele>61.0</ele>
    <name>Camping Baili</name>
    <desc>name=Camping Baili; nobrand=yes;
    panoramax=9c03f779-d765-4865-93dd-8b9a23902858;
    panoramax:0=b47b44b5-6d42-4e20-be4b-476384ef013b;
    tourism=camp_site; website=http://baili.lv;
    id=node/5143773642</desc>
    <link href="http://baili.lv"></link>
  </wpt>
  <wpt lat="57.0722555" lon="23.2821837">
    <ele>15.0</ele>
    <name>Zīvartiņš</name>
    <desc>name=Zīvartiņš; tourism=camp_site;
    id=node/5143773646</desc>
  </wpt>
  <wpt lat="56.5920277" lon="25.6363372">
    <ele>72.0</ele>
    <name>Labais krasts</name>
    <desc>name=Labais krasts; tourism=camp_site;
    website=http://www.labaiskrasts.lv/; id=node/5705926741</desc>
    <link href="http://www.labaiskrasts.lv/"></link>
  </wpt>
  <wpt lat="57.357446" lon="23.1292248">
    <ele>4.0</ele>
    <name>Saules Kempings</name>
    <desc>caravans=yes; name=Saules Kempings; phone=+37127797555;
    tents=yes; tourism=camp_site;
    website=https://www.sauleskempings.lv/;
    id=node/5744389035</desc>
    <link href="https://www.sauleskempings.lv/"></link>
  </wpt>
  <wpt lat="56.3875854" lon="20.985372">
    <ele>4.0</ele>
    <name>node/5761173019</name>
    <desc>tourism=camp_site; id=node/5761173019</desc>
  </wpt>
  <wpt lat="56.9991275" lon="21.3731866">
    <ele>12.0</ele>
    <name>node/5762027530</name>
    <desc>tourism=camp_site; id=node/5762027530</desc>
  </wpt>
  <wpt lat="57.027921" lon="22.5959983">
    <ele>31.0</ele>
    <name>Drubazas</name>
    <desc>fee=yes; internet_access=no; name=Drubazas; note=No
    wather; phone=+37126342050; tourism=camp_site;
    id=node/5795964496</desc>
  </wpt>
  <wpt lat="57.2491649" lon="25.0051323">
    <ele>30.0</ele>
    <name>Natural camping site</name>
    <desc>name=Natural camping site; tourism=camp_site;
    id=node/5810723976</desc>
  </wpt>
  <wpt lat="56.2155975" lon="27.0027469">
    <ele>166.0</ele>
    <name>kempinga mãja agave</name>
    <desc>name=kempinga mãja agave; tourism=camp_site;
    id=node/5856526586</desc>
  </wpt>
  <wpt lat="56.1479372" lon="25.7982936">
    <ele>126.0</ele>
    <name>Suseja</name>
    <desc>name=Suseja; tourism=camp_site; id=node/6126930497</desc>
  </wpt>
  <wpt lat="56.7163538" lon="24.7334701">
    <ele>43.0</ele>
    <name>Puduri</name>
    <desc>name=Puduri; tourism=camp_site; id=node/6126930498</desc>
  </wpt>
  <wpt lat="57.4926793" lon="25.9982327">
    <ele>79.0</ele>
    <name>node/6243827599</name>
    <desc>tourism=camp_site; id=node/6243827599</desc>
  </wpt>
  <wpt lat="56.7812781" lon="21.0652868">
    <ele>19.0</ele>
    <name>Laikas</name>
    <desc>cabins=yes; email=laikas@inbox.lv; name=Laikas;
    phone=+37129432314; tents=yes; tourism=camp_site;
    website=laikas.lv; id=node/6555817545</desc>
    <link href="laikas.lv"></link>
  </wpt>
  <wpt lat="57.0413715" lon="24.3193953">
    <ele>3.0</ele>
    <name>node/6578822093</name>
    <desc>tourism=camp_site; id=node/6578822093</desc>
  </wpt>
  <wpt lat="56.1816332" lon="28.1149467">
    <ele>122.0</ele>
    <name>node/6581835448</name>
    <desc>tourism=camp_site; id=node/6581835448</desc>
  </wpt>
  <wpt lat="56.1816628" lon="28.114906">
    <ele>122.0</ele>
    <name>node/6584035985</name>
    <desc>name:en=Swimming spot with fireplace; tourism=camp_site;
    id=node/6584035985</desc>
  </wpt>
  <wpt lat="55.9213783" lon="26.5818071">
    <ele>122.0</ele>
    <name>Chill&amp;Grill</name>
    <desc>name=Chill&amp;Grill; tourism=camp_site;
    id=node/6641161142</desc>
  </wpt>
  <wpt lat="56.6179912" lon="21.9859414">
    <ele>35.0</ele>
    <name>node/6658181928</name>
    <desc>tourism=camp_site; id=node/6658181928</desc>
  </wpt>
  <wpt lat="57.2069587" lon="22.1511835">
    <ele>27.0</ele>
    <name>node/6745930332</name>
    <desc>tourism=camp_site; id=node/6745930332</desc>
  </wpt>
  <wpt lat="57.5627227" lon="21.8911656">
    <ele>16.0</ele>
    <name>1</name>
    <desc>backcountry=yes; name=1; tourism=camp_site;
    id=node/7476791253</desc>
  </wpt>
  <wpt lat="57.571074" lon="21.9271513">
    <ele>11.0</ele>
    <name>node/7476791254</name>
    <desc>tourism=camp_site; id=node/7476791254</desc>
  </wpt>
  <wpt lat="57.5763499" lon="21.9497874">
    <ele>8.0</ele>
    <name>node/7476791255</name>
    <desc>backcountry=yes; tourism=camp_site;
    id=node/7476791255</desc>
  </wpt>
  <wpt lat="57.5761081" lon="21.9655717">
    <ele>13.0</ele>
    <name>node/7476831492</name>
    <desc>backcountry=yes; tourism=camp_site;
    id=node/7476831492</desc>
  </wpt>
  <wpt lat="57.5798423" lon="21.9767047">
    <ele>10.0</ele>
    <name>4</name>
    <desc>backcountry=yes; name=4; tourism=camp_site;
    id=node/7476831493</desc>
  </wpt>
  <wpt lat="57.5818046" lon="21.9795579">
    <ele>7.0</ele>
    <name>P2</name>
    <desc>backcountry=yes; name=P2; tourism=camp_site;
    id=node/7476831494</desc>
  </wpt>
  <wpt lat="57.5848289" lon="21.9915474">
    <ele>16.0</ele>
    <name>5</name>
    <desc>backcountry=yes; name=5; tourism=camp_site;
    id=node/7476831496</desc>
  </wpt>
  <wpt lat="57.1111339" lon="24.3212172">
    <ele>1.0</ele>
    <name>node/7502045518</name>
    <desc>tourism=camp_site; id=node/7502045518</desc>
  </wpt>
  <wpt lat="57.3594534" lon="25.2408342">
    <ele>29.0</ele>
    <name>Pie Gaujas</name>
    <desc>name=Pie Gaujas; tourism=camp_site;
    id=node/7522541772</desc>
  </wpt>
  <wpt lat="56.2892151" lon="25.9790217">
    <ele>111.0</ele>
    <name>Zasas muižas parks</name>
    <desc>name=Zasas muižas parks; name:en=Zasa (Weesen) Manor
    Park; name:lv=Zasas muižas parks; tourism=camp_site;
    id=node/7632431698</desc>
  </wpt>
  <wpt lat="57.6440928" lon="22.1517379">
    <ele>12.0</ele>
    <name>node/7704970585</name>
    <desc>tourism=camp_site; id=node/7704970585</desc>
  </wpt>
  <wpt lat="56.9753708" lon="21.3369908">
    <ele>14.0</ele>
    <name>Hortus</name>
    <desc>name=Hortus; tourism=camp_site; id=node/7745292485</desc>
  </wpt>
  <wpt lat="56.9430465" lon="21.2798202">
    <ele>8.0</ele>
    <name>node/7791476280</name>
    <desc>tourism=camp_site; id=node/7791476280</desc>
  </wpt>
  <wpt lat="56.9378629" lon="21.2733152">
    <ele>0.0</ele>
    <name>node/7791488552</name>
    <desc>tourism=camp_site; id=node/7791488552</desc>
  </wpt>
  <wpt lat="56.1935952" lon="26.8913873">
    <ele>154.0</ele>
    <name>Vasarnīca "Ezeriņš"</name>
    <desc>name=Vasarnīca "Ezeriņš"; tourism=camp_site;
    id=node/7796635185</desc>
  </wpt>
  <wpt lat="57.2290885" lon="25.6567156">
    <ele>206.0</ele>
    <name>node/7879340273</name>
    <desc>tourism=camp_site; id=node/7879340273</desc>
  </wpt>
  <wpt lat="56.2950501" lon="25.9794659">
    <ele>111.0</ele>
    <name>Zasas dzirnavas</name>
    <desc>capacity=9; fee=no; name=Zasas dzirnavas;
    tourism=camp_site; id=node/8023391090</desc>
  </wpt>
  <wpt lat="56.67344" lon="26.0095635">
    <ele>84.0</ele>
    <name>Upmalas</name>
    <desc>
    contact:website=http://www.visitmadona.lv/lv/kempingi-atputas-vietas?88;
    group_only=yes; name=Upmalas; tourism=camp_site;
    id=node/8321947720</desc>
  </wpt>
  <wpt lat="57.593818" lon="22.0605852">
    <ele>12.0</ele>
    <name>node/8701844355</name>
    <desc>backcountry=yes; tourism=camp_site;
    id=node/8701844355</desc>
  </wpt>
  <wpt lat="57.5926058" lon="22.0581688">
    <ele>13.0</ele>
    <name>6</name>
    <desc>backcountry=yes; name=6; tourism=camp_site;
    id=node/8701844408</desc>
  </wpt>
  <wpt lat="57.5873489" lon="22.0132723">
    <ele>13.0</ele>
    <name>5</name>
    <desc>backcountry=yes; name=5; tourism=camp_site;
    id=node/8701844409</desc>
  </wpt>
  <wpt lat="57.1776813" lon="24.8661891">
    <ele>24.0</ele>
    <name>Glempings 'Klaukas'</name>
    <desc>cabins=yes; caravans=no; drinking_water=yes;
    name=Glempings 'Klaukas'; power_supply=yes; shower=yes;
    tents=no; toilets=yes; tourism=camp_site;
    website=https://glempings.lv/; id=node/8749749533</desc>
    <link href="https://glempings.lv/"></link>
  </wpt>
  <wpt lat="56.4125496" lon="22.2161955">
    <ele>40.0</ele>
    <name>node/8844948252</name>
    <desc>tourism=camp_site; id=node/8844948252</desc>
  </wpt>
  <wpt lat="57.5790712" lon="21.9791229">
    <ele>6.0</ele>
    <name>node/8894169586</name>
    <desc>tourism=camp_site; id=node/8894169586</desc>
  </wpt>
  <wpt lat="55.9104443" lon="26.8800035">
    <ele>104.0</ele>
    <name>Kempings "Daugavas lokos"</name>
    <desc>capacity:caravans=20; description=In a separate house
    there are showers and toilets, kitchen with refrigerator,
    stove. Coffee machine, drinking water are also available.;
    Catering services are also offered in the camping. Guests have
    access to a barbecue, chairs and a table.; drinking_water=yes;
    email=info@daugavaslokos.lv; fee=yes; group_only=no;
    image=https://cf.bstatic.com/xdata/images/hotel/max1280x900/300646128.jpg?k=f9da8ae8dd4e93ec4f202e1f16c9263b98ad8a25e9a8656192812b5e580a9ff2&amp;o=&amp;hp=1;
    name=Kempings "Daugavas lokos"; note=LV: Namiņi, Glempings,
    Telšu vietas, Kemperu vietas, Pirts, Kubli; Nomas: Laivu,
    Plostu, SUP dēļu, Elektrovelosipēdu noma; ; ENG: Holiday
    houses, Glemping, Tent, Camper spaces, Sauna, Hot tubs;
    Rentals: Boats, Rafts, SUP, E-Bike rentals; openfire=yes;
    operator=SIA "Eco Bends"; payment:cash=yes;
    payment:credit_cards=yes; phone=+371 24 662 655;
    power_supply=yes; reservation=yes; shower=yes; toilets=yes;
    tourism=camp_site; website=https://daugavaslokos.lv/;
    id=node/8960185761; id=way/1084676667</desc>
    <link href="https://daugavaslokos.lv/"></link>
  </wpt>
  <wpt lat="56.1539815" lon="27.5643413">
    <ele>177.0</ele>
    <name>node/8960339136</name>
    <desc>tourism=camp_site; id=node/8960339136</desc>
  </wpt>
  <wpt lat="56.1764341" lon="21.0154518">
    <ele>0.0</ele>
    <name>node/8990552029</name>
    <desc>tourism=camp_site; id=node/8990552029</desc>
  </wpt>
  <wpt lat="57.861192" lon="25.0336209">
    <ele>55.0</ele>
    <name>Camping</name>
    <desc>description=Simple municipality camping; fee=no;
    name=Camping; tourism=camp_site; id=node/9022727169</desc>
  </wpt>
  <wpt lat="57.8740193" lon="24.9967636">
    <ele>53.0</ele>
    <name>node/9023032865</name>
    <desc>fee=no; tourism=camp_site; id=node/9023032865</desc>
  </wpt>
  <wpt lat="57.32993" lon="25.2253539">
    <ele>33.0</ele>
    <name>Cēsu plosti</name>
    <desc>fixme=position; name=Cēsu plosti; tourism=camp_site;
    id=node/9816551268</desc>
  </wpt>
  <wpt lat="57.2940298" lon="25.2265744">
    <ele>107.0</ele>
    <name>Oškalns</name>
    <desc>name=Oškalns; tourism=camp_site;
    id=node/9816558887</desc>
  </wpt>
  <wpt lat="56.4225661" lon="24.062177">
    <ele>18.0</ele>
    <name>https://rundalesatputascentrs.lv/</name>
    <desc>camp_site=serviced; caravans=yes; check_date=2025-07-29;
    drinking_water=yes; email=rundalesac@gmail.com; fee=yes;
    internet_access=wlan; name:en=Rundale Camping; phone=+371 29
    771 404; power_supply=yes; shower=yes; static_caravans=no;
    tents=yes; toilets=yes; tourism=camp_site;
    website=https://rundalesatputascentrs.lv/;
    id=node/9861728717</desc>
    <link href="https://rundalesatputascentrs.lv/"></link>
  </wpt>
  <wpt lat="57.6822826" lon="22.3186982">
    <ele>6.0</ele>
    <name>Kalēji</name>
    <desc>email=mazirbeskaleji@gmail.com; name=Kalēji;
    phone=+37128829474; static_caravans=yes; tents=yes;
    tourism=camp_site; website=https://kaleji.viss.lv/;
    id=node/9863763515</desc>
    <link href="https://kaleji.viss.lv/"></link>
  </wpt>
  <wpt lat="56.9628489" lon="24.079592">
    <ele>3.0</ele>
    <name>Riverside camping</name>
    <desc>internet_access=wlan; name=Riverside camping;
    name:en=Riverside Camping; name:lv=Riverside camping;
    tourism=camp_site; website=https://riversidecamping.lv;
    id=node/9872573517; ; name=Riverside kempings;
    id=way/1433125692</desc>
    <link href="https://riversidecamping.lv"></link>
  </wpt>
  <wpt lat="56.351982" lon="25.6817542">
    <ele>108.0</ele>
    <name>Pērlīte</name>
    <desc>access=customers; name=Pērlīte; tents=yes;
    tourism=camp_site; id=node/9887108402</desc>
  </wpt>
  <wpt lat="57.3824735" lon="23.0185732">
    <ele>6.0</ele>
    <name>node/9917619487</name>
    <desc>tourism=camp_site; id=node/9917619487</desc>
  </wpt>
  <wpt lat="57.042803" lon="23.366741">
    <ele>6.0</ele>
    <name>Ronisi</name>
    <desc>name=Ronisi; tourism=camp_site; id=node/9917666697</desc>
  </wpt>
  <wpt lat="56.3220133" lon="20.9809598">
    <ele>6.0</ele>
    <name>http://Juras-krasti.lv</name>
    <desc>internet_access=wlan; tourism=camp_site;
    website=http://Juras-krasti.lv; id=node/9938860117</desc>
    <link href="http://Juras-krasti.lv"></link>
  </wpt>
  <wpt lat="55.9109985" lon="26.8820141">
    <ele>100.0</ele>
    <name>Glempings "Daugavas lokos"</name>
    <desc>description=In one of the most beautiful places in
    Latvia, on the bank of Daugava river, is located the new
    Glemping “Daugavas lokos”. Bell tents (glemping (brand
    Nordisk)) are located directly between Daugavpils and Kraslava
    – in the Slutiski village.; drinking_water=yes; fee=yes;
    group_only=no;
    image=https://www.visitdaugavpils.lv/wp-content/uploads/2021/10/IMG_9890-scaled.jpg;
    name=Glempings "Daugavas lokos"; openfire=yes; operator=SIA
    "Eco Bends"; payment:cash=yes; payment:credit_cards=yes;
    phone=+371 24 662 655; power_supply=yes; reservation=yes;
    shower=yes; toilets=yes; tourism=camp_site;
    website=https://daugavaslokos.lv/; id=node/9942140093</desc>
    <link href="https://daugavaslokos.lv/"></link>
  </wpt>
  <wpt lat="56.3012867" lon="20.9906667">
    <ele>4.0</ele>
    <name>Kalviņas</name>
    <desc>name=Kalviņas; tourism=camp_site;
    id=node/9949165736</desc>
  </wpt>
  <wpt lat="57.2392338" lon="24.7858818">
    <ele>59.0</ele>
    <name>Kleja camping</name>
    <desc>access=customers; name=Kleja camping; tourism=camp_site;
    id=node/9967769002</desc>
  </wpt>
  <wpt lat="57.5203868" lon="24.3788505">
    <ele>8.0</ele>
    <name>Atpūtas vietas pie jūras "Vasas"</name>
    <desc>access=yes; alt_name=Recreation site at the sea "Vasas";
    fee=no; name=Atpūtas vietas pie jūras "Vasas"; operator=LVM;
    tourism=camp_site; id=node/10224203649</desc>
  </wpt>
  <wpt lat="57.796012" lon="25.1449215">
    <ele>43.0</ele>
    <name>Ezerupe</name>
    <desc>email=armands.raitums@gmail.com; name=Ezerupe; phone=+371
    25660000; source=https://visit.valmiera.lv/objekti/ezerupe/;
    tourism=camp_site; id=node/10270379278</desc>
    <link href="https://visit.valmiera.lv/objekti/ezerupe/"></link>
  </wpt>
  <wpt lat="57.6320252" lon="25.2433533">
    <ele>58.0</ele>
    <name>Lantus</name>
    <desc>email=info@laukumaja.lv; name=Lantus; phone=+371
    29214406; source=https://visit.valmiera.lv/objekti/lantus/;
    tourism=camp_site; website=laukumaja.lv;
    id=node/10281163873</desc>
    <link href="laukumaja.lv"></link>
  </wpt>
  <wpt lat="57.2283807" lon="24.905882">
    <ele>24.0</ele>
    <name>Camping Jaunzāģeri</name>
    <desc>access=customers; caravans=yes; name=Camping Jaunzāģeri;
    shower=yes; tents=yes; toilets=yes; tourism=camp_site;
    website=https://www.jaunzageri.lv; id=node/10764417613</desc>
    <link href="https://www.jaunzageri.lv"></link>
  </wpt>
  <wpt lat="56.175685" lon="26.7170548">
    <ele>117.0</ele>
    <name>Duni</name>
    <desc>email=evitaxxx@inbox.lv; name=Duni; phone=+371 27812022;
    tourism=camp_site; id=node/10777705032</desc>
  </wpt>
  <wpt lat="56.2225679" lon="26.9184244">
    <ele>154.0</ele>
    <name>node/10777740269</name>
    <desc>caravans=yes; tents=yes; tourism=camp_site;
    id=node/10777740269</desc>
  </wpt>
  <wpt lat="56.2208082" lon="26.9965732">
    <ele>151.0</ele>
    <name>Agaves</name>
    <desc>cabins=yes; email=mvs.plus@inbox.lv; name=Agaves;
    phone=+371 26315587; tents=yes; tourism=camp_site;
    id=node/10777804507</desc>
  </wpt>
  <wpt lat="56.813072" lon="24.204399">
    <ele>7.0</ele>
    <name>Kempings Zanzibara</name>
    <desc>name=Kempings Zanzibara; tourism=camp_site;
    website=http://www.zanzibara.lv/; id=node/10937863468</desc>
    <link href="http://www.zanzibara.lv/"></link>
  </wpt>
  <wpt lat="56.9329697" lon="21.6486594">
    <ele>52.0</ele>
    <name>Ezermaļi</name>
    <desc>email=zvirgzduezers@gmail.com; name=Ezermaļi; phone=+371
    29122870; tourism=camp_site;
    website=https://www.ezermali.lv/kontakti/;
    id=node/11016308076</desc>
    <link href="https://www.ezermali.lv/kontakti/"></link>
  </wpt>
  <wpt lat="57.0034512" lon="23.1652138">
    <ele>92.0</ele>
    <name>Āža kalns</name>
    <desc>access=yes; caravans=no; fee=no; name=Āža kalns;
    operator=Engures sportam; static_caravans=no; tents=no;
    tourism=camp_site; id=node/11113406517</desc>
  </wpt>
  <wpt lat="56.4986828" lon="27.315807">
    <ele>139.0</ele>
    <name>Camper Park Rēzekne</name>
    <desc>caravans=yes; email=info@camperpark.club; name=Camper
    Park Rēzekne; phone=+371 2355 2700; tents=yes;
    tourism=camp_site; website=https://camperpark.club;
    id=node/11516698267</desc>
    <link href="https://camperpark.club"></link>
  </wpt>
  <wpt lat="57.0809727" lon="23.2711021">
    <ele>2.0</ele>
    <name>Balta Kapa</name>
    <desc>name=Balta Kapa; tourism=camp_site;
    id=node/12010054471</desc>
  </wpt>
  <wpt lat="57.2488909" lon="24.9410291">
    <ele>23.0</ele>
    <name>Brasla</name>
    <desc>backcountry=yes; internet_access=no; name=Brasla;
    opening_hours=24/7; operator=Gaujas nacionālais parks;
    reservation=no; tents=yes; tourism=camp_site;
    id=node/12056011035</desc>
  </wpt>
  <wpt lat="56.9644364" lon="24.0822482">
    <ele>2.0</ele>
    <name>Camping &amp; Yachts</name>
    <desc>name=Camping &amp; Yachts; tourism=camp_site;
    id=node/12060722292</desc>
  </wpt>
  <wpt lat="56.1314927" lon="21.0401614">
    <ele>2.0</ele>
    <name>Jauntīlibi</name>
    <desc>name=Jauntīlibi; phone=+37129897589; tourism=camp_site;
    id=node/12073975131</desc>
  </wpt>
  <wpt lat="56.1375823" lon="21.0371672">
    <ele>2.0</ele>
    <name>Mikjāņu Sēta</name>
    <desc>barbecue_grill=yes; caravans=yes;
    description=Ursprünglicher, einfacher &amp; freundlicher
    Campingplatz/Origin, simple and friendly camp site.; ; 07-2024;
    &gt;10 Jahre/years 5€; Zelt/tent 1-4 Personen/people 5€; ... ?;
    Espresso 2€ (dopio 3€) (10-19); drinking_water=yes; fee=yes;
    fireplace=yes; internet_access=yes; internet_access:fee=no;
    internet_access:type=wlan; name=Mikjāņu Sēta;
    phone=+37126759199; shower=cold,no fee; source=survey;
    static_caravans=no; tents=yes; toilets=yes; tourism=camp_site;
    id=node/12073996286</desc>
  </wpt>
  <wpt lat="56.5738793" lon="25.5042758">
    <ele>72.0</ele>
    <name>Vīgante Park</name>
    <desc>description=Campsite in public park. Have to call to pay
    small fee.; fee=yes; name=Vīgante Park; phone=+37129892925;
    tents=yes; tourism=camp_site; id=node/12121654242</desc>
  </wpt>
  <wpt lat="56.9145001" lon="21.2452365">
    <ele>11.0</ele>
    <name>Didamm Kempings</name>
    <desc>name=Didamm Kempings; tourism=camp_site;
    website=https://www.didamm.com/; id=node/13103526190</desc>
    <link href="https://www.didamm.com/"></link>
  </wpt>
  <wpt lat="56.9773954" lon="23.895849">
    <ele>8.0</ele>
    <name>node/13161590918</name>
    <desc>group_only=yes; tourism=camp_site;
    id=node/13161590918</desc>
  </wpt>
  <wpt lat="57.489924349999995" lon="24.38326822802106">
    <ele>9.0</ele>
    <name>Jūrasdženi</name>
    <desc>alt_name=Kempings "Jūrasdzeņi"; cabins=yes; caravans=yes;
    email=info@jurasdzeni.lv; motorhome=yes; name=Jūrasdženi;
    phone=+371 2655 05 74; shower=yes; tents=yes; toilets=yes;
    tourism=camp_site; type=multipolygon;
    website=https://jurasdzeni.lv; id=relation/8274500</desc>
    <link href="https://jurasdzeni.lv"></link>
  </wpt>
  <wpt lat="57.383661950000004" lon="21.534388811413677">
    <ele>10.0</ele>
    <name>Piejūras kempings</name>
    <desc>internet_access=wlan; name=Piejūras kempings;
    tourism=camp_site; wheelchair=yes; id=way/24823475</desc>
  </wpt>
  <wpt lat="56.5460851" lon="21.756183456995657">
    <ele>109.0</ele>
    <name>way/37948848</name>
    <desc>tourism=camp_site; id=way/37948848</desc>
  </wpt>
  <wpt lat="57.027285199999994" lon="23.494848765137">
    <ele>5.0</ele>
    <name>way/60018913</name>
    <desc>tourism=camp_site; id=way/60018913</desc>
  </wpt>
  <wpt lat="56.63963925" lon="22.997361842405773">
    <ele>98.0</ele>
    <name>Lake resort Niedras</name>
    <desc>cabins=yes; caravans=yes; email=kempingsniedras@inbox.lv;
    mobile=+371 29992299; name=Lake resort Niedras; shower=yes;
    tents=yes; toilets=yes; tourism=camp_site;
    website=https://www.niedras.lv/; id=way/67999143</desc>
    <link href="https://www.niedras.lv/"></link>
  </wpt>
  <wpt lat="56.94839425" lon="23.81303295740942">
    <ele>9.0</ele>
    <name>Atpūtas bāze "Babīte"</name>
    <desc>name=Atpūtas bāze "Babīte"; source=Babītes pagasta
    teritorijas plānojums 2007; tourism=camp_site;
    id=way/110795926</desc>
  </wpt>
  <wpt lat="57.1965749" lon="23.20609509407211">
    <ele>14.0</ele>
    <name>Kempings "Abragciems"</name>
    <desc>caravans=yes; internet_access=yes;
    internet_access:fee=yes; motorhome=yes; name=Kempings
    "Abragciems"; phone=+371 26110738; tents=yes;
    tourism=camp_site; website=https://abragciems.lv/;
    id=way/124991447</desc>
    <link href="https://abragciems.lv/"></link>
  </wpt>
  <wpt lat="57.5973096" lon="26.273674745270267">
    <ele>55.0</ele>
    <name>way/125209503</name>
    <desc>tourism=camp_site; id=way/125209503</desc>
  </wpt>
  <wpt lat="57.15818455" lon="24.837049626429554">
    <ele>20.0</ele>
    <name>Kempings Siguldas pludmale</name>
    <desc>caravans=yes; drinking_water=yes; email=karina@makars.lv;
    fee=yes; name=Kempings Siguldas pludmale; openfire=yes;
    phone=+371 29244948; picnic_table=yes;
    sanitary_dump_station=yes; tents=yes; tourism=camp_site;
    website=www.makars.lv; id=way/162057840</desc>
    <link href="www.makars.lv"></link>
  </wpt>
  <wpt lat="56.88831705" lon="21.170100702936296">
    <ele>1.0</ele>
    <name>Pāvilosta Marina</name>
    <desc>name=Pāvilosta Marina; tents=yes; tourism=camp_site;
    website=https://www.pavilostamarina.lv/;
    id=way/167701342</desc>
    <link href="https://www.pavilostamarina.lv/"></link>
  </wpt>
  <wpt lat="57.5037892" lon="24.38194671991311">
    <ele>6.0</ele>
    <name>Krimalnieki</name>
    <desc>internet_access=wlan; name=Krimalnieki;
    tourism=camp_site; website=https://www.krimalnieki.lv/;
    id=way/170325492</desc>
    <link href="https://www.krimalnieki.lv/"></link>
  </wpt>
  <wpt lat="56.49889605" lon="23.410828531371337">
    <ele>14.0</ele>
    <name>LVM dabas parka glempings</name>
    <desc>dog=leashed; email=glempings@lvm.lv; name=LVM dabas parka
    glempings; openfire=yes; operator=AS "Latvijas valsts meži";
    tourism=camp_site;
    website=https://www.mammadaba.lv/galamerki/lvm-dabas-parka-glempings;
    id=way/183032533</desc>
    <link href="https://www.mammadaba.lv/galamerki/lvm-dabas-parka-glempings">
    </link>
  </wpt>
  <wpt lat="57.142755300000005" lon="24.295517972517985">
    <ele>17.0</ele>
    <name>Kempings "Gauja"</name>
    <desc>name=Kempings "Gauja"; name:en=Camping "Gauja";
    name:lv=Kempings "Gauja"; tourism=camp_site;
    id=way/183071041</desc>
  </wpt>
  <wpt lat="56.95597705" lon="24.078090966965704">
    <ele>4.0</ele>
    <name>Rīgas pilsētas kempings</name>
    <desc>capacity=100; caravans=yes; email=camping@bt1.lv;
    fee=yes; internet_access=yes; internet_access:fee=yes;
    name=Rīgas pilsētas kempings; name:en=Riga City Camping;
    name:lv=Rīgas pilsētas kempings; operator=SIA RTU-BT1;
    payment:cash=yes; payment:credit_cards=yes; payment:notes=yes;
    phone=+371 67065000; power_supply=yes;
    sanitary_dump_station=yes; shower=yes; tents=yes; toilets=yes;
    tourism=camp_site; website=https://www.rigacamping.lv/;
    wheelchair=no; id=way/211443879</desc>
    <link href="https://www.rigacamping.lv/"></link>
  </wpt>
  <wpt lat="57.318291349999996" lon="25.148456842171505">
    <ele>59.0</ele>
    <name>Apaļkalns</name>
    <desc>bbq=yes; cabins=yes; caravans=yes; check_date=2025-07-03;
    drinking_water=yes; fee=yes; hot_water=yes;
    internet_access=wlan; internet_access:fee=no; kitchen=yes;
    motorhome=yes; name=Apaļkalns; payment:cash=yes;
    payment:credit_cards=yes; payment:debit_cards=yes; phone=+371
    29448188; picnic_table=yes; power_supply=yes;
    sanitary_dump_station=yes; shower=yes; swimming_pool=no;
    tents=yes; toilets=yes; tourism=camp_site; washing_machine=yes;
    website=https://www.apalkalns.lv/; id=way/227094458</desc>
    <link href="https://www.apalkalns.lv/"></link>
  </wpt>
  <wpt lat="57.598036199999996" lon="21.965193906858218">
    <ele>7.0</ele>
    <name>Miķeļbāka</name>
    <desc>caravans=yes; drinking_water=yes;
    email=martins@mikelbaka.lv;
    image=https://mikelbaka.lv/wp-content/uploads/2020/03/IMG_3334-scaled.jpg;
    internet_access=yes; name=Miķeļbāka; phone=+371 27884438;
    power_supply=yes; reservation=recommended; tents=yes;
    toilets=yes; tourism=camp_site; website=https://mikelbaka.lv/;
    id=way/228154178</desc>
    <link href="https://mikelbaka.lv/"></link>
  </wpt>
  <wpt lat="57.61327955" lon="24.38831357040028">
    <ele>5.0</ele>
    <name>Meleku līcis</name>
    <desc>name=Meleku līcis; tourism=camp_site;
    id=way/230051616</desc>
  </wpt>
  <wpt lat="57.5145669" lon="25.261755193297567">
    <ele>57.0</ele>
    <name>way/230688826</name>
    <desc>area=yes; surface=grass; tourism=camp_site;
    id=way/230688826</desc>
  </wpt>
  <wpt lat="56.79822775" lon="26.932187628826362">
    <ele>90.0</ele>
    <name>Lubāna peldvieta</name>
    <desc>access=yes; name=Lubāna peldvieta; tourism=camp_site;
    id=way/231857161</desc>
  </wpt>
  <wpt lat="57.426829999999995" lon="24.8059978848635">
    <ele>50.0</ele>
    <name>Paegļi</name>
    <desc>name=Paegļi; natural=grass; tourism=camp_site;
    id=way/232310478</desc>
  </wpt>
  <wpt lat="56.02305055" lon="27.39890846096905">
    <ele>157.0</ele>
    <name>Siveri</name>
    <desc>email=inga@campsiveri.lv; name=Siveri; phone=+371
    29278599; tourism=camp_site; website=http://www.campsiveri.lv/;
    id=way/234585503</desc>
    <link href="http://www.campsiveri.lv/"></link>
  </wpt>
  <wpt lat="57.5026793" lon="24.58133287344166">
    <ele>51.0</ele>
    <name>way/238031812</name>
    <desc>access=customers; fee=yes; tourism=camp_site;
    id=way/238031812</desc>
  </wpt>
  <wpt lat="57.15008915" lon="24.30401090935007">
    <ele>11.0</ele>
    <name>Atpūtas bāze „Dzirnezers”</name>
    <desc>email=dzirnkalns@inbox.lv; name=Atpūtas bāze
    „Dzirnezers”; phone=+371 67992453; tourism=camp_site;
    id=way/354101252</desc>
  </wpt>
  <wpt lat="57.172276100000005" lon="24.849706344554104">
    <ele>21.0</ele>
    <name>Sigulda</name>
    <desc>backcountry=yes; caravans=no; fee=no; name=Sigulda;
    name:en=Water tourist camp "Sigulda"; name:lv=Sigulda;
    openfire=yes; tents=yes; tourism=camp_site;
    id=way/365516876</desc>
  </wpt>
  <wpt lat="56.16347135" lon="21.02034377537494">
    <ele>1.0</ele>
    <name>Pūķargas</name>
    <desc>
    image=https://admin.pukarags.lv/storage/347/conversions/daudz-teltis-106-large.jpg;
    internet_access=wlan; name=Pūķargas; tourism=camp_site;
    website=https://www.pukarags.lv/; id=way/366202435</desc>
    <link href="https://www.pukarags.lv/"></link>
  </wpt>
  <wpt lat="56.886434050000005" lon="21.17003593839008">
    <ele>3.0</ele>
    <name>way/366373618</name>
    <desc>tourism=camp_site; id=way/366373618</desc>
  </wpt>
  <wpt lat="57.598533" lon="21.968410150059945">
    <ele>7.0</ele>
    <name>Pizā</name>
    <desc>description=Viesu nams un kempings; description:en=Guest
    house and camping site; email=info@piza.lv;
    image=https://www.piza.lv/themes/ocean-view/assets/img/slider/00.jpg;
    name=Pizā; phone=+371 283 96323; tourism=camp_site;
    website=https://www.piza.lv/; id=way/366717369</desc>
    <link href="https://www.piza.lv/"></link>
  </wpt>
  <wpt lat="57.74839145" lon="22.59601663983642">
    <ele>4.0</ele>
    <name>Kempings Ūši</name>
    <desc>email=nfo@kolka.info; name=Kempings Ūši; phone=+371
    29475692; tourism=camp_site; website=http://www.kolka.info;
    id=way/368349051</desc>
    <link href="http://www.kolka.info"></link>
  </wpt>
  <wpt lat="56.8478353" lon="24.504784334425374">
    <ele>20.0</ele>
    <name>Camping</name>
    <desc>description=Arī teltis un pirts / auch für Zelten + Sauna
    / Also Tents and Sauna Parking space; name=Camping;
    tourism=camp_site; id=way/403042273</desc>
  </wpt>
  <wpt lat="57.6727014" lon="25.996961091985757">
    <ele>55.0</ele>
    <name>Atpūtas vieta pie Gaujas Spicu tilta</name>
    <desc>fee=no; name=Atpūtas vieta pie Gaujas Spicu tilta;
    operator=LVM; source=https://www.lvmgeo.lv/dati Tūrisma vietas;
    tourism=camp_site; id=way/406014969</desc>
  </wpt>
  <wpt lat="57.579830400000006" lon="24.36726472054018">
    <ele>13.0</ele>
    <name>Klintis</name>
    <desc>caravans=yes; email=info@klintis.lv; name=Klintis;
    phone=+371 27852476; power_supply=yes; sauna=yes; shower=yes;
    tents=yes; toilets=yes; tourism=camp_site;
    website=https://www.klintis.lv; id=way/426525707</desc>
    <link href="https://www.klintis.lv"></link>
  </wpt>
  <wpt lat="57.48937795" lon="21.64762858649924">
    <ele>12.0</ele>
    <name>Liepene</name>
    <desc>dryer=yes; email=kempings.liepene@inbox.lv; name=Liepene;
    phone=+371 29102990; power_supply=yes; sauna=yes;
    tourism=camp_site; washing_machine=yes;
    website=http://www.kempingsliepene.lv; id=way/426855902</desc>
    <link href="http://www.kempingsliepene.lv"></link>
  </wpt>
  <wpt lat="57.6515715" lon="22.581449785094357">
    <ele>11.0</ele>
    <name>Kemping Melnsils</name>
    <desc>cabins=yes; caravans=yes; email=info@melnsils.lv;
    name=Kemping Melnsils; phone=+371 286 05606; power_supply=yes;
    tents=yes; tourism=camp_site; website=https://melnsils.lv/;
    id=way/426898141</desc>
    <link href="https://melnsils.lv/"></link>
  </wpt>
  <wpt lat="56.34464655" lon="21.248795483351003">
    <ele>22.0</ele>
    <name>Ods</name>
    <desc>name=Ods; tourism=camp_site; id=way/444242979</desc>
  </wpt>
  <wpt lat="56.905795350000005" lon="23.8861596058114">
    <ele>17.0</ele>
    <name>Bejas</name>
    <desc>name=Bejas; tourism=camp_site; id=way/496368528</desc>
  </wpt>
  <wpt lat="56.16883715" lon="27.623800450000005">
    <ele>171.0</ele>
    <name>Gulbju krasti</name>
    <desc>name=Gulbju krasti; phone=+371 29254740;
    tourism=camp_site; id=way/505215654</desc>
  </wpt>
  <wpt lat="56.7120357" lon="21.06236296567068">
    <ele>8.0</ele>
    <name>Kempings Kalēji</name>
    <desc>capacity=25; fee=yes; internet_access=yes;
    internet_access:fee=no; name=Kempings Kalēji; name:en=Campsite
    Kaleji; name:lv=Kempings Kalēji; tourism=camp_site;
    id=way/516778885</desc>
  </wpt>
  <wpt lat="57.48408045" lon="22.85349768903276">
    <ele>10.0</ele>
    <name>Camping Vecmuižas</name>
    <desc>capacity=25; fee=yes; internet_access=yes;
    internet_access:fee=no; name=Camping Vecmuižas;
    tourism=camp_site; id=way/516781465</desc>
  </wpt>
  <wpt lat="56.270721249999994" lon="25.425086984070035">
    <ele>81.0</ele>
    <name>way/554252624</name>
    <desc>tourism=camp_site; id=way/554252624</desc>
  </wpt>
  <wpt lat="57.686508599999996" lon="24.367943591881463">
    <ele>4.0</ele>
    <name>Rakari</name>
    <desc>email=reservation@rakariresort.lv; name=Rakari;
    phone=+371 2666 4447; tourism=camp_site;
    website=https://www.rakariresort.lv/; id=way/601769978</desc>
    <link href="https://www.rakariresort.lv/"></link>
  </wpt>
  <wpt lat="56.434353650000006" lon="21.003381755734104">
    <ele>5.0</ele>
    <name>http://www.skilas.lv/</name>
    <desc>backcountry=no; caravans=yes;
    contact:facebook=https://www.facebook.com/viesunamsskilas/;
    group_only=no; impromptu=no; phone=+371 25 458444; sauna=yes;
    scout=no; swimming_pool=yes; tents=yes; tourism=camp_site;
    website=http://www.skilas.lv/; id=way/608025611</desc>
    <link href="http://www.skilas.lv/"></link>
  </wpt>
  <wpt lat="57.5218629" lon="24.37857532232038">
    <ele>12.0</ele>
    <name>Vasas</name>
    <desc>access=yes; fee=no; motor_vehicle=yes; name=Vasas;
    operator=LVM; tents=yes; tourism=camp_site;
    id=way/609814082</desc>
  </wpt>
  <wpt lat="57.00718085" lon="21.382528786939446">
    <ele>14.0</ele>
    <name>way/626522897</name>
    <desc>tourism=camp_site; id=way/626522897</desc>
  </wpt>
  <wpt lat="57.0073384" lon="21.384262802328486">
    <ele>16.0</ele>
    <name>way/626522898</name>
    <desc>tourism=camp_site; id=way/626522898</desc>
  </wpt>
  <wpt lat="56.575201050000004" lon="23.087809822877734">
    <ele>94.0</ele>
    <name>way/637277346</name>
    <desc>camp_site=basic; fee=yes; motor_vehicle=yes;
    tourism=camp_site; id=way/637277346</desc>
  </wpt>
  <wpt lat="56.56294165" lon="24.16890221526718">
    <ele>22.0</ele>
    <name>Labirinti</name>
    <desc>access=customers; caravans=yes; fee=yes;
    internet_access=wlan; internet_access:fee=no; name=Labirinti;
    operator=Labirinti; payment:cash=yes; power_supply=yes;
    shower=hot; tents=yes; toilets=yes; tourism=camp_site;
    washing_machine=yes; id=way/670338314</desc>
  </wpt>
  <wpt lat="55.9202623" lon="26.905976525145604">
    <ele>120.0</ele>
    <name>Kempings Krasti</name>
    <desc>name=Kempings Krasti; tourism=camp_site;
    id=way/691100339</desc>
  </wpt>
  <wpt lat="57.238858449999995" lon="22.16831745647739">
    <ele>26.0</ele>
    <name>Usmas kempings</name>
    <desc>name=Usmas kempings; tourism=camp_site;
    id=way/709928322</desc>
  </wpt>
  <wpt lat="56.806453700000006" lon="26.56020917097828">
    <ele>108.0</ele>
    <name>Atpūtas vieta pie Kapu ezera</name>
    <desc>access=yes; cabins=no; camp_type=wildcamp; fee=no;
    internet_access=no; name=Atpūtas vieta pie Kapu ezera;
    operator=LVM; power_supply=no; sanitary_dump_station=no;
    source=https://www.lvmgeo.lv/dati Tūrisma vietas;
    surface=grass; tents=yes; tourism=camp_site;
    id=way/711616265</desc>
  </wpt>
  <wpt lat="56.8392451" lon="25.358791775">
    <ele>101.0</ele>
    <name>way/792304355</name>
    <desc>backcountry=yes; tourism=camp_site;
    id=way/792304355</desc>
  </wpt>
  <wpt lat="57.637787700000004" lon="25.0406099075849">
    <ele>83.0</ele>
    <name>Ozolmuižas kempings</name>
    <desc>name=Ozolmuižas kempings; tourism=camp_site;
    id=way/802932234</desc>
  </wpt>
  <wpt lat="57.51295855" lon="24.381440462677524">
    <ele>8.0</ele>
    <name>way/819829376</name>
    <desc>access=customers; fee=yes; payment:cash=yes;
    tourism=camp_site; id=way/819829376</desc>
  </wpt>
  <wpt lat="56.72794965" lon="24.70898084264944">
    <ele>40.0</ele>
    <name>Kempings Ezīša Midziņa</name>
    <desc>name=Kempings Ezīša Midziņa; tents=yes;
    tourism=camp_site; website=https://www.ezisamidzina.lv/;
    id=way/823367264</desc>
    <link href="https://www.ezisamidzina.lv/"></link>
  </wpt>
  <wpt lat="56.3148238" lon="27.514477918059256">
    <ele>162.0</ele>
    <name>way/839407029</name>
    <desc>tourism=camp_site; id=way/839407029</desc>
  </wpt>
  <wpt lat="57.0322549" lon="21.40111922221788">
    <ele>15.0</ele>
    <name>Zaķi</name>
    <desc>email=kempings@zaki.lv; internet_access=no; name=Zaķi;
    phone=+371-26452767; tourism=camp_site;
    website=https://www.zaki.lv/; id=way/890994935</desc>
    <link href="https://www.zaki.lv/"></link>
  </wpt>
  <wpt lat="56.39053825" lon="20.987568875108124">
    <ele>5.0</ele>
    <name>Ģirti</name>
    <desc>access=customers; capacity=100; fee=yes; name=Ģirti;
    operator=Pestīšanas Armija Latvijā; payment:cash=yes;
    payment:notes=yes; source=LĢIA Vietvārdu DB,local knowledge;
    tourism=camp_site; id=way/923365816</desc>
  </wpt>
  <wpt lat="57.18920885" lon="24.357191635000593">
    <ele>21.0</ele>
    <name>way/931203244</name>
    <desc>access=customers; tourism=camp_site;
    id=way/931203244</desc>
  </wpt>
  <wpt lat="57.1625361" lon="22.304466075434085">
    <ele>43.0</ele>
    <name>Kalves</name>
    <desc>name=Kalves; tourism=camp_site; id=way/967193420</desc>
  </wpt>
  <wpt lat="57.6956707" lon="22.36317331656729">
    <ele>8.0</ele>
    <name>Pītagi</name>
    <desc>name=Pītagi; tourism=camp_site; id=way/1005156783</desc>
  </wpt>
  <wpt lat="56.70620175" lon="21.061924746054352">
    <ele>6.0</ele>
    <name>Kempings Rūgumi</name>
    <desc>caravans=yes; internet_access=yes;
    internet_access:fee=no; name=Kempings Rūgumi;
    phone=+37129747773; tents=yes; tourism=camp_site;
    website=https://www.rugumi.eu/; id=way/1082903091</desc>
    <link href="https://www.rugumi.eu/"></link>
  </wpt>
  <wpt lat="56.9603252" lon="23.64541702110757">
    <ele>7.0</ele>
    <name>Nemo</name>
    <desc>cabins=yes; caravans=yes; internet_access=yes;
    motor_vehicle=yes; name=Nemo; power_supply=yes;
    sanitary_dump_station=no; shower=yes; tents=yes; toilets=yes;
    tourism=camp_site; id=way/1084279528</desc>
  </wpt>
  <wpt lat="57.68263245" lon="22.31668696453304">
    <ele>5.0</ele>
    <name>Jūrmalnieki</name>
    <desc>description=small campsite for tents with bungalows to
    rent. 10€/tent whatever the number of people. kitchen and hot
    shower included; name=Jūrmalnieki; phone=+371 22334904;
    tourism=camp_site; website=https://www.kempingsjurmalnieki.lv/;
    id=way/1131620276</desc>
    <link href="https://www.kempingsjurmalnieki.lv/"></link>
  </wpt>
  <wpt lat="57.01555605" lon="22.636901492346663">
    <ele>34.0</ele>
    <name>Abavlīči</name>
    <desc>name=Abavlīči; tourism=camp_site;
    id=way/1164476214</desc>
  </wpt>
  <wpt lat="57.0166615" lon="22.629794811417327">
    <ele>34.0</ele>
    <name>Lejaslangsēde</name>
    <desc>name=Lejaslangsēde; tourism=camp_site;
    id=way/1164480645</desc>
  </wpt>
  <wpt lat="57.43388315" lon="25.280648366986085">
    <ele>50.0</ele>
    <name>way/1188496798</name>
    <desc>backcountry=yes; caravans=no; fee=no; static_caravans=no;
    tents=yes; toilets=yes; tourism=camp_site;
    id=way/1188496798</desc>
  </wpt>
  <wpt lat="57.0872881" lon="24.443585846044556">
    <ele>7.0</ele>
    <name>Leiputrija</name>
    <desc>capacity=50; caravans=yes; name=Leiputrija;
    source=http://leiputrija.com; tents=yes; tourism=camp_site;
    id=way/1188688775</desc>
    <link href="http://leiputrija.com"></link>
  </wpt>
  <wpt lat="57.141584449999996" lon="24.725493519277023">
    <ele>21.0</ele>
    <name>Katlapiezis</name>
    <desc>backcountry=yes; caravans=no; fee=no; name=Katlapiezis;
    openfire=yes; tents=yes; tourism=camp_site;
    id=way/1188691737</desc>
  </wpt>
  <wpt lat="57.236676900000006" lon="22.20227695978415">
    <ele>25.0</ele>
    <name>Vectirukši</name>
    <desc>name=Vectirukši; tourism=camp_site;
    id=way/1193228950</desc>
  </wpt>
  <wpt lat="57.23301655" lon="22.20067989028245">
    <ele>22.0</ele>
    <name>Tirukši</name>
    <desc>name=Tirukši; tourism=camp_site; id=way/1193228957</desc>
  </wpt>
  <wpt lat="57.68700685" lon="24.36234925833506">
    <ele>7.0</ele>
    <name>Vējavas</name>
    <desc>caravans=yes; name=Vējavas; name:en=Vejavas;
    name:lv=Vējavas; phone=+371 264 63252; tents=yes;
    tourism=camp_site; id=way/1194248945</desc>
  </wpt>
  <wpt lat="57.1310735" lon="24.86357126074975">
    <ele>95.0</ele>
    <name>Camping Lakeside Sigulda</name>
    <desc>caravans=yes; email=camping@lakeside.lv; fee=yes;
    internet_access=wlan; internet_access:fee=no; name=Camping
    Lakeside Sigulda; openfire=yes; payment:cash=yes;
    payment:contactless=yes; payment:mastercard=yes;
    payment:visa=yes; phone=+371 27152155; power_supply=yes;
    sanitary_dump_station=yes; shower=hot; static_caravans=no;
    tents=yes; toilets=yes; tourism=camp_site; washing_machine=yes;
    website=https://www.lakeside.lv; id=way/1198875560</desc>
    <link href="https://www.lakeside.lv"></link>
  </wpt>
  <wpt lat="57.12265045" lon="22.188305807774555">
    <ele>21.0</ele>
    <name>Usmas Meķi</name>
    <desc>email=usmasmeki@inbox.lv; name=Usmas Meķi; phone=+371
    29166276; tourism=camp_site; website=https://usmasmeki.lv;
    id=way/1247740238</desc>
    <link href="https://usmasmeki.lv"></link>
  </wpt>
  <wpt lat="56.461810099999994" lon="21.005812597928404">
    <ele>3.0</ele>
    <name>way/1272635740</name>
    <desc>access=private; tourism=camp_site;
    id=way/1272635740</desc>
  </wpt>
  <wpt lat="56.432362850000004" lon="21.0001523540898">
    <ele>8.0</ele>
    <name>way/1272656028</name>
    <desc>access=customers; barrier=fence; tourism=camp_site;
    id=way/1272656028</desc>
  </wpt>
  <wpt lat="56.42643735" lon="20.99710569896792">
    <ele>4.0</ele>
    <name>Verbelnieki</name>
    <desc>access=customers; fee=yes; name=Verbelnieki;
    tourism=camp_site; website=http://www.verbelnieki.lv/;
    id=way/1272656034</desc>
    <link href="http://www.verbelnieki.lv/"></link>
  </wpt>
  <wpt lat="56.42048925" lon="21.002307121927682">
    <ele>13.0</ele>
    <name>way/1272677688</name>
    <desc>access=private; barrier=fence; tourism=camp_site;
    id=way/1272677688</desc>
  </wpt>
  <wpt lat="56.2957137" lon="27.50806061206007">
    <ele>187.0</ele>
    <name>Selena 2003</name>
    <desc>name=Selena 2003; tourism=camp_site;
    id=way/1287384093</desc>
  </wpt>
  <wpt lat="56.95517815" lon="22.022258171885113">
    <ele>39.0</ele>
    <name>way/1293505419</name>
    <desc>tourism=camp_site; id=way/1293505419</desc>
  </wpt>
  <wpt lat="56.4758078" lon="21.012295986090418">
    <ele>4.0</ele>
    <name>Liepājas robeža</name>
    <desc>caravans=yes; internet_access=wlan;
    internet_access:fee=no; name=Liepājas robeža;
    phone=+37120244544; power_supply=yes; tents=yes;
    tourism=camp_site; id=way/1302454464</desc>
  </wpt>
  <wpt lat="57.06951665" lon="22.527468428260505">
    <ele>33.0</ele>
    <name>Abavas rumba</name>
    <desc>fee=yes; name=Abavas rumba; tourism=camp_site;
    id=way/1302763452</desc>
  </wpt>
  <wpt lat="57.25458715" lon="25.045588540172375">
    <ele>21.0</ele>
    <name>Kanoe kempings</name>
    <desc>caravans=yes; name=Kanoe kempings; phone=+37129244948;
    static_caravans=no; tents=yes; tourism=camp_site;
    website=www.makars.lv; id=way/1382120678</desc>
    <link href="www.makars.lv"></link>
  </wpt>
  <wpt lat="56.9088203" lon="21.225164412447615">
    <ele>1.0</ele>
    <name>Sea &amp; Soul PLACE</name>
    <desc>name=Sea &amp; Soul PLACE; tourism=camp_site;
    id=way/1419698597</desc>
  </wpt>
  <wpt lat="57.1406183" lon="24.299865658024302">
    <ele>17.0</ele>
    <name>way/1421455325</name>
    <desc>access=private; barrier=fence; tourism=camp_site;
    id=way/1421455325</desc>
  </wpt>
  <wpt lat="56.6181101" lon="22.55982409857925">
    <ele>110.0</ele>
    <name>private</name>
    <desc>access=private; group_only=yes; operator=private;
    tourism=camp_site; id=way/1423850064</desc>
  </wpt>
  <wpt lat="55.9764378" lon="27.36582304402173">
    <ele>173.0</ele>
    <name>Dridži</name>
    <desc>name=Dridži; tourism=camp_site;
    website=http://www.dridzi.lv/; id=way/1430195031</desc>
    <link href="http://www.dridzi.lv/"></link>
  </wpt>
</gpx>
