<?xml version="1.0" encoding="utf-8"?>
<gpx xmlns="http://www.topografix.com/GPX/1/1"
xmlns:xsi="http://www.w3.org/2001/XMLSchema-instance"
xsi:schemaLocation="http://www.topografix.com/GPX/1/1 http://www.topografix.com/GPX/1/1/gpx.xsd"
version="1.1" creator="togpx">
  <metadata>
    <copyright>
      <license>"osm3s": { "timestamp_osm_base":
      "2026-05-02T09:59:10Z", "timestamp_areas_base":
      "2026-05-02T05:12:42Z", "copyright": "The data included in
      this document is from www.openstreetmap.org. The data is made
      available under ODbL." } // SRTM: { Elevation data missing in
      OSM was added by the NASA Shuttle Radar Topography Mission as
      public release version, if available there. } // { Check for
      latest version of this file on:
      https://github.com/GpxFeed/campgrounds }</license>
    </copyright>
  </metadata>
  <wpt lat="35.8927448" lon="14.5286863">
    <ele>10.0</ele>
    <name>Rinella Scout Centre</name>
    <desc>name=Rinella Scout Centre; scout=yes; tourism=camp_site;
    id=node/1072718253</desc>
  </wpt>
  <wpt lat="35.8222571" lon="14.473736">
    <ele>138.0</ele>
    <name>L-Iscouts taż-Żurrieq</name>
    <desc>addr:city=Iż-Żurrieq; addr:street=Triq il-Wardija;
    brand=The Scout Association of Malta; brand:short=TSAM;
    brand:wikidata=Q3522621; club=scout; name=L-Iscouts
    taż-Żurrieq; name:en=Żurrieq Scout Group Headquarters;
    operator=The Scout Association of Malta;
    operator:wikidata=Q3522621; scout=yes; tourism=camp_site;
    website=https://www.facebook.com/zurrieqscoutgroup/;
    wheelchair=limited; id=node/1462464945</desc>
    <link href="https://www.facebook.com/zurrieqscoutgroup/">
    </link>
  </wpt>
  <wpt lat="35.8197479" lon="14.4553694">
    <ele>30.0</ele>
    <name>wild camping</name>
    <desc>name=wild camping; name:fr=camping sauvage;
    tourism=camp_site; id=node/5854458085</desc>
  </wpt>
  <wpt lat="36.0483251" lon="14.1916189">
    <ele>7.0</ele>
    <name>Wild Camp</name>
    <desc>caravans=no; name=Wild Camp; name:fr=Camping Sauvage;
    shower=no; tents=yes; tourism=camp_site;
    id=node/5859403285</desc>
  </wpt>
  <wpt lat="35.9165122" lon="14.4091347">
    <ele>66.0</ele>
    <name>Mosta Scout Campsite &amp; Activity Centre</name>
    <desc>name=Mosta Scout Campsite &amp; Activity Centre;
    operator=Mosta Scout Group; scout=yes; tourism=camp_site;
    id=node/10863592078</desc>
  </wpt>
  <wpt lat="36.04835" lon="14.3162542">
    <ele>9.0</ele>
    <name>node/12116987016</name>
    <desc>tourism=camp_site; id=node/12116987016</desc>
  </wpt>
  <wpt lat="36.0681137" lon="14.2499806">
    <ele>66.0</ele>
    <name>Ruby's Camping</name>
    <desc>access=customers; addr:city=Żebbuġ; addr:street=Daħla ta'
    Dabrani; camp_site=serviced; charge=15 EUR; name=Ruby's
    Camping; payment:cash=yes; payment:contactless=yes;
    source=https://www.google.com/maps/place/Ruby's+Camping+Site/@36.0680551,14.2474729,17z/data=!3m1!4b1!4m6!3m5!1s0x130fb5c278104461:0x46669d5eefc28c7a!8m2!3d36.0680508!4d14.2500478!16s%2Fg%2F11s0prrrdb?entry=ttu&amp;g_ep=EgoyMDI2MDQwMS4wIKXMDSoASAFQAw%3D%3D;
    tents=no; tourism=camp_site; id=node/13713100331</desc>
    <link href="https://www.google.com/maps/place/Ruby's+Camping+Site/@36.0680551,14.2474729,17z/data=!3m1!4b1!4m6!3m5!1s0x130fb5c278104461:0x46669d5eefc28c7a!8m2!3d36.0680508!4d14.2500478!16s%2Fg%2F11s0prrrdb?entry=ttu%26g_ep=EgoyMDI2MDQwMS4wIKXMDSoASAFQAw%3D%3D">
    </link>
  </wpt>
  <wpt lat="35.995089" lon="14.366969384056286">
    <ele>7.0</ele>
    <name>Adventure Campsite</name>
    <desc>camp_site=basic; name=Adventure Campsite; phone=+356 2152
    1105; tourism=camp_site; id=way/275675342</desc>
  </wpt>
  <wpt lat="35.9362744" lon="14.34433519067088">
    <ele>29.0</ele>
    <name>Għajn Tuffieħa Scout Campsite</name>
    <desc>access=customers; cabins=no; caravans=yes;
    drinking_water=yes; fee=yes; internet_access=no; name=Għajn
    Tuffieħa Scout Campsite; operator=The Scout Association Of
    Malta; payment:online_booking=yes; power_supply=yes;
    reservation=required; sanitary_dump_station=yes; scout=yes;
    shower=yes; tents=yes; toilets=yes; tourism=camp_site;
    website=https://campsite.mt/; wheelchair=no;
    id=way/313275635</desc>
    <link href="https://campsite.mt/"></link>
  </wpt>
  <wpt lat="36.01361265" lon="14.326549911288183">
    <ele>27.0</ele>
    <name>Tal-Ful Campsite</name>
    <desc>backcountry=yes; caravans=no; fee=no; name=Tal-Ful
    Campsite; openfire=no; reservation=no;
    sanitary_dump_station=no; static_caravans=no; tents=yes;
    toilets=no; tourism=camp_site; id=way/1380408466</desc>
  </wpt>
</gpx>
