<?xml version="1.0" encoding="utf-8"?>
<gpx xmlns="http://www.topografix.com/GPX/1/1"
xmlns:xsi="http://www.w3.org/2001/XMLSchema-instance"
xsi:schemaLocation="http://www.topografix.com/GPX/1/1 http://www.topografix.com/GPX/1/1/gpx.xsd"
version="1.1" creator="togpx">
  <metadata>
    <copyright>
      <license>"osm3s": { "timestamp_osm_base":
      "2025-09-09T08:15:33Z", "timestamp_areas_base":
      "2025-09-09T06:27:01Z", "copyright": "The data included in
      this document is from www.openstreetmap.org. The data is made
      available under ODbL." } // SRTM: { Elevation data missing in
      OSM was added by the NASA Shuttle Radar Topography Mission as
      public release version, if available there. } // { Check for
      latest version of this file on:
      https://github.com/GpxFeed/campgrounds }</license>
    </copyright>
  </metadata>
  <wpt lat="35.872008" lon="14.528417">
    <ele>51.0</ele>
    <name>Hompesch</name>
    <desc>amenity=fuel; compressed_air=yes; name=Hompesch;
    id=node/129948792</desc>
  </wpt>
  <wpt lat="35.8724247" lon="14.5314515">
    <ele>52.0</ele>
    <name>Lourdes Service Station</name>
    <desc>amenity=fuel; name=Lourdes Service Station;
    id=node/129949023</desc>
  </wpt>
  <wpt lat="35.8772675" lon="14.4946206">
    <ele>7.0</ele>
    <name>node/129949801</name>
    <desc>amenity=fuel; fuel:lpg=yes; fuel:octane_95=yes;
    fuel:octane_98=yes; fuel:unleaded=yes; id=node/129949801</desc>
  </wpt>
  <wpt lat="35.8727456" lon="14.5171892">
    <ele>41.0</ele>
    <name>node/130126153</name>
    <desc>amenity=fuel; id=node/130126153</desc>
  </wpt>
  <wpt lat="35.8537088" lon="14.5248989">
    <ele>48.0</ele>
    <name>node/149370770</name>
    <desc>amenity=fuel; id=node/149370770</desc>
  </wpt>
  <wpt lat="35.8522687" lon="14.5230793">
    <ele>52.0</ele>
    <name>FBSS</name>
    <desc>amenity=fuel; name=FBSS; id=node/149371119</desc>
  </wpt>
  <wpt lat="36.0454808" lon="14.2374972">
    <ele>97.0</ele>
    <name>node/158573572</name>
    <desc>amenity=fuel; compressed_air=no; name:signed=no;
    id=node/158573572</desc>
  </wpt>
  <wpt lat="36.0402655" lon="14.2516203">
    <ele>68.0</ele>
    <name>node/261695222</name>
    <desc>amenity=fuel; id=node/261695222</desc>
  </wpt>
  <wpt lat="35.832562" lon="14.4807923">
    <ele>104.0</ele>
    <name>node/279158661</name>
    <desc>amenity=fuel; id=node/279158661</desc>
  </wpt>
  <wpt lat="35.9062304" lon="14.430953">
    <ele>80.0</ele>
    <name>Sambro Service Station</name>
    <desc>amenity=fuel; check_date=2025-08-26; name=Sambro Service
    Station; id=node/301490395</desc>
  </wpt>
  <wpt lat="35.9106832" lon="14.4241314">
    <ele>75.0</ele>
    <name>node/301490472</name>
    <desc>amenity=fuel; check_date=2025-08-26;
    id=node/301490472</desc>
  </wpt>
  <wpt lat="35.8592831" lon="14.4945195">
    <ele>69.0</ele>
    <name>node/301491835</name>
    <desc>amenity=fuel; id=node/301491835</desc>
  </wpt>
  <wpt lat="35.9553913" lon="14.3710575">
    <ele>118.0</ele>
    <name>Santa Marija Service Station</name>
    <desc>addr:city=Il-Mellieħa; addr:country=MT;
    addr:housenumber=268; addr:street=Triq il-Kbira; amenity=fuel;
    check_date=2025-08-11; name=Santa Marija Service Station;
    id=node/436544919</desc>
  </wpt>
  <wpt lat="35.8922529" lon="14.5082572">
    <ele>44.0</ele>
    <name>node/464517699</name>
    <desc>amenity=fuel; id=node/464517699</desc>
  </wpt>
  <wpt lat="35.8236691" lon="14.5286375">
    <ele>7.0</ele>
    <name>node/464518385</name>
    <desc>amenity=fuel; fuel:biodiesel=no; fuel:diesel=yes;
    fuel:unleaded=yes; id=node/464518385</desc>
  </wpt>
  <wpt lat="35.9117499" lon="14.4230487">
    <ele>72.0</ele>
    <name>Agip</name>
    <desc>amenity=fuel; brand=Agip; brand:wikidata=Q377915;
    check_date=2025-08-26; name=Agip; id=node/464709317</desc>
  </wpt>
  <wpt lat="35.908188" lon="14.490471">
    <ele>53.0</ele>
    <name>Regional Road Petrol Station</name>
    <desc>amenity=fuel; name=Regional Road Petrol Station;
    opening_hours=24/7; id=node/1043820261</desc>
  </wpt>
  <wpt lat="35.8926214" lon="14.4714575">
    <ele>53.0</ele>
    <name>Joem Pitstop</name>
    <desc>amenity=fuel; name=Joem Pitstop;
    id=node/1312748121</desc>
  </wpt>
  <wpt lat="35.8882398" lon="14.4743559">
    <ele>47.0</ele>
    <name>Skan Fuel Station</name>
    <desc>amenity=fuel; name=Skan Fuel Station;
    id=node/1313965430</desc>
  </wpt>
  <wpt lat="35.8899747" lon="14.4745792">
    <ele>56.0</ele>
    <name>Saint Joseph Service Station</name>
    <desc>amenity=fuel; name=Saint Joseph Service Station;
    id=node/1313965433</desc>
  </wpt>
  <wpt lat="35.919229" lon="14.3670646">
    <ele>106.0</ele>
    <name>node/1530678031</name>
    <desc>amenity=fuel; compressed_air=no;
    image=https://photos.app.goo.gl/PnJ8PacDJx54piNEA;
    id=node/1530678031</desc>
  </wpt>
  <wpt lat="35.9168579" lon="14.4554017">
    <ele>126.0</ele>
    <name>VC Service Station</name>
    <desc>amenity=fuel; name=VC Service Station;
    id=node/1561753387</desc>
  </wpt>
  <wpt lat="35.8965906" lon="14.4709112">
    <ele>30.0</ele>
    <name>Rizzo Petrol station (Duncan)</name>
    <desc>amenity=fuel; check_date=2025-08-28; compressed_air=yes;
    name=Rizzo Petrol station (Duncan); opening_hours=24/7;
    id=node/1830633724</desc>
  </wpt>
  <wpt lat="35.8941636" lon="14.478115">
    <ele>21.0</ele>
    <name>Didi Petrol Station</name>
    <desc>amenity=fuel; name=Didi Petrol Station;
    id=node/1830633731</desc>
  </wpt>
  <wpt lat="35.8750494" lon="14.5023243">
    <ele>8.0</ele>
    <name>node/1855513758</name>
    <desc>amenity=fuel; id=node/1855513758</desc>
  </wpt>
  <wpt lat="35.853879" lon="14.4386133">
    <ele>115.0</ele>
    <name>Mallia Petrol Station LTD</name>
    <desc>addr:city=Is-Siġġiewi; addr:country=MT;
    addr:housenumber=77; addr:postcode=SGW 1071; addr:street=Pjazza
    San Nikola; amenity=fuel; fuel:diesel=yes; fuel:unleaded=yes;
    name=Mallia Petrol Station LTD; opening_hours=Mo,We,Th,Fr,Sa
    06:00-17:00; payment:cash=yes; payment:revolut=yes;
    payment:v_pay=yes; payment:visa=yes; id=node/1995683292</desc>
  </wpt>
  <wpt lat="35.8563698" lon="14.5198458">
    <ele>47.0</ele>
    <name>J Micallef</name>
    <desc>amenity=fuel; building=yes; name=J Micallef;
    website=https://www.jmicallefgroup.com.mt/;
    id=node/2485617422</desc>
    <link href="https://www.jmicallefgroup.com.mt/"></link>
  </wpt>
  <wpt lat="35.9020957" lon="14.4936193">
    <ele>8.0</ele>
    <name>Paul &amp; Rocco</name>
    <desc>amenity=fuel; check_date=2025-08-23; name=Paul &amp;
    Rocco; id=node/2804607475</desc>
  </wpt>
  <wpt lat="35.8833931" lon="14.4034497">
    <ele>197.0</ele>
    <name>node/2852052539</name>
    <desc>amenity=fuel; id=node/2852052539</desc>
  </wpt>
  <wpt lat="35.9055277" lon="14.4333781">
    <ele>83.0</ele>
    <name>J. Vella Service Station</name>
    <desc>amenity=fuel; check_date=2025-08-26; name=J. Vella
    Service Station; id=node/2871062352</desc>
  </wpt>
  <wpt lat="35.8753476" lon="14.4704428">
    <ele>42.0</ele>
    <name>node/3434943080</name>
    <desc>amenity=fuel; compressed_air=yes;
    id=node/3434943080</desc>
  </wpt>
  <wpt lat="36.0240019" lon="14.2968441">
    <ele>11.0</ele>
    <name>node/3969466016</name>
    <desc>amenity=fuel; id=node/3969466016</desc>
  </wpt>
  <wpt lat="36.0339975" lon="14.2639202">
    <ele>104.0</ele>
    <name>Attard fuel</name>
    <desc>amenity=fuel; name=Attard fuel; id=node/3984758757</desc>
  </wpt>
  <wpt lat="35.914833" lon="14.4960995">
    <ele>15.0</ele>
    <name>node/4253101013</name>
    <desc>amenity=fuel; compressed_air=no;
    id=node/4253101013</desc>
  </wpt>
  <wpt lat="35.8990204" lon="14.4571128">
    <ele>48.0</ele>
    <name>Falzon Service Station Ltd.</name>
    <desc>amenity=fuel; check_date=2025-08-28; compressed_air=no;
    name=Falzon Service Station Ltd.; id=node/4367781597</desc>
  </wpt>
  <wpt lat="35.8869227" lon="14.4314169">
    <ele>91.0</ele>
    <name>Pit Stop</name>
    <desc>amenity=fuel; name=Pit Stop; id=node/4588957289</desc>
  </wpt>
  <wpt lat="36.0261043" lon="14.2858747">
    <ele>76.0</ele>
    <name>node/4979428019</name>
    <desc>amenity=fuel; id=node/4979428019</desc>
  </wpt>
  <wpt lat="35.9473471" lon="14.4073897">
    <ele>22.0</ele>
    <name>Agip</name>
    <desc>amenity=fuel; brand=Agip; brand:wikidata=Q377915;
    check_date=2025-09-03; compressed_air=no; name=Agip;
    id=node/5009419348</desc>
  </wpt>
  <wpt lat="35.8569592" lon="14.4689351">
    <ele>72.0</ele>
    <name>node/5022996524</name>
    <desc>amenity=fuel; id=node/5022996524</desc>
  </wpt>
  <wpt lat="35.8924702" lon="14.5015544">
    <ele>33.0</ele>
    <name>Police Fuel Station</name>
    <desc>amenity=fuel; check_date=2025-08-09; compressed_air=yes;
    name=Police Fuel Station; id=node/5046622705</desc>
  </wpt>
  <wpt lat="36.0431562" lon="14.2472613">
    <ele>81.0</ele>
    <name>Vella Service Station</name>
    <desc>amenity=fuel; compressed_air=yes; name=Vella Service
    Station; id=node/5273704983</desc>
  </wpt>
  <wpt lat="36.04975" lon="14.2640656">
    <ele>141.0</ele>
    <name>denfar</name>
    <desc>amenity=fuel; compressed_air=no; name=denfar;
    id=node/5315293655</desc>
  </wpt>
  <wpt lat="35.9332115" lon="14.4361557">
    <ele>35.0</ele>
    <name>node/5333600336</name>
    <desc>amenity=fuel; proposed=yes; id=node/5333600336</desc>
  </wpt>
  <wpt lat="35.8815786" lon="14.4944687">
    <ele>21.0</ele>
    <name>Paul &amp; Rocco</name>
    <desc>amenity=fuel; name=Paul &amp; Rocco;
    id=node/5334432861</desc>
  </wpt>
  <wpt lat="35.8813516" lon="14.4944979">
    <ele>21.0</ele>
    <name>node/5334432862</name>
    <desc>amenity=fuel; id=node/5334432862</desc>
  </wpt>
  <wpt lat="35.8793584" lon="14.4792785">
    <ele>15.0</ele>
    <name>Mike Service Station</name>
    <desc>amenity=fuel; name=Mike Service Station;
    id=node/5590528861</desc>
  </wpt>
  <wpt lat="35.8735906" lon="14.4768496">
    <ele>21.0</ele>
    <name>J. Gaffarena Service Station</name>
    <desc>amenity=fuel; compressed_air=yes; name=J. Gaffarena
    Service Station; vending_machine=fuel;
    id=node/5590557848</desc>
  </wpt>
  <wpt lat="35.9012478" lon="14.4932157">
    <ele>10.0</ele>
    <name>Enemed Falcon</name>
    <desc>amenity=fuel; check_date=2025-08-23; name=Enemed Falcon;
    id=node/5929186744</desc>
  </wpt>
  <wpt lat="35.9001366" lon="14.4920218">
    <ele>20.0</ele>
    <name>Enemed</name>
    <desc>amenity=fuel; check_date=2025-08-23; description=Car wash
    facilities available; name=Enemed; id=node/6203087978</desc>
  </wpt>
  <wpt lat="35.89477" lon="14.4838636">
    <ele>9.0</ele>
    <name>Ambassador</name>
    <desc>amenity=fuel; check_date=2025-08-28; compressed_air=no;
    name=Ambassador; id=node/6221527739</desc>
  </wpt>
  <wpt lat="35.8822826" lon="14.4022141">
    <ele>200.0</ele>
    <name>node/6324870606</name>
    <desc>amenity=fuel; id=node/6324870606</desc>
  </wpt>
  <wpt lat="35.8836158" lon="14.4033797">
    <ele>197.0</ele>
    <name>node/6324870607</name>
    <desc>amenity=fuel; compressed_air=no;
    id=node/6324870607</desc>
  </wpt>
  <wpt lat="35.8738913" lon="14.4497214">
    <ele>96.0</ele>
    <name>Auto Market</name>
    <desc>addr:street=Triq L-Imdina; amenity=fuel; name=Auto
    Market; opening_hours=24/7; id=node/6903953686</desc>
  </wpt>
  <wpt lat="35.9415064" lon="14.4113334">
    <ele>17.0</ele>
    <name>McQueen Service Station</name>
    <desc>addr:street=Triq Burmarrad; amenity=fuel;
    check_date=2025-08-21; compressed_air=yes; name=McQueen Service
    Station; id=node/7038329336</desc>
  </wpt>
  <wpt lat="35.8886332" lon="14.4983606">
    <ele>26.0</ele>
    <name>node/7257553412</name>
    <desc>amenity=fuel; compressed_air=yes;
    id=node/7257553412</desc>
  </wpt>
  <wpt lat="35.9042678" lon="14.4957232">
    <ele>12.0</ele>
    <name>Manoel Island Service Station</name>
    <desc>addr:city=Il-Gżira; addr:country=MT; addr:postcode=GZR
    1023; addr:street=The Strand; amenity=fuel;
    check_date=2025-08-23; fuel:diesel=yes; fuel:octane_98=yes;
    name=Manoel Island Service Station; id=node/8675534730</desc>
  </wpt>
  <wpt lat="35.9142266" lon="14.4442001">
    <ele>129.0</ele>
    <name>node/9913814509</name>
    <desc>amenity=fuel; check_date=2025-08-26;
    id=node/9913814509</desc>
  </wpt>
  <wpt lat="36.0240828" lon="14.2980101">
    <ele>5.0</ele>
    <name>node/12106505302</name>
    <desc>amenity=fuel; compressed_air=no;
    id=node/12106505302</desc>
  </wpt>
  <wpt lat="35.9231475" lon="14.4786736">
    <ele>48.0</ele>
    <name>Central Service Station</name>
    <desc>addr:city=Is-Swieqi; addr:street=Triq Sant' Andrija;
    alt_name=Wembley; amenity=fuel; brand=Enemed; fuel:diesel=yes;
    fuel:unleaded=yes; name=Central Service Station;
    self_service=yes; id=node/12369589542; ;
    id=way/1382503773</desc>
  </wpt>
  <wpt lat="35.8888912" lon="14.4987692">
    <ele>26.0</ele>
    <name>Micheal Attard Services Limited</name>
    <desc>amenity=fuel; check_date=2025-08-09; compressed_air=yes;
    name=Micheal Attard Services Limited; opening_hours=24/7;
    id=node/12828769217</desc>
  </wpt>
  <wpt lat="35.9362473" lon="14.4133669">
    <ele>12.0</ele>
    <name>Enemed</name>
    <desc>amenity=fuel; check_date=2025-08-21; name=Enemed;
    id=node/13086290058</desc>
  </wpt>
  <wpt lat="35.86297825" lon="14.511203049999999">
    <ele>55.0</ele>
    <name>way/24209284</name>
    <desc>amenity=fuel; fuel:biogas=no; fuel:diesel=yes;
    fuel:electricity=no; fuel:lpg=no; id=way/24209284</desc>
  </wpt>
  <wpt lat="35.84808495" lon="14.525714458543217">
    <ele>59.0</ele>
    <name>JCC</name>
    <desc>amenity=fuel; fuel:1_25=no; fuel:diesel=yes;
    fuel:electricity=no; fuel:lpg=no; name=JCC;
    id=way/138250625</desc>
  </wpt>
  <wpt lat="35.8985146" lon="14.409586838716496">
    <ele>92.0</ele>
    <name>J. Micallef Service Station</name>
    <desc>amenity=fuel; car_wash=yes; compressed_air=yes;
    landuse=retail; name=J. Micallef Service Station;
    opening_hours=24/7; wheelchair=yes; id=way/138395870</desc>
  </wpt>
  <wpt lat="35.89279285" lon="14.451474897453455">
    <ele>61.0</ele>
    <name>Citroën</name>
    <desc>amenity=fuel; name=Citroën; id=way/138462112</desc>
  </wpt>
  <wpt lat="35.955630600000006" lon="14.358485254544652">
    <ele>138.0</ele>
    <name>M. T. Services Ltd</name>
    <desc>amenity=fuel; check_date=2025-05-23; name=M. T. Services
    Ltd; id=way/138969427</desc>
  </wpt>
  <wpt lat="35.94556785" lon="14.41024515115178">
    <ele>24.0</ele>
    <name>Nick's</name>
    <desc>amenity=fuel; check_date=2025-08-21; compressed_air=no;
    name=Nick's; id=way/138969448</desc>
  </wpt>
  <wpt lat="35.94490175" lon="14.410034625257731">
    <ele>18.0</ele>
    <name>Dad's Service Station</name>
    <desc>amenity=fuel; check_date=2025-08-21; compressed_air=yes;
    name=Dad's Service Station; id=way/138969470</desc>
  </wpt>
  <wpt lat="35.85357235" lon="14.525053992456312">
    <ele>49.0</ele>
    <name>Cassar Service Station</name>
    <desc>amenity=fuel; building=yes; fuel:diesel=yes; name=Cassar
    Service Station; id=way/146027806</desc>
  </wpt>
  <wpt lat="35.835115200000004" lon="14.474662497711087">
    <ele>88.0</ele>
    <name>G. Camilleri Service Station</name>
    <desc>amenity=fuel; building=yes; name=G. Camilleri Service
    Station; id=way/260315342</desc>
  </wpt>
  <wpt lat="35.86393855" lon="14.48952733082885">
    <ele>59.0</ele>
    <name>way/391158955</name>
    <desc>amenity=fuel; id=way/391158955</desc>
  </wpt>
  <wpt lat="35.87930525" lon="14.479339803944619">
    <ele>15.0</ele>
    <name>way/411232272</name>
    <desc>amenity=fuel; id=way/411232272</desc>
  </wpt>
  <wpt lat="35.879138850000004" lon="14.478422192987516">
    <ele>15.0</ele>
    <name>way/469742853</name>
    <desc>amenity=fuel; id=way/469742853</desc>
  </wpt>
  <wpt lat="35.8587659" lon="14.49132045">
    <ele>76.0</ele>
    <name>Shell</name>
    <desc>amenity=fuel; brand=Shell; brand:wikidata=Q110716465;
    brand:wikipedia=en:Royal Dutch Shell; name=Shell;
    id=way/529334007</desc>
  </wpt>
  <wpt lat="36.03468915" lon="14.262480026514456">
    <ele>98.0</ele>
    <name>way/543264902</name>
    <desc>amenity=fuel; id=way/543264902</desc>
  </wpt>
  <wpt lat="36.043370800000005" lon="14.245331449710818">
    <ele>77.0</ele>
    <name>way/550793912</name>
    <desc>amenity=fuel; id=way/550793912</desc>
  </wpt>
  <wpt lat="35.85588275" lon="14.488038725914286">
    <ele>77.0</ele>
    <name>F&amp;A MAGRI</name>
    <desc>amenity=fuel; name=F&amp;A MAGRI; id=way/682759042</desc>
  </wpt>
  <wpt lat="35.8939435" lon="14.507455475210737">
    <ele>39.0</ele>
    <name>way/777802486</name>
    <desc>amenity=fuel; building=roof; check_date=2025-08-28;
    id=way/777802486</desc>
  </wpt>
  <wpt lat="35.9051262" lon="14.440638153719807">
    <ele>71.0</ele>
    <name>Cassar</name>
    <desc>amenity=fuel; check_date=2025-06-24; compressed_air=yes;
    fuel:diesel=yes; fuel:petrol=yes; name=Cassar;
    opening_hours=24/7; id=way/903017528</desc>
  </wpt>
  <wpt lat="35.911266" lon="14.487065141518897">
    <ele>49.0</ele>
    <name>way/1142412447</name>
    <desc>amenity=fuel; id=way/1142412447</desc>
  </wpt>
  <wpt lat="35.86281945" lon="14.551846636239409">
    <ele>23.0</ele>
    <name>way/1154445428</name>
    <desc>amenity=fuel; building=yes; id=way/1154445428</desc>
  </wpt>
  <wpt lat="35.85106155" lon="14.493132138587027">
    <ele>75.0</ele>
    <name>Gauci Fuels</name>
    <desc>amenity=fuel; brand=Enemed; name=Gauci Fuels;
    phone=79967777; website=https://www.gaucifuels.com/;
    id=way/1166321867</desc>
    <link href="https://www.gaucifuels.com/"></link>
  </wpt>
  <wpt lat="35.90140545" lon="14.486209855749237">
    <ele>42.0</ele>
    <name>JOEM service station</name>
    <desc>amenity=fuel; check_date=2025-07-16; compressed_air=yes;
    name=JOEM service station; opening_hours=Mo-Su,PH 00:00-12:00+;
    source=microsoft/BuildingFootprints; id=way/1238254987</desc>
  </wpt>
</gpx>
