<?xml version="1.0" encoding="utf-8"?>
<gpx xmlns="http://www.topografix.com/GPX/1/1"
xmlns:xsi="http://www.w3.org/2001/XMLSchema-instance"
xsi:schemaLocation="http://www.topografix.com/GPX/1/1 http://www.topografix.com/GPX/1/1/gpx.xsd"
version="1.1" creator="togpx">
  <metadata>
    <copyright>
      <license>"osm3s": { "timestamp_osm_base":
      "2025-07-07T17:43:36Z", "timestamp_areas_base":
      "2025-07-07T15:06:26Z", "copyright": "The data included in
      this document is from www.openstreetmap.org. The data is made
      available under ODbL." } // SRTM: { Elevation data missing in
      OSM was added by the NASA Shuttle Radar Topography Mission as
      public release version, if available there. } // { Check for
      latest version of this file on:
      https://github.com/GpxFeed/campgrounds }</license>
    </copyright>
  </metadata>
  <wpt lat="35.8222571" lon="14.473736">
    <ele>138.0</ele>
    <name>L-Iscouts taż-Żurrieq</name>
    <desc>name=L-Iscouts taż-Żurrieq; name:en=Żurrieq Scout Group
    Headquarters; tourism=camp_site; wheelchair=limited;
    id=node/1462464945</desc>
  </wpt>
  <wpt lat="35.8197479" lon="14.4553694">
    <ele>30.0</ele>
    <name>wild camping</name>
    <desc>name=wild camping; name:fr=camping sauvage;
    tourism=camp_site; id=node/5854458085</desc>
  </wpt>
  <wpt lat="35.9068245" lon="14.3419152">
    <ele>25.0</ele>
    <name>Wild Camp</name>
    <desc>fixme=access; Clips in the area have collapsed, access
    from the western side is there, not sure about access from the
    eastern side; name=Wild Camp; name:fr=Camping Sauvage;
    tourism=camp_site; id=node/5856365585</desc>
  </wpt>
  <wpt lat="36.0483251" lon="14.1916189">
    <ele>7.0</ele>
    <name>Wild Camp</name>
    <desc>caravans=no; name=Wild Camp; name:fr=Camping Sauvage;
    shower=no; tents=yes; tourism=camp_site;
    id=node/5859403285</desc>
  </wpt>
  <wpt lat="35.9165122" lon="14.4091347">
    <ele>66.0</ele>
    <name>Mosta Scouts Group Campsite</name>
    <desc>name=Mosta Scouts Group Campsite; tourism=camp_site;
    id=node/10863592078</desc>
  </wpt>
  <wpt lat="36.04835" lon="14.3162542">
    <ele>9.0</ele>
    <name>node/12116987016</name>
    <desc>tourism=camp_site; id=node/12116987016</desc>
  </wpt>
  <wpt lat="35.995089" lon="14.366969384056286">
    <ele>7.0</ele>
    <name>Adventure Campsite</name>
    <desc>camp_site=basic; name=Adventure Campsite; phone=+356
    21521105; tourism=camp_site; id=way/275675342</desc>
  </wpt>
  <wpt lat="35.9362744" lon="14.34433519067088">
    <ele>29.0</ele>
    <name>Għajn Tuffieħa Scout Campsite</name>
    <desc>access=customers; fee=yes; name=Għajn Tuffieħa Scout
    Campsite; operator=The Scout Association Of Malta;
    payment:online_booking=yes; power_supply=yes;
    reservation=required; shower=yes; toilets=yes;
    tourism=camp_site; website=https://campsite.mt/;
    id=way/313275635</desc>
    <link href="https://campsite.mt/"></link>
  </wpt>
  <wpt lat="36.01361265" lon="14.326549911288183">
    <ele>27.0</ele>
    <name>Tal-Ful Campsite</name>
    <desc>backcountry=yes; caravans=no; fee=no; name=Tal-Ful
    Campsite; openfire=no; reservation=no;
    sanitary_dump_station=no; static_caravans=no; tents=yes;
    toilets=no; tourism=camp_site; id=way/1380408466</desc>
  </wpt>
</gpx>
