<?xml version="1.0" encoding="utf-8"?>
<gpx xmlns="http://www.topografix.com/GPX/1/1"
xmlns:xsi="http://www.w3.org/2001/XMLSchema-instance"
xsi:schemaLocation="http://www.topografix.com/GPX/1/1 http://www.topografix.com/GPX/1/1/gpx.xsd"
version="1.1" creator="togpx">
  <metadata>
    <copyright>
      <license>"osm3s": { "timestamp_osm_base":
      "2025-09-09T08:15:33Z", "timestamp_areas_base":
      "2025-09-09T06:43:26Z", "copyright": "The data included in
      this document is from www.openstreetmap.org. The data is made
      available under ODbL." } // SRTM: { Elevation data missing in
      OSM was added by the NASA Shuttle Radar Topography Mission as
      public release version, if available there. } // { Check for
      latest version of this file on:
      https://github.com/GpxFeed/campgrounds }</license>
    </copyright>
  </metadata>
  <wpt lat="42.4400531" lon="19.2260085">
    <ele>39.0</ele>
    <name>ĐURIŠIĆI</name>
    <desc>name=ĐURIŠIĆI; tourism=caravan_site;
    id=node/4183229689</desc>
  </wpt>
  <wpt lat="42.4089383" lon="18.7691964">
    <ele>160.0</ele>
    <name>node/4290310194</name>
    <desc>tourism=caravan_site; id=node/4290310194</desc>
  </wpt>
  <wpt lat="42.4206521" lon="18.7664223">
    <ele>5.0</ele>
    <name>node/5939869989</name>
    <desc>name:en=free parking; tourism=caravan_site;
    id=node/5939869989</desc>
  </wpt>
  <wpt lat="43.1515749" lon="19.102491">
    <ele>1426.0</ele>
    <name>node/6043826605</name>
    <desc>tourism=caravan_site; id=node/6043826605</desc>
  </wpt>
  <wpt lat="42.4209943" lon="18.7053469">
    <ele>2.0</ele>
    <name>node/6793981586</name>
    <desc>name:en=Bova; name:uk=Бова; tourism=caravan_site;
    id=node/6793981586</desc>
  </wpt>
  <wpt lat="42.8514615" lon="18.9160781">
    <ele>709.0</ele>
    <name>node/6802499689</name>
    <desc>tourism=caravan_site; id=node/6802499689</desc>
  </wpt>
  <wpt lat="42.2872608" lon="18.8104589">
    <ele>125.0</ele>
    <name>node/9045747517</name>
    <desc>tourism=caravan_site; id=node/9045747517</desc>
  </wpt>
  <wpt lat="42.9722397" lon="19.5331039">
    <ele>812.0</ele>
    <name>https://www.campscepanovic.com/en</name>
    <desc>access=customers; description=Parking in the Camp
    Scepanovic. Possible accommodation: at campsite with tents,
    bungalows, RVs and apartments.Facilities: WIFI, toilet, shower,
    playground for kids, volleyball.; drinking_water=yes; food=yes;
    internet_access=yes; pets_allowed=yes; power=connection;
    sport=volleyball; toilets=yes; tourism=caravan_site;
    website=https://www.campscepanovic.com/en;
    id=node/9893675430</desc>
    <link href="https://www.campscepanovic.com/en"></link>
  </wpt>
  <wpt lat="42.4873585" lon="18.6614169">
    <ele>1.0</ele>
    <name>Kamp Tomanović</name>
    <desc>internet_access=wlan; name=Kamp Tomanović; name:en=Camp
    Tomanovic; name:sr=Камп Томановић; tents=yes;
    tourism=caravan_site; id=node/10044241769</desc>
  </wpt>
  <wpt lat="41.9086176" lon="19.2505039">
    <ele>3.0</ele>
    <name>Autocamping Miami</name>
    <desc>internet_access=wlan; name=Autocamping Miami;
    tourism=caravan_site; id=node/10945064306</desc>
  </wpt>
  <wpt lat="42.6059632" lon="19.9289298">
    <ele>910.0</ele>
    <name>Plav Lake Camping</name>
    <desc>addr:city=Plav; addr:housenumber=bb; addr:postcode=84325;
    addr:street=Zioci; internet_access=yes; name=Plav Lake Camping;
    sanitary_dump_station=yes; tourism=caravan_site;
    id=node/11954897423</desc>
  </wpt>
  <wpt lat="42.35544915" lon="19.02915486959172">
    <ele>10.0</ele>
    <name>relation/17330325</name>
    <desc>natural=wetland; seasonal=yes; tourism=caravan_site;
    type=multipolygon; wetland=wet_meadow;
    id=relation/17330325</desc>
  </wpt>
  <wpt lat="42.0098288" lon="19.151448195022184">
    <ele>3.0</ele>
    <name>Auto Kamp Utjeha</name>
    <desc>contact:phone=+38269622774; name=Auto Kamp Utjeha;
    tents=yes; tourism=caravan_site; type=multipolygon;
    website=http://campingutjeha.com/; id=relation/17330467</desc>
    <link href="http://campingutjeha.com/"></link>
  </wpt>
  <wpt lat="41.90378855" lon="19.267267427753048">
    <ele>1.0</ele>
    <name>Safari Beach</name>
    <desc>name=Safari Beach; tourism=caravan_site;
    id=way/308644695</desc>
  </wpt>
</gpx>
