<?xml version="1.0" encoding="utf-8"?>
<gpx xmlns="http://www.topografix.com/GPX/1/1"
xmlns:xsi="http://www.w3.org/2001/XMLSchema-instance"
xsi:schemaLocation="http://www.topografix.com/GPX/1/1 http://www.topografix.com/GPX/1/1/gpx.xsd"
version="1.1" creator="togpx">
  <metadata>
    <copyright>
      <license>"osm3s": { "timestamp_osm_base":
      "2025-10-01T10:22:01Z", "timestamp_areas_base":
      "2025-10-01T08:24:35Z", "copyright": "The data included in
      this document is from www.openstreetmap.org. The data is made
      available under ODbL." } // SRTM: { Elevation data missing in
      OSM was added by the NASA Shuttle Radar Topography Mission as
      public release version, if available there. } // { Check for
      latest version of this file on:
      https://github.com/GpxFeed/campgrounds }</license>
    </copyright>
  </metadata>
  <wpt lat="62.4765966" lon="6.1595271">
    <name>Hjelsetgården bobilparkering</name>
    <desc>capacity=50; caravans=no; fee=yes; internet_access=wlan;
    internet_access:fee=no; name=Hjelsetgården bobilparkering;
    payment:cards=yes; payment:cash=yes; payment:easypark=yes;
    payment:flexipark=yes; power_supply=yes; reservation=no;
    sanitary_dump_station=yes; shower=yes; tents=no; toilets=yes;
    tourism=caravan_site;
    website=https://www.alesundbobil.no/parkering/hjelsetgarden-bobilparkering/;
    id=node/26861403</desc>
    <link href="https://www.alesundbobil.no/parkering/hjelsetgarden-bobilparkering/">
    </link>
  </wpt>
  <wpt lat="62.9785991" lon="8.7211883">
    <name>Brekkøya camping</name>
    <desc>created_by=JOSM; name=Brekkøya camping;
    tourism=caravan_site; id=node/258827258</desc>
  </wpt>
  <wpt lat="67.3241281" lon="14.4809362">
    <name>node/267751126</name>
    <desc>tourism=caravan_site; id=node/267751126</desc>
  </wpt>
  <wpt lat="61.2722395" lon="4.9463254">
    <name>node/268920424</name>
    <desc>tourism=caravan_site; id=node/268920424</desc>
  </wpt>
  <wpt lat="59.6006937" lon="10.4050825">
    <ele>10.0</ele>
    <name>Homannsberget Camping</name>
    <desc>created_by=Merkaartor 0.12; name=Homannsberget Camping;
    tourism=caravan_site; id=node/323126696; ; area=yes;
    source=Yahoo! Aerial Imagery; id=way/35072156</desc>
  </wpt>
  <wpt lat="60.4953672" lon="10.0710095">
    <name>node/364965159</name>
    <desc>tourism=caravan_site; id=node/364965159</desc>
  </wpt>
  <wpt lat="60.4392037" lon="10.0945219">
    <name>node/364965161</name>
    <desc>tourism=caravan_site; id=node/364965161</desc>
  </wpt>
  <wpt lat="65.0809093" lon="11.6973023">
    <name>Leka camping</name>
    <desc>drinking_water=yes; fee=yes; name=Leka camping;
    sanitary_dump_station=yes; toilets=yes; tourism=caravan_site;
    id=node/450253651</desc>
  </wpt>
  <wpt lat="64.4463075" lon="13.7204348">
    <name>Lierne gjestegård</name>
    <desc>name=Lierne gjestegård; tourism=caravan_site;
    id=node/458970568</desc>
  </wpt>
  <wpt lat="69.6298479" lon="18.0305543">
    <name>node/841835050</name>
    <desc>fee=no; tourism=caravan_site; id=node/841835050</desc>
  </wpt>
  <wpt lat="61.5136594" lon="8.8522768">
    <name>node/844491665</name>
    <desc>tourism=caravan_site; id=node/844491665</desc>
  </wpt>
  <wpt lat="62.1893628" lon="6.1203343">
    <name>Ørsta Camping</name>
    <desc>email=booking@orstacamping.no; name=Ørsta Camping;
    tourism=caravan_site; website=https://www.orstacamping.no/;
    id=node/860965671</desc>
    <link href="https://www.orstacamping.no/"></link>
  </wpt>
  <wpt lat="61.8477784" lon="9.425154">
    <name>node/892234748</name>
    <desc>tourism=caravan_site; id=node/892234748</desc>
  </wpt>
  <wpt lat="62.8267127" lon="9.7030782">
    <name>Granasjøen</name>
    <desc>name=Granasjøen; tourism=caravan_site;
    id=node/942875719</desc>
  </wpt>
  <wpt lat="60.8429152" lon="5.1704441">
    <name>Nautesund</name>
    <desc>name=Nautesund; tourism=caravan_site;
    id=node/973567430</desc>
  </wpt>
  <wpt lat="68.4126207" lon="16.0081503">
    <name>Lødingen Bobilcamp</name>
    <desc>drinking_water=yes; fee=yes; internet_access=wlan;
    name=Lødingen Bobilcamp; opening_hours=24/7; power_supply=yes;
    sanitary_dump_station=yes; toilets=yes; tourism=caravan_site;
    id=node/1089045766</desc>
  </wpt>
  <wpt lat="58.4335909" lon="5.9772036">
    <ele>34.0</ele>
    <name>Hauen Camping</name>
    <desc>name=Hauen Camping; tourism=caravan_site;
    id=node/1172155199</desc>
  </wpt>
  <wpt lat="63.0170887" lon="8.3795723">
    <name>Bøfjorden camping</name>
    <desc>name=Bøfjorden camping; tourism=caravan_site;
    id=node/1231081366</desc>
  </wpt>
  <wpt lat="68.5900424" lon="17.2629551">
    <name>Annamo Camping</name>
    <desc>name=Annamo Camping; tourism=caravan_site;
    id=node/1311807544</desc>
  </wpt>
  <wpt lat="58.0941132" lon="6.8131878">
    <ele>4.0</ele>
    <name>Farsund Bobil Camp</name>
    <desc>fee=yes; name=Farsund Bobil Camp; power_supply=yes;
    tents=no; tourism=caravan_site; id=node/1349959037</desc>
  </wpt>
  <wpt lat="59.7456542" lon="6.1128828">
    <ele>5.0</ele>
    <name>Kyrping Camping</name>
    <desc>name=Kyrping Camping; toilets=no; tourism=caravan_site;
    id=node/1369285840</desc>
  </wpt>
  <wpt lat="58.9858829" lon="9.9758057">
    <ele>6.0</ele>
    <name>Stretere Camping</name>
    <desc>name=Stretere Camping; tourism=caravan_site;
    id=node/1404491039; ; id=way/126777810</desc>
  </wpt>
  <wpt lat="58.985905" lon="9.9697117">
    <ele>8.0</ele>
    <name>Kolbensrød Camping</name>
    <desc>name=Kolbensrød Camping; tourism=caravan_site;
    id=node/1404491139</desc>
  </wpt>
  <wpt lat="61.6491906" lon="10.0924063">
    <name>Lundecamp</name>
    <desc>name=Lundecamp; tourism=caravan_site;
    id=node/1430253210</desc>
  </wpt>
  <wpt lat="67.0991806" lon="16.0674739">
    <name>Sulitjelma Turistsenter</name>
    <desc>name=Sulitjelma Turistsenter; tourism=caravan_site;
    id=node/1433033552</desc>
  </wpt>
  <wpt lat="59.1112891" lon="9.7118535">
    <ele>4.0</ele>
    <name>Olavsberget</name>
    <desc>name=Olavsberget; tourism=caravan_site;
    id=node/1463006233</desc>
  </wpt>
  <wpt lat="63.4920869" lon="10.779216">
    <name>Vinge</name>
    <desc>name=Vinge; tourism=caravan_site;
    id=node/1482309414</desc>
  </wpt>
  <wpt lat="58.7365535" lon="8.4934864">
    <ele>150.0</ele>
    <name>Sigridnes Camping</name>
    <desc>name=Sigridnes Camping; tourism=caravan_site;
    id=node/1494516640</desc>
  </wpt>
  <wpt lat="59.7550198" lon="9.3619636">
    <ele>686.0</ele>
    <name>node/1572492379</name>
    <desc>tourism=caravan_site; id=node/1572492379</desc>
  </wpt>
  <wpt lat="65.2665414" lon="13.3375151">
    <name>node/1668436214</name>
    <desc>tourism=caravan_site; id=node/1668436214</desc>
  </wpt>
  <wpt lat="62.0412518" lon="5.3562059">
    <name>Selje Camping</name>
    <desc>name=Selje Camping; tourism=caravan_site;
    id=node/1693367502</desc>
  </wpt>
  <wpt lat="63.6425391" lon="10.1887119">
    <name>node/1709220188</name>
    <desc>tourism=caravan_site; id=node/1709220188</desc>
  </wpt>
  <wpt lat="60.4177208" lon="12.4016678">
    <name>Finnskogen kro og motell</name>
    <desc>name=Finnskogen kro og motell; tourism=caravan_site;
    id=node/1709333663</desc>
  </wpt>
  <wpt lat="70.0618501" lon="21.9299522">
    <name>node/1795635147</name>
    <desc>fee=yes; tourism=caravan_site; id=node/1795635147</desc>
  </wpt>
  <wpt lat="68.8161247" lon="15.154021">
    <name>node/1798733544</name>
    <desc>tourism=caravan_site; id=node/1798733544</desc>
  </wpt>
  <wpt lat="63.2459939" lon="8.282204">
    <name>node/1822742301</name>
    <desc>capacity:caravans=4; tourism=caravan_site;
    id=node/1822742301</desc>
  </wpt>
  <wpt lat="60.9972481" lon="8.9887999">
    <name>Vaset Camping</name>
    <desc>alt_name=Vasetsenteret Camping; name=Vaset Camping;
    source=survey; tourism=caravan_site; id=node/1827725359</desc>
  </wpt>
  <wpt lat="63.7398888" lon="11.2782466">
    <name>Levanger Camping &amp; Fritidspark Moan AS</name>
    <desc>drinking_water=yes; fee=yes; name=Levanger Camping &amp;
    Fritidspark Moan AS; power_supply=yes;
    sanitary_dump_station=yes; toilets=yes; tourism=caravan_site;
    id=node/1902791511</desc>
  </wpt>
  <wpt lat="62.7823549" lon="7.8871794">
    <name>node/1913248994</name>
    <desc>tourism=caravan_site; id=node/1913248994</desc>
  </wpt>
  <wpt lat="66.0034144" lon="13.4259364">
    <name>node/1979785977</name>
    <desc>tourism=caravan_site; id=node/1979785977</desc>
  </wpt>
  <wpt lat="66.002406" lon="13.4294684">
    <name>node/1979785980</name>
    <desc>tourism=caravan_site; id=node/1979785980</desc>
  </wpt>
  <wpt lat="59.0783724" lon="10.2627964">
    <ele>6.0</ele>
    <name>node/2175600268</name>
    <desc>designation=Langeby Camping; tourism=caravan_site;
    id=node/2175600268; ; id=way/207356928</desc>
  </wpt>
  <wpt lat="60.4490414" lon="10.6410174">
    <name>Lygna Camp</name>
    <desc>name=Lygna Camp; tourism=caravan_site;
    id=node/2232705536</desc>
  </wpt>
  <wpt lat="69.2076664" lon="20.6992173">
    <name>node/2493097054</name>
    <desc>tourism=caravan_site; id=node/2493097054</desc>
  </wpt>
  <wpt lat="69.1999116" lon="20.708719">
    <name>node/2493097072</name>
    <desc>tourism=caravan_site; id=node/2493097072</desc>
  </wpt>
  <wpt lat="65.3699353" lon="12.1496138">
    <name>node/2619814842</name>
    <desc>tourism=caravan_site; id=node/2619814842</desc>
  </wpt>
  <wpt lat="65.39252" lon="12.09806">
    <name>Torghatten</name>
    <desc>name=Torghatten; tourism=caravan_site;
    website=https://torghatten.net/; id=node/2923195206</desc>
    <link href="https://torghatten.net/"></link>
  </wpt>
  <wpt lat="59.3003732" lon="9.8254981">
    <ele>301.0</ele>
    <name>node/3167372245</name>
    <desc>tourism=caravan_site; id=node/3167372245</desc>
  </wpt>
  <wpt lat="58.9850196" lon="10.0305654">
    <ele>16.0</ele>
    <name>Solplassen camping</name>
    <desc>name=Solplassen camping; tourism=caravan_site;
    id=node/3313262261</desc>
  </wpt>
  <wpt lat="66.2151222" lon="13.3773187">
    <name>Bardal Camping</name>
    <desc>name=Bardal Camping; source=http://bardalcamping.no/;
    tourism=caravan_site; id=node/3412222293</desc>
    <link href="http://bardalcamping.no/"></link>
  </wpt>
  <wpt lat="66.2030955" lon="13.0249546">
    <name>node/3412227946</name>
    <desc>source=http://www.havblikknesna.no; tourism=caravan_site;
    id=node/3412227946</desc>
    <link href="http://www.havblikknesna.no"></link>
  </wpt>
  <wpt lat="60.849695" lon="6.482191">
    <name>Bystøl Camping</name>
    <desc>name=Bystøl Camping; phone=+47 924 40 415;
    tourism=caravan_site;
    website=http://www.bystol-camping-myrkdalen.com;
    id=node/3663314542</desc>
    <link href="http://www.bystol-camping-myrkdalen.com"></link>
  </wpt>
  <wpt lat="69.094102" lon="17.624256">
    <name>Camp Solbergfjord</name>
    <desc>name=Camp Solbergfjord; phone=+47 979 58 808;
    tourism=caravan_site; id=node/3663314621</desc>
  </wpt>
  <wpt lat="60.81867" lon="11.045317">
    <name>Hedmarktoppen Camping</name>
    <desc>fee=yes; name=Hedmarktoppen Camping; phone=+47 62 51 93
    70; tents=no; toilets=no; tourism=caravan_site;
    website=https://www.hamar-hytteutleie.no/;
    id=node/3663315289</desc>
    <link href="https://www.hamar-hytteutleie.no/"></link>
  </wpt>
  <wpt lat="58.334126" lon="8.616028">
    <ele>9.0</ele>
    <name>Marivold Camping</name>
    <desc>check_date=2023-07-29; name=Marivold Camping; phone=+47
    37 25 70 50; stars=3; tourism=caravan_site;
    website=https://www.marivold.no/; id=node/3663315621</desc>
    <link href="https://www.marivold.no/"></link>
  </wpt>
  <wpt lat="61.2050515" lon="7.1987798">
    <name>Vesterland Ferieland</name>
    <desc>name=Vesterland Ferieland; tourism=caravan_site;
    website=https://www.vesterland.no/overnatting;
    id=node/3663317763</desc>
    <link href="https://www.vesterland.no/overnatting"></link>
  </wpt>
  <wpt lat="60.8536139" lon="9.1817432">
    <name>node/3674384826</name>
    <desc>tourism=caravan_site; id=node/3674384826</desc>
  </wpt>
  <wpt lat="61.0003111" lon="10.501853">
    <name>node/3677430863</name>
    <desc>tourism=caravan_site; id=node/3677430863</desc>
  </wpt>
  <wpt lat="61.7122333" lon="8.314525">
    <name>node/3684010466</name>
    <desc>tourism=caravan_site; id=node/3684010466</desc>
  </wpt>
  <wpt lat="61.4946263" lon="7.6022268">
    <name>Bolstad</name>
    <desc>name=Bolstad; tourism=caravan_site;
    id=node/3684010469</desc>
  </wpt>
  <wpt lat="62.2846926" lon="10.1341598">
    <name>Gammelsetervangen</name>
    <desc>name=Gammelsetervangen; tourism=caravan_site;
    id=node/3686091537</desc>
  </wpt>
  <wpt lat="68.6794756" lon="17.9137978">
    <name>Lapphaugen Turiststajon</name>
    <desc>name=Lapphaugen Turiststajon; tourism=caravan_site;
    wheelchair=yes; wheelchair:description=Haus 10 buchen;
    id=node/4211018689</desc>
  </wpt>
  <wpt lat="59.0686795" lon="10.2555638">
    <ele>8.0</ele>
    <name>Kværnstua</name>
    <desc>name=Kværnstua; operator=IOGT Sandefjord;
    tourism=caravan_site; id=node/4226129090</desc>
  </wpt>
  <wpt lat="62.1548157" lon="5.4331973">
    <name>Jachthafen Sandvik</name>
    <desc>amenity=toilets; capacity=10; drinking_water=yes;
    fee=yes; internet_access=no; name=Jachthafen Sandvik;
    power_supply=no; sanitary_dump_station=no;
    tourism=caravan_site; id=node/4301579801</desc>
  </wpt>
  <wpt lat="59.7392652" lon="9.4467992">
    <ele>589.0</ele>
    <name>Storli</name>
    <desc>name=Storli; tourism=caravan_site;
    id=node/4451447266</desc>
  </wpt>
  <wpt lat="60.0714839" lon="6.5484782">
    <ele>3.0</ele>
    <name>Camp Lothepus Bobilcamp</name>
    <desc>name=Camp Lothepus Bobilcamp; power_supply=yes;
    sanitary_dump_station=yes; tourism=caravan_site;
    id=node/4747404783</desc>
  </wpt>
  <wpt lat="58.0747668" lon="7.8234987">
    <ele>5.0</ele>
    <name>node/4787897595</name>
    <desc>power_supply=yes; tourism=caravan_site;
    id=node/4787897595</desc>
  </wpt>
  <wpt lat="68.7558525" lon="14.4755905">
    <name>node/4989902721</name>
    <desc>tourism=caravan_site; id=node/4989902721</desc>
  </wpt>
  <wpt lat="58.9108349" lon="6.0775976">
    <ele>10.0</ele>
    <name>node/4993198022</name>
    <desc>tourism=caravan_site; id=node/4993198022</desc>
  </wpt>
  <wpt lat="58.383014" lon="6.0569026">
    <ele>23.0</ele>
    <name>node/5043300112</name>
    <desc>fee=no; power_supply=no;
    sanitary_dump_station:chemical_toilet=no;
    sanitary_dump_station:grey_water=no; tourism=caravan_site;
    water_point=no; id=node/5043300112</desc>
  </wpt>
  <wpt lat="61.7655449" lon="6.5033001">
    <name>node/5049114766</name>
    <desc>fee=yes; power_supply=yes; tourism=caravan_site;
    id=node/5049114766</desc>
  </wpt>
  <wpt lat="64.1466757" lon="11.9462195">
    <name>node/5054537948</name>
    <desc>description=There are no camper-specific services. Just a
    quiet parking where there is a box to pay.; fee=50;
    tourism=caravan_site; id=node/5054537948</desc>
  </wpt>
  <wpt lat="65.0746218" lon="11.9517511">
    <name>node/5054558322</name>
    <desc>fee=yes; power_supply=yes; tourism=caravan_site;
    id=node/5054558322</desc>
  </wpt>
  <wpt lat="68.0139181" lon="15.3316148">
    <name>node/5091929563</name>
    <desc>fee=150; power_supply=yes; tourism=caravan_site;
    id=node/5091929563</desc>
  </wpt>
  <wpt lat="69.9067828" lon="21.3237542">
    <name>node/5108217514</name>
    <desc>fee=yes; tourism=caravan_site; id=node/5108217514</desc>
  </wpt>
  <wpt lat="59.051393" lon="5.676241">
    <ele>5.0</ele>
    <name>http://betal.sokncamping.no</name>
    <desc>email=post@sokncamping.no; internet_access=wlan;
    name:de=Sokn Camping; opening_hours=24/7; operator=Sokn Camping
    AS; tourism=caravan_site; website=http://betal.sokncamping.no;
    id=node/5700357721</desc>
    <link href="http://betal.sokncamping.no"></link>
  </wpt>
  <wpt lat="61.577099" lon="5.547975">
    <name>Endestad Camping</name>
    <desc>email=post@endestad-camping.no; name=Endestad Camping;
    operator=Hans Endestad; phone=+4740216571; tents=yes;
    tourism=caravan_site; website=https://www.endestad-camping.no/;
    id=node/5754675621</desc>
    <link href="https://www.endestad-camping.no/"></link>
  </wpt>
  <wpt lat="61.9817339" lon="5.2838176">
    <name>Skottneset Feriesenter</name>
    <desc>name=Skottneset Feriesenter; tents=yes;
    tourism=caravan_site; id=node/5775632554</desc>
  </wpt>
  <wpt lat="69.8727591" lon="29.3735026">
    <name>node/5838242685</name>
    <desc>name:en=Böygefjord; tourism=caravan_site;
    id=node/5838242685</desc>
  </wpt>
  <wpt lat="63.3308595" lon="10.3565496">
    <name>node/5851303042</name>
    <desc>tourism=caravan_site; id=node/5851303042</desc>
  </wpt>
  <wpt lat="63.8024142" lon="10.2300398">
    <name>node/5854169048</name>
    <desc>tourism=caravan_site; id=node/5854169048</desc>
  </wpt>
  <wpt lat="62.0939447" lon="9.2067725">
    <name>node/5909209385</name>
    <desc>name:de=Wohnwagenstellplatz; tourism=caravan_site;
    id=node/5909209385</desc>
  </wpt>
  <wpt lat="58.4584154" lon="8.7102644">
    <ele>39.0</ele>
    <name>node/5909209486</name>
    <desc>name:de=Wohnwagenstellplatz; tourism=caravan_site;
    id=node/5909209486</desc>
  </wpt>
  <wpt lat="59.9813072" lon="10.6683195">
    <ele>492.0</ele>
    <name>node/5909209487</name>
    <desc>name:signed=no; tourism=caravan_site;
    id=node/5909209487</desc>
  </wpt>
  <wpt lat="60.3208034" lon="5.3647396">
    <ele>65.0</ele>
    <name>Midttun Motel &amp; Camping</name>
    <desc>capacity=15; charge=350; drinking_water=yes; fee=yes;
    internet_access=wlan; internet_access:fee=no; name=Midttun
    Motel &amp; Camping; permanent_camping=no; power_supply=yes;
    sanitary_dump_station=yes; tents=no; toilets=yes;
    tourism=caravan_site; website=http://mmcamp.no/en;
    wheelchair=no; id=node/5983115043</desc>
    <link href="http://mmcamp.no/en"></link>
  </wpt>
  <wpt lat="58.2930686" lon="6.6634452">
    <ele>2.0</ele>
    <name>node/6568569053</name>
    <desc>capacity=36; fee=260 Kr; internet_access=no;
    power_supply=yes; sanitary_dump_station=yes;
    tourism=caravan_site; id=node/6568569053; ;
    id=way/708311617</desc>
  </wpt>
  <wpt lat="58.2289052" lon="6.5290882">
    <ele>3.0</ele>
    <name>node/6577524417</name>
    <desc>capacity=8; fee=yes; internet_access=no;
    power_supply=yes; tourism=caravan_site;
    id=node/6577524417</desc>
  </wpt>
  <wpt lat="60.2741176" lon="6.2495774">
    <ele>15.0</ele>
    <name>Jondal Båthamn</name>
    <desc>fee=250 kr; internet_access=wlan; internet_access:fee=no;
    name=Jondal Båthamn; power_supply=yes; tourism=caravan_site;
    id=node/6592091062</desc>
  </wpt>
  <wpt lat="59.6446444" lon="6.8022478">
    <ele>77.0</ele>
    <name>node/6593339349</name>
    <desc>capacity=6; charge=100 NOK; fee=yes; internet_access=no;
    power_supply=yes; sanitary_dump_station=no;
    tourism=caravan_site; id=node/6593339349</desc>
  </wpt>
  <wpt lat="60.4967212" lon="12.5553534">
    <name>node/6614629744</name>
    <desc>tourism=caravan_site; id=node/6614629744</desc>
  </wpt>
  <wpt lat="58.8465204" lon="6.2821189">
    <name>node/6720554185</name>
    <desc>capacity=20; fee=230NOK, 280NOK E incl.;
    internet_access=yes; internet_access:fee=no; power_supply=yes;
    reservation=no; sanitary_dump_station=yes;
    tourism=caravan_site; id=node/6720554185</desc>
  </wpt>
  <wpt lat="59.4832429" lon="11.6526948">
    <ele>129.0</ele>
    <name>Ørje bobilparkering</name>
    <desc>name=Ørje bobilparkering; tourism=caravan_site;
    id=node/6802559308</desc>
  </wpt>
  <wpt lat="59.124912" lon="10.2210617">
    <ele>3.0</ele>
    <name>Sandefjord bobilpark</name>
    <desc>capacity=14; charge=200 NOK/night; email=PBH@BI.NO;
    fee=yes; name=Sandefjord bobilpark; payment:credit_cards=yes;
    payment:vipps=yes; phone=+47 46508825; power_supply=yes;
    reservation=no; sanitary_dump_station=yes; shower=yes;
    toilets=yes; tourism=caravan_site; water_point=yes;
    website=https://www.visitnorway.no/listings/sandefjord-bobilpark/176533/;
    id=node/6805574915</desc>
    <link href="https://www.visitnorway.no/listings/sandefjord-bobilpark/176533/">
    </link>
  </wpt>
  <wpt lat="59.1849897" lon="9.5977217">
    <ele>40.0</ele>
    <name>Skien Fritidspark bobilparkering</name>
    <desc>name=Skien Fritidspark bobilparkering;
    tourism=caravan_site; id=node/6813603277</desc>
  </wpt>
  <wpt lat="59.8683805" lon="8.6918753">
    <ele>941.0</ele>
    <name>Langefonn Caravanpark</name>
    <desc>description=Seasonal rental only; name=Langefonn
    Caravanpark; tourism=caravan_site;
    website=https://www.facebook.com/langefonn.caravanpark/;
    id=node/6813603279</desc>
    <link href="https://www.facebook.com/langefonn.caravanpark/">
    </link>
  </wpt>
  <wpt lat="59.4454323" lon="8.0221975">
    <ele>96.0</ele>
    <name>Dalen Bobilcamp</name>
    <desc>drinking_water=yes; fee=yes; name=Dalen Bobilcamp;
    power_supply=yes; sanitary_dump_station=no; source=Acc6903;
    toilets=yes; tourism=caravan_site; id=node/6813603280</desc>
  </wpt>
  <wpt lat="58.8461908" lon="5.7356733">
    <ele>8.0</ele>
    <name>Sandnes bobilparkering</name>
    <desc>name=Sandnes bobilparkering; tourism=caravan_site;
    id=node/6815187497</desc>
  </wpt>
  <wpt lat="58.1386853" lon="7.6726471">
    <ele>195.0</ele>
    <name>node/7819536085</name>
    <desc>tourism=caravan_site; id=node/7819536085</desc>
  </wpt>
  <wpt lat="61.7691928" lon="4.8851542">
    <name>node/7826843211</name>
    <desc>tourism=caravan_site; id=node/7826843211</desc>
  </wpt>
  <wpt lat="62.5717087" lon="11.379191">
    <name>node/7844035785</name>
    <desc>name:en=Røros bobil camping; tourism=caravan_site;
    id=node/7844035785</desc>
  </wpt>
  <wpt lat="58.709963" lon="8.343096">
    <ele>180.0</ele>
    <name>Dølemo Bobilparkering</name>
    <desc>name=Dølemo Bobilparkering; tourism=caravan_site;
    id=node/8414230417</desc>
  </wpt>
  <wpt lat="59.299917" lon="11.658739">
    <ele>111.0</ele>
    <name>Bobilparkering Strømsfoss</name>
    <desc>cabins=yes; caravan_site=motorhome_stopover; caravans=no;
    fee=yes; name=Bobilparkering Strømsfoss; price=260 NOK per
    night; sanitary_dump_station=no; tourism=caravan_site;
    website=https://www.visitoestfold.com/no/overnatting/camping/?TLp=1332025&amp;Bobilparkering-Stromsfoss;
    id=node/8414282317</desc>
    <link href="https://www.visitoestfold.com/no/overnatting/camping/?TLp=1332025%26Bobilparkering-Stromsfoss">
    </link>
  </wpt>
  <wpt lat="60.750253" lon="4.995054">
    <name>Åvika</name>
    <desc>name=Åvika; tourism=caravan_site;
    id=node/8414328127</desc>
  </wpt>
  <wpt lat="59.918357" lon="5.315597">
    <ele>2.0</ele>
    <name>Fitjar</name>
    <desc>name=Fitjar; tourism=caravan_site;
    id=node/8414543417</desc>
  </wpt>
  <wpt lat="60.8972752" lon="5.5194207">
    <name>Joker</name>
    <desc>name=Joker; tourism=caravan_site;
    id=node/8414761617</desc>
  </wpt>
  <wpt lat="60.147982" lon="10.29329">
    <ele>185.0</ele>
    <name>Stall Lisletta</name>
    <desc>name=Stall Lisletta; tourism=caravan_site;
    id=node/8414795817</desc>
  </wpt>
  <wpt lat="59.489569" lon="10.32243">
    <ele>2.0</ele>
    <name>Hakan Bobilhavn</name>
    <desc>name=Hakan Bobilhavn; opening_hours=24/7;
    tourism=caravan_site; id=node/8414795917</desc>
  </wpt>
  <wpt lat="61.888033" lon="9.4902552">
    <name>Rondane Haukliseter Fjellhotell</name>
    <desc>name=Rondane Haukliseter Fjellhotell;
    tourism=caravan_site; id=node/8414900717</desc>
  </wpt>
  <wpt lat="59.74189" lon="5.235556">
    <ele>4.0</ele>
    <name>Kulleseidkanalen</name>
    <desc>name=Kulleseidkanalen; tourism=caravan_site;
    id=node/8416023617</desc>
  </wpt>
  <wpt lat="59.152872" lon="9.908002">
    <ele>34.0</ele>
    <name>Roppestad</name>
    <desc>name=Roppestad; nudism=yes; tourism=caravan_site;
    id=node/8416045117</desc>
  </wpt>
  <wpt lat="59.507152" lon="8.639719">
    <ele>178.0</ele>
    <name>Flatin Gard</name>
    <desc>name=Flatin Gard; tourism=caravan_site;
    id=node/8420610517</desc>
  </wpt>
  <wpt lat="63.012314" lon="7.428939">
    <name>node/8423240617</name>
    <desc>tourism=caravan_site; id=node/8423240617</desc>
  </wpt>
  <wpt lat="62.4692622" lon="6.0219381">
    <name>Godøy Småbåthavn</name>
    <desc>name=Godøy Småbåthavn; tourism=caravan_site;
    id=node/8423244118</desc>
  </wpt>
  <wpt lat="68.458024" lon="16.702559">
    <name>Evenes Lofoten</name>
    <desc>name=Evenes Lofoten; tourism=caravan_site;
    id=node/8426725717</desc>
  </wpt>
  <wpt lat="68.752699" lon="15.463197">
    <name>Maurnes småbåthavn</name>
    <desc>name=Maurnes småbåthavn; toilets=yes;
    tourism=caravan_site; id=node/8434253519</desc>
  </wpt>
  <wpt lat="69.864227" lon="21.411427">
    <name>Oksfjord Båtforening</name>
    <desc>name=Oksfjord Båtforening; tourism=caravan_site;
    id=node/8434354317</desc>
  </wpt>
  <wpt lat="59.8597907" lon="9.4300604">
    <ele>187.0</ele>
    <name>Haugen</name>
    <desc>name=Haugen; tourism=caravan_site;
    id=node/8919820018</desc>
  </wpt>
  <wpt lat="59.6016049" lon="5.2101903">
    <ele>6.0</ele>
    <name>Langevåg bobilparkering</name>
    <desc>fee=no; name=Langevåg bobilparkering;
    tourism=caravan_site; id=node/8926553087</desc>
  </wpt>
  <wpt lat="63.7435903" lon="10.0920045">
    <name>node/8971846819</name>
    <desc>tourism=caravan_site; id=node/8971846819</desc>
  </wpt>
  <wpt lat="66.7887987" lon="15.7057401">
    <name>Skaiti Fjellcamp og Fjellteneste</name>
    <desc>capacity=70; fee=yes; name=Skaiti Fjellcamp og
    Fjellteneste; phone=+47 478 56 376; power_supply=yes;
    tents=yes; tourism=caravan_site;
    website=https://www.skaitifjellcamp.no/;
    id=node/9445232290</desc>
    <link href="https://www.skaitifjellcamp.no/"></link>
  </wpt>
  <wpt lat="70.3721558" lon="31.104744">
    <name>node/9600826482</name>
    <desc>caravans=no; dog=yes; power_supply=no; tents=no;
    tourism=caravan_site; water_point=yes;
    id=node/9600826482</desc>
  </wpt>
  <wpt lat="58.2951785" lon="6.4464989">
    <ele>31.0</ele>
    <name>ånasira bobilparkering</name>
    <desc>name=ånasira bobilparkering; tourism=caravan_site;
    id=node/9691682255</desc>
  </wpt>
  <wpt lat="58.5009875" lon="8.436411">
    <ele>258.0</ele>
    <name>Bjørkeskogen Aktivitetsenter</name>
    <desc>name=Bjørkeskogen Aktivitetsenter; tourism=caravan_site;
    website=http://bjorkeskogen.com/; id=node/9848106663</desc>
    <link href="http://bjorkeskogen.com/"></link>
  </wpt>
  <wpt lat="62.571175" lon="11.380905">
    <name>Bobilparkering - Røros IL</name>
    <desc>name=Bobilparkering - Røros IL; operator=Røros IL;
    phone=+47 40 01 39 75; tourism=caravan_site;
    website=https://roros-il.no; id=node/9849943719</desc>
    <link href="https://roros-il.no"></link>
  </wpt>
  <wpt lat="58.3322335" lon="8.2155281">
    <ele>22.0</ele>
    <name>node/9863991520</name>
    <desc>capacity:caravans=15; internet_access=no;
    power_supply=no; tourism=caravan_site;
    id=node/9863991520</desc>
  </wpt>
  <wpt lat="61.1081097" lon="6.1316837">
    <name>Ortnevik Grendehus</name>
    <desc>drinking_water=yes; name=Ortnevik Grendehus;
    ref=https://ortnevik.com/grendehus-library-2/; surface=grass;
    tents=yes; tourism=caravan_site; id=node/9883621587</desc>
  </wpt>
  <wpt lat="59.1508949" lon="6.1614602">
    <ele>22.0</ele>
    <name>node/9885172949</name>
    <desc>capacity=5-7; charge=100 NOK; description=Simon will Come
    And Ask For Fee; fee=yes; internet_access=no; power_supply=no;
    sanitary_dump_station=no; tourism=caravan_site;
    id=node/9885172949</desc>
  </wpt>
  <wpt lat="58.0966477" lon="6.6907302">
    <ele>8.0</ele>
    <name>Vanse Bobilcamp</name>
    <desc>fee=yes; name=Vanse Bobilcamp; power_supply=yes;
    tents=no; tourism=caravan_site; id=node/9885535883</desc>
  </wpt>
  <wpt lat="59.3569251" lon="7.3693958">
    <ele>647.0</ele>
    <name>node/9891554023</name>
    <desc>power_supply=no; reservation=no;
    sanitary_dump_station=no; tourism=caravan_site;
    id=node/9891554023</desc>
  </wpt>
  <wpt lat="59.0614238" lon="5.9101343">
    <ele>1.0</ele>
    <name>node/9895502907</name>
    <desc>description=200nkr/night; tourism=caravan_site;
    id=node/9895502907</desc>
  </wpt>
  <wpt lat="59.2322389" lon="6.1635981">
    <ele>4.0</ele>
    <name>node/9901399940</name>
    <desc>description=Usable but facilities not finished yet (July
    2022); tourism=caravan_site; id=node/9901399940</desc>
  </wpt>
  <wpt lat="59.4821384" lon="6.2578902">
    <ele>22.0</ele>
    <name>Larvikja</name>
    <desc>internet_access=no; name=Larvikja; toilets=yes;
    tourism=caravan_site; wheelchair=yes; id=node/9901977439</desc>
  </wpt>
  <wpt lat="68.0836524" lon="13.1886501">
    <name>node/9922135359</name>
    <desc>fee=no; tourism=caravan_site; id=node/9922135359</desc>
  </wpt>
  <wpt lat="68.6569943" lon="16.3972825">
    <name>Bjørnhågen camping</name>
    <desc>name=Bjørnhågen camping; tourism=caravan_site;
    id=node/10031631397</desc>
  </wpt>
  <wpt lat="69.9707767" lon="23.2366741">
    <name>node/10047258130</name>
    <desc>fee=yes; tourism=caravan_site; id=node/10047258130</desc>
  </wpt>
  <wpt lat="66.0540907" lon="13.7018287">
    <name>Korgenfjellet Fjellstue</name>
    <desc>name=Korgenfjellet Fjellstue; tourism=caravan_site;
    id=node/10048581355</desc>
  </wpt>
  <wpt lat="64.0958852" lon="10.5157346">
    <name>Momyra camping</name>
    <desc>name=Momyra camping; tourism=caravan_site;
    id=node/10063074636</desc>
  </wpt>
  <wpt lat="62.4405306" lon="6.1897297">
    <name>Devoldfabrikken</name>
    <desc>capacity=8; caravan_site=motorhome_stopover;
    caravan_site:type=supermarket;
    email=kristine@devoldfabrikken.no; fee=yes;
    operator=Devoldfabrikken; phone=+47 70 301111;
    power_supply=yes; tourism=caravan_site;
    id=node/10608628104</desc>
  </wpt>
  <wpt lat="67.9464143" lon="13.1377719">
    <name>node/10989145205</name>
    <desc>name:fr=Hannoy; tourism=caravan_site;
    id=node/10989145205</desc>
  </wpt>
  <wpt lat="60.0264307" lon="5.8463926">
    <ele>15.0</ele>
    <name>node/11034149006</name>
    <desc>tourism=caravan_site; id=node/11034149006</desc>
  </wpt>
  <wpt lat="60.0265653" lon="5.8449024">
    <ele>16.0</ele>
    <name>node/11034149007</name>
    <desc>tourism=caravan_site; id=node/11034149007</desc>
  </wpt>
  <wpt lat="60.6845112" lon="5.0569715">
    <name>Sletta Kai og fritid</name>
    <desc>name=Sletta Kai og fritid; phone=+47 41 23 59 76;
    tourism=caravan_site;
    website=https://www.facebook.com/Slettakaiogfritid/;
    id=node/11035705663</desc>
    <link href="https://www.facebook.com/Slettakaiogfritid/">
    </link>
  </wpt>
  <wpt lat="61.6652324" lon="9.7005266">
    <name>Sinclair Bobilpark</name>
    <desc>fee=no; name=Sinclair Bobilpark; power_supply=yes;
    tourism=caravan_site; id=node/11039683904</desc>
  </wpt>
  <wpt lat="64.0493283" lon="9.9437573">
    <name>node/11071757140</name>
    <desc>tourism=caravan_site; id=node/11071757140</desc>
  </wpt>
  <wpt lat="59.4849503" lon="6.2471739">
    <ele>2.0</ele>
    <name>node/11092212184</name>
    <desc>internet_access=no; name:signed=no; toilets=yes;
    tourism=caravan_site; id=node/11092212184</desc>
  </wpt>
  <wpt lat="59.2631219" lon="10.4158709">
    <ele>5.0</ele>
    <name>Gunnarsbø bobilparkering</name>
    <desc>capacity=8; charge=200 NOK/night; fee=yes; name=Gunnarsbø
    bobilparkering; opening_hours=24/7; power_supply=yes;
    sanitary_dump_station=yes; toilets=yes; tourism=caravan_site;
    website=https://www.tbgparkering.no/bobilparkering-i-tonsberg/;
    id=node/11098905435</desc>
    <link href="https://www.tbgparkering.no/bobilparkering-i-tonsberg/">
    </link>
  </wpt>
  <wpt lat="62.6109929" lon="7.1383783">
    <name>node/11099291605</name>
    <desc>opening_hours=24/7; tourism=caravan_site;
    id=node/11099291605</desc>
  </wpt>
  <wpt lat="67.6886026" lon="12.6786923">
    <name>node/11133685605</name>
    <desc>tourism=caravan_site; id=node/11133685605</desc>
  </wpt>
  <wpt lat="67.5163959" lon="12.1213021">
    <name>node/11133745005</name>
    <desc>tourism=caravan_site; id=node/11133745005</desc>
  </wpt>
  <wpt lat="58.7647461" lon="8.4773563">
    <ele>150.0</ele>
    <name>Amli Badestrand</name>
    <desc>name=Amli Badestrand; tourism=caravan_site;
    id=node/11143001902</desc>
  </wpt>
  <wpt lat="59.0637643" lon="6.0178752">
    <ele>38.0</ele>
    <name>Wohnmobilstellplatz Vaula Gard</name>
    <desc>description=150 NOK per night; name=Wohnmobilstellplatz
    Vaula Gard; tourism=caravan_site;
    website=https://www.vaulagard.no/; id=node/11161573761</desc>
    <link href="https://www.vaulagard.no/"></link>
  </wpt>
  <wpt lat="59.2601145" lon="10.4252759">
    <ele>5.0</ele>
    <name>Bobilplass Stensarmen</name>
    <desc>charge=100 NOK/day; check_date:fee=2023-08-31; fee=yes;
    name=Bobilplass Stensarmen; power_supply=yes;
    sanitary_dump_station=yes; tourism=caravan_site;
    id=node/11161909161</desc>
  </wpt>
  <wpt lat="62.0180758" lon="12.1323902">
    <name>node/11174999568</name>
    <desc>power_supply=no; tourism=caravan_site;
    id=node/11174999568</desc>
  </wpt>
  <wpt lat="63.4873152" lon="9.9888852">
    <name>Rødberg Bobilcamp</name>
    <desc>fee=yes; internet_access=wlan; name=Rødberg Bobilcamp;
    power_supply=yes; shower=yes; toilets=yes;
    tourism=caravan_site; id=node/11234570035</desc>
  </wpt>
  <wpt lat="59.5513704" lon="11.3254718">
    <ele>109.0</ele>
    <name>Mysen bobilparkering</name>
    <desc>name=Mysen bobilparkering; name:en=Mysen RV Park;
    tourism=caravan_site; id=way/772126728; ;
    id=node/11378060462</desc>
  </wpt>
  <wpt lat="67.9351549" lon="13.0976954">
    <name>node/11539291956</name>
    <desc>check_date=2025-08-30;
    check_date:internet_access=2025-08-30; drinking_water=yes;
    fee=yes; internet_access=no; name:signed=no; payment:cash=yes;
    payment:credit_cards=yes; payment:debit_cards=yes;
    sanitary_dump_station=yes; tourism=caravan_site;
    wheelchair=yes; id=node/11539291956</desc>
  </wpt>
  <wpt lat="62.4458492" lon="6.2012248">
    <name>Bobilpark Fyllingsjoen</name>
    <desc>name=Bobilpark Fyllingsjoen; tourism=caravan_site;
    id=node/11572405755</desc>
  </wpt>
  <wpt lat="61.9324116" lon="5.1130441">
    <name>Måløy A</name>
    <desc>name=Måløy A; power_supply=yes; tourism=caravan_site;
    id=node/11613578448</desc>
  </wpt>
  <wpt lat="66.4714382" lon="14.8554237">
    <name>node/11679044234</name>
    <desc>tourism=caravan_site; id=node/11679044234</desc>
  </wpt>
  <wpt lat="61.6004445" lon="5.022478">
    <name>node/11702115345</name>
    <desc>tourism=caravan_site; id=node/11702115345</desc>
  </wpt>
  <wpt lat="61.5984475" lon="5.0250385">
    <name>node/11702140845</name>
    <desc>power_supply=yes; tourism=caravan_site;
    id=node/11702140845</desc>
  </wpt>
  <wpt lat="59.0501545" lon="10.0605848">
    <ele>18.0</ele>
    <name>node/11768777669</name>
    <desc>tourism=caravan_site; id=node/11768777669</desc>
  </wpt>
  <wpt lat="59.6439363" lon="6.3391288">
    <ele>4.0</ele>
    <name>node/11976430592</name>
    <desc>tourism=caravan_site; id=node/11976430592</desc>
  </wpt>
  <wpt lat="66.3138705" lon="13.2840121">
    <name>node/11993477560</name>
    <desc>fee=no; tourism=caravan_site; id=node/11993477560</desc>
  </wpt>
  <wpt lat="66.4671071" lon="13.1660092">
    <name>Kvina bobilparkering</name>
    <desc>name=Kvina bobilparkering; tourism=caravan_site;
    id=node/12072962083</desc>
  </wpt>
  <wpt lat="59.2750648" lon="5.5571741">
    <ele>17.0</ele>
    <name>Bobilparkering Kårstø</name>
    <desc>name=Bobilparkering Kårstø; tourism=caravan_site;
    id=node/12114330743</desc>
  </wpt>
  <wpt lat="60.5784373" lon="9.1539897">
    <name>Trytetjern</name>
    <desc>fee=yes; internet_access=no; name=Trytetjern;
    permanent_camping=no; power_supply=no;
    sanitary_dump_station=no; toilets=yes; tourism=caravan_site;
    id=node/12115112590</desc>
  </wpt>
  <wpt lat="63.0833154" lon="7.5617589">
    <name>node/12150510291</name>
    <desc>capacity=1; fee=no; internet_access=no; power_supply=no;
    reservation=no; sanitary_dump_station=no; tourism=caravan_site;
    id=node/12150510291</desc>
  </wpt>
  <wpt lat="59.1201227" lon="11.3714159">
    <ele>8.0</ele>
    <name>node/12237418600</name>
    <desc>tourism=caravan_site; id=node/12237418600</desc>
  </wpt>
  <wpt lat="59.1188819" lon="11.3795823">
    <ele>2.0</ele>
    <name>node/12237425801</name>
    <desc>tourism=caravan_site; id=node/12237425801</desc>
  </wpt>
  <wpt lat="70.3733457" lon="31.1031473">
    <name>Vardø Bobilplass</name>
    <desc>name=Vardø Bobilplass; power_supply=yes;
    tourism=caravan_site; id=node/12658266192</desc>
  </wpt>
  <wpt lat="68.2274321" lon="14.5570326">
    <name>node/12840438977</name>
    <desc>sanitary_dump_station=yes; tourism=caravan_site;
    id=node/12840438977</desc>
  </wpt>
  <wpt lat="60.1231612" lon="10.1917566">
    <ele>82.0</ele>
    <name>node/12943590712</name>
    <desc>tourism=caravan_site; id=node/12943590712</desc>
  </wpt>
  <wpt lat="63.8739915" lon="11.2985641">
    <name>node/12956103694</name>
    <desc>capacity=8; fee=no; maxstay=1 day; tourism=caravan_site;
    id=node/12956103694</desc>
  </wpt>
  <wpt lat="58.8747635" lon="9.4184821">
    <ele>8.0</ele>
    <name>node/12980349631</name>
    <desc>fee=yes; internet_access=no; power_supply=no;
    sanitary_dump_station=no; tourism=caravan_site;
    id=node/12980349631</desc>
  </wpt>
  <wpt lat="58.6267089" lon="8.9245875">
    <ele>40.0</ele>
    <name>node/12985421411</name>
    <desc>tourism=caravan_site; id=node/12985421411</desc>
  </wpt>
  <wpt lat="58.283544" lon="6.7171589">
    <ele>35.0</ele>
    <name>Egenes camping drift as</name>
    <desc>name=Egenes camping drift as; tourism=caravan_site;
    id=node/12994757901</desc>
  </wpt>
  <wpt lat="66.5059385" lon="14.9148033">
    <name>node/12994885202</name>
    <desc>tourism=caravan_site; id=node/12994885202</desc>
  </wpt>
  <wpt lat="58.1007024" lon="6.5828247">
    <ele>2.0</ele>
    <name>node/13002417820</name>
    <desc>tourism=caravan_site; id=node/13002417820</desc>
  </wpt>
  <wpt lat="61.3113524" lon="4.728104">
    <name>node/13011783374</name>
    <desc>tourism=caravan_site; id=node/13011783374</desc>
  </wpt>
  <wpt lat="63.9131199" lon="11.1909855">
    <name>node/13033575601</name>
    <desc>internet_access=wlan; name:no=Kjerknesvågen Bobilplass;
    tourism=caravan_site; id=node/13033575601</desc>
  </wpt>
  <wpt lat="60.382731" lon="9.6036534">
    <ele>149.0</ele>
    <name>Am Sägewerk</name>
    <desc>name=Am Sägewerk; tourism=caravan_site;
    id=node/13042509101</desc>
  </wpt>
  <wpt lat="68.0883996" lon="13.1390158">
    <name>node/13078447956</name>
    <desc>charge=150 NOK/day; fee=yes; power_supply=no;
    sanitary_dump_station=no; tourism=caravan_site;
    id=node/13078447956</desc>
  </wpt>
  <wpt lat="58.447373" lon="8.8585339">
    <ele>21.0</ele>
    <name>Spornes Bobilcamp</name>
    <desc>capacity=6; internet_access=no; name=Spornes Bobilcamp;
    power_supply=yes; reservation=yes; sanitary_dump_station=no;
    tourism=caravan_site;
    website=https://campio.no/nb/campsite/spornes-bobilcamp;
    id=node/13107612770</desc>
    <link href="https://campio.no/nb/campsite/spornes-bobilcamp">
    </link>
  </wpt>
  <wpt lat="69.4097229" lon="17.2626161">
    <name>node/13111043411</name>
    <desc>capacity=9; charge=150 NOK; fee=yes;
    tourism=caravan_site; id=node/13111043411</desc>
  </wpt>
  <wpt lat="61.8080547" lon="9.6852571">
    <name>Mysusæter</name>
    <desc>charge=200 NOK; fee=yes; internet_access=no;
    name=Mysusæter; reservation=no; sanitary_dump_station=public;
    tourism=caravan_site; wheelchair=yes;
    id=node/13112692501</desc>
  </wpt>
  <wpt lat="62.3796051" lon="9.639414">
    <name>Dovrevegen</name>
    <desc>caravan_site=motorhome_stopover;
    caravan_site:type=informal; caravans=no; name=Dovrevegen;
    power_supply=no; surface=grass; tents=no; toilets=no;
    tourism=caravan_site; id=node/13165132718</desc>
  </wpt>
  <wpt lat="60.0652712" lon="6.55258946607681">
    <ele>14.0</ele>
    <name>Lothepus camping</name>
    <desc>name=Lothepus camping; tourism=caravan_site;
    type=multipolygon; id=relation/5286241</desc>
  </wpt>
  <wpt lat="63.41231555" lon="9.024995247792404">
    <name>Belsvik Camping</name>
    <desc>email=nina.jakobsen@live.no; mobile=+47 48 19 10 87;
    name=Belsvik Camping; permanent_camping=only; phone=+47 72 45
    24 20; static_caravans=yes; tourism=caravan_site;
    type=multipolygon; id=relation/5725403</desc>
  </wpt>
  <wpt lat="58.68813" lon="7.802399030704097">
    <ele>206.0</ele>
    <name>Neset Camping</name>
    <desc>contact:facebook=https://www.facebook.com/NesetCampingAS;
    email=post@neset.no; fee=yes; internet_access=yes; name=Neset
    Camping; phone=+47 37 93 42 55; power_supply=yes;
    sanitary_dump_station=yes; stars=4; tents=yes;
    tourism=caravan_site; type=multipolygon;
    website=https://neset.no; id=relation/7426179</desc>
    <link href="https://neset.no"></link>
  </wpt>
  <wpt lat="60.3750202" lon="5.9988395028666375">
    <name>relation/8465231</name>
    <desc>tourism=caravan_site; type=multipolygon;
    id=relation/8465231</desc>
  </wpt>
  <wpt lat="59.81244415" lon="8.294668994336853">
    <ele>932.0</ele>
    <name>Møsvatn</name>
    <desc>name=Møsvatn; tourism=caravan_site; type=multipolygon;
    id=relation/8546176</desc>
  </wpt>
  <wpt lat="60.515631150000004" lon="4.913683218757455">
    <name>Rong bobilparkering</name>
    <desc>capacity=10; fee=no; internet_access=no; name=Rong
    bobilparkering; operator=Øygarden kommune; power_supply=yes;
    sanitary_dump_station=yes; tourism=caravan_site;
    type=multipolygon; id=relation/8713902</desc>
  </wpt>
  <wpt lat="59.0111974" lon="11.537204981062573">
    <ele>175.0</ele>
    <name>Buerskogen</name>
    <desc>caravans=yes; contact:phone=+4790197830; name=Buerskogen;
    operator=Vaglen; power_supply=yes; sanitary_dump_station=yes;
    shower=yes; tents=yes; toilets=yes; tourism=caravan_site;
    type=multipolygon; id=relation/12363105</desc>
  </wpt>
  <wpt lat="69.9456775" lon="23.26985154595961">
    <name>relation/17120231</name>
    <desc>tourism=caravan_site; type=multipolygon;
    id=relation/17120231</desc>
  </wpt>
  <wpt lat="59.017245349999996" lon="6.044060719069007">
    <ele>1.0</ele>
    <name>relation/17996643</name>
    <desc>charge=200 NOK; fee=yes; internet_access=no;
    opening_hours=24/7; power_supply=yes; reservation=no;
    sanitary_dump_station=no; smoking=yes; tourism=caravan_site;
    type=multipolygon; wheelchair=yes; id=relation/17996643</desc>
  </wpt>
  <wpt lat="59.4825668" lon="10.640436064918992">
    <ele>5.0</ele>
    <name>Nes camping</name>
    <desc>name=Nes camping; tourism=caravan_site;
    id=way/19882246</desc>
  </wpt>
  <wpt lat="59.390516700000006" lon="10.652888005653054">
    <ele>12.0</ele>
    <name>Fuglevik camping</name>
    <desc>name=Fuglevik camping; tourism=caravan_site;
    id=way/20135091</desc>
  </wpt>
  <wpt lat="59.30904625" lon="10.68637112141472">
    <ele>9.0</ele>
    <name>Larkollen camping</name>
    <desc>name=Larkollen camping; tourism=caravan_site;
    id=way/25523877</desc>
  </wpt>
  <wpt lat="59.270334500000004" lon="10.748183141286912">
    <ele>6.0</ele>
    <name>Lervik Camping</name>
    <desc>name=Lervik Camping; tourism=caravan_site;
    id=way/25792457</desc>
  </wpt>
  <wpt lat="59.1384858" lon="11.039414133568549">
    <ele>5.0</ele>
    <name>Bevø camping</name>
    <desc>area=yes; name=Bevø camping; tourism=caravan_site;
    id=way/25843622</desc>
  </wpt>
  <wpt lat="59.1855305" lon="10.901814710203276">
    <ele>3.0</ele>
    <name>way/26371976</name>
    <desc>tourism=caravan_site; id=way/26371976</desc>
  </wpt>
  <wpt lat="59.2567329" lon="10.736859714320405">
    <ele>17.0</ele>
    <name>Solviken Feriehjemmet</name>
    <desc>name=Solviken Feriehjemmet; phone=+47 69 33 32 07;
    tourism=caravan_site;
    website=https://feriehjemmet-solviken.no/;
    id=way/42279147</desc>
    <link href="https://feriehjemmet-solviken.no/"></link>
  </wpt>
  <wpt lat="59.91924605" lon="10.678194820800567">
    <ele>5.0</ele>
    <name>Sjølyst bobilparkering</name>
    <desc>name=Sjølyst bobilparkering; power_supply=yes;
    sanitary_dump_station=yes; tourism=caravan_site;
    website=https://sjølystmarina.no/bobil/; id=way/49139387</desc>
    <link href="https://sjølystmarina.no/bobil/"></link>
  </wpt>
  <wpt lat="59.5565606" lon="10.24068480451999">
    <ele>6.0</ele>
    <name>way/51570650</name>
    <desc>source=Yahoo; tourism=caravan_site;
    id=way/51570650</desc>
  </wpt>
  <wpt lat="59.5593518" lon="10.237531533103635">
    <ele>6.0</ele>
    <name>way/51570656</name>
    <desc>tourism=caravan_site; id=way/51570656</desc>
  </wpt>
  <wpt lat="59.53063565" lon="10.27888317594598">
    <ele>13.0</ele>
    <name>way/51787541</name>
    <desc>tourism=caravan_site; id=way/51787541</desc>
  </wpt>
  <wpt lat="58.821913" lon="6.286068610477963">
    <ele>432.0</ele>
    <name>Giljastøl</name>
    <desc>name=Giljastøl; tourism=caravan_site;
    id=way/51878554</desc>
  </wpt>
  <wpt lat="59.19123395" lon="11.165800412563286">
    <ele>16.0</ele>
    <name>Feriehjemmet</name>
    <desc>area=yes; name=Feriehjemmet; tourism=caravan_site;
    id=way/55181652</desc>
  </wpt>
  <wpt lat="59.1760532" lon="11.111918332694074">
    <ele>22.0</ele>
    <name>way/55636611</name>
    <desc>tourism=caravan_site; id=way/55636611</desc>
  </wpt>
  <wpt lat="59.17422955000001" lon="11.110297216563652">
    <ele>12.0</ele>
    <name>way/55696674</name>
    <desc>tourism=caravan_site; id=way/55696674</desc>
  </wpt>
  <wpt lat="58.5399119" lon="6.326268225249677">
    <ele>191.0</ele>
    <name>Legå camping</name>
    <desc>name=Legå camping; tourism=caravan_site;
    id=way/60081650</desc>
  </wpt>
  <wpt lat="60.8559809" lon="11.387536379336735">
    <name>Villmarksporten</name>
    <desc>name=Villmarksporten; tourism=caravan_site;
    id=way/67182410</desc>
  </wpt>
  <wpt lat="59.3109903" lon="10.738531479295272">
    <ele>14.0</ele>
    <name>way/67626090</name>
    <desc>tourism=caravan_site; id=way/67626090</desc>
  </wpt>
  <wpt lat="60.348861150000005" lon="11.606783777789047">
    <ele>143.0</ele>
    <name>Songnabben Camping</name>
    <desc>cabins=yes; caravans=yes; name=Songnabben Camping;
    phone=+47 62 97 37 28; tents=yes; toilets=yes;
    tourism=caravan_site; website=https://songnabben.no/;
    id=way/70036941</desc>
    <link href="https://songnabben.no/"></link>
  </wpt>
  <wpt lat="60.624699" lon="6.421501006711935">
    <name>way/70278581</name>
    <desc>fee=yes; tourism=caravan_site; id=way/70278581</desc>
  </wpt>
  <wpt lat="61.3126804" lon="12.239280838405593">
    <name>way/102001111</name>
    <desc>fixme=resurvey; tourism=caravan_site;
    id=way/102001111</desc>
  </wpt>
  <wpt lat="59.04894845" lon="10.033545290850268">
    <ele>4.0</ele>
    <name>Larvik Bobilhavn</name>
    <desc>amenity=water_point; capacity=17; charge=200 NOK/day;
    fee=yes; internet_access=no; name=Larvik Bobilhavn;
    payment:cash=yes; payment:vipps=yes; power_supply=yes;
    sanitary_dump_station=no; shower=no; toilets=no;
    tourism=caravan_site; id=way/108246743</desc>
  </wpt>
  <wpt lat="59.18982065" lon="11.187759636271497">
    <ele>17.0</ele>
    <name>Høysand camping</name>
    <desc>name=Høysand camping; power_supply=yes;
    sanitary_dump_station=yes; tourism=caravan_site;
    id=way/109585910</desc>
  </wpt>
  <wpt lat="58.530691" lon="5.775076602722955">
    <ele>8.0</ele>
    <name>Ogna camping</name>
    <desc>capacity=130; caravan_site=motorhome_stopover;
    caravans=no; motorhome=yes; name=Ogna camping;
    power_supply=yes; seasonal=no; tents=yes; tourism=caravan_site;
    website=https://www.ognacamping.no/; id=way/111459997</desc>
    <link href="https://www.ognacamping.no/"></link>
  </wpt>
  <wpt lat="58.5210925" lon="5.797354370485486">
    <ele>7.0</ele>
    <name>Ogna camping</name>
    <desc>access=permit; description=Only by membership;
    description:no=Faste plasser for campingvogner;
    email=kais@online.no; name=Ogna camping; phone=+47 93 26 63 30;
    tents=no; tourism=caravan_site; id=way/111460029</desc>
  </wpt>
  <wpt lat="58.7530427" lon="5.51125280721209">
    <ele>7.0</ele>
    <name>way/111871570</name>
    <desc>tourism=caravan_site; id=way/111871570</desc>
  </wpt>
  <wpt lat="60.948887400000004" lon="11.297723100244667">
    <name>way/114467432</name>
    <desc>source=Bing; tourism=caravan_site;
    id=way/114467432</desc>
  </wpt>
  <wpt lat="61.2555367" lon="11.671032554261613">
    <name>way/118059565</name>
    <desc>tourism=caravan_site; id=way/118059565</desc>
  </wpt>
  <wpt lat="61.25546965" lon="11.67004720126986">
    <name>way/118059566</name>
    <desc>tourism=caravan_site; id=way/118059566</desc>
  </wpt>
  <wpt lat="58.98342395" lon="9.965278642428121">
    <ele>13.0</ele>
    <name>way/126777814</name>
    <desc>tourism=caravan_site; id=way/126777814</desc>
  </wpt>
  <wpt lat="58.968871750000005" lon="9.966453127454356">
    <ele>13.0</ele>
    <name>way/126777818</name>
    <desc>tourism=caravan_site; id=way/126777818</desc>
  </wpt>
  <wpt lat="58.9781746" lon="9.96100638291735">
    <ele>11.0</ele>
    <name>way/126777820</name>
    <desc>tourism=caravan_site; id=way/126777820</desc>
  </wpt>
  <wpt lat="58.9791595" lon="9.927144367647944">
    <ele>0.0</ele>
    <name>way/127048243</name>
    <desc>tourism=caravan_site; id=way/127048243</desc>
  </wpt>
  <wpt lat="68.52164235000001" lon="17.39331607563839">
    <name>Trollhøgda Caravan</name>
    <desc>name=Trollhøgda Caravan; tourism=caravan_site;
    id=way/144583510</desc>
  </wpt>
  <wpt lat="58.6997778" lon="6.366355962264153">
    <ele>495.0</ele>
    <name>way/156887634</name>
    <desc>tourism=caravan_site; id=way/156887634</desc>
  </wpt>
  <wpt lat="59.5283826" lon="10.42203065398741">
    <ele>17.0</ele>
    <name>Rødtangen Camping</name>
    <desc>name=Rødtangen Camping; tourism=caravan_site;
    website=https://www.sommersomvinter.no/rødtangen-camping;
    id=way/161473739</desc>
    <link href="https://www.sommersomvinter.no/rødtangen-camping">
    </link>
  </wpt>
  <wpt lat="70.44780225" lon="24.389662786087378">
    <name>Repparfjord Camping og Misjonssenter</name>
    <desc>fax=+47 78416165; fee=yes; name=Repparfjord Camping og
    Misjonssenter; phone=+47 78416165; power_supply=yes; tents=yes;
    tourism=caravan_site; id=way/168282616</desc>
  </wpt>
  <wpt lat="58.1228426" lon="7.058278867320471">
    <ele>3.0</ele>
    <name>Rosfjord Camping</name>
    <desc>internet_access=wlan; name=Rosfjord Camping;
    tourism=caravan_site; website=https://www.rosfjordcamping.no/;
    id=way/172957367</desc>
    <link href="https://www.rosfjordcamping.no/"></link>
  </wpt>
  <wpt lat="59.965321" lon="10.641021317970559">
    <ele>183.0</ele>
    <name>Topcamp Bogstad</name>
    <desc>cabins=yes; caravans=yes; email=bogstad@topcamp.no;
    fee=yes; name=Topcamp Bogstad; phone=+47 22 51 08 00;
    power_supply=yes; sanitary_dump_station=yes; tents=yes;
    tourism=caravan_site; website=https://topcamp.no/;
    id=way/178915908</desc>
    <link href="https://topcamp.no/"></link>
  </wpt>
  <wpt lat="59.02308255" lon="6.926843230182916">
    <ele>581.0</ele>
    <name>way/188429118</name>
    <desc>tourism=caravan_site; id=way/188429118</desc>
  </wpt>
  <wpt lat="59.02050205" lon="6.92216642748574">
    <ele>594.0</ele>
    <name>way/188429122</name>
    <desc>tourism=caravan_site; id=way/188429122</desc>
  </wpt>
  <wpt lat="59.72014365" lon="8.127604572554212">
    <ele>813.0</ele>
    <name>Hagen Vintercaravan</name>
    <desc>name=Hagen Vintercaravan; tourism=caravan_site;
    id=way/188678731</desc>
  </wpt>
  <wpt lat="66.55042470000001" lon="15.31892700564632">
    <name>Motorhome parking</name>
    <desc>caravan_site=motorhome_stopover; name=Motorhome parking;
    power_supply=no; sanitary_dump_station=no;
    tourism=caravan_site; id=way/199413291</desc>
  </wpt>
  <wpt lat="62.6567024" lon="9.883457309225738">
    <name>Oppdalsporten</name>
    <desc>fee=yes; name=Oppdalsporten; tourism=caravan_site;
    id=way/202890248</desc>
  </wpt>
  <wpt lat="59.07085045" lon="10.26026313765905">
    <ele>13.0</ele>
    <name>way/207358042</name>
    <desc>tourism=caravan_site; id=way/207358042</desc>
  </wpt>
  <wpt lat="60.372864899999996" lon="6.008551888446245">
    <name>way/219676830</name>
    <desc>tourism=caravan_site; id=way/219676830</desc>
  </wpt>
  <wpt lat="70.4290101" lon="24.501965169258224">
    <name>way/224924295</name>
    <desc>tourism=caravan_site; id=way/224924295</desc>
  </wpt>
  <wpt lat="62.252924050000004" lon="8.216071039861834">
    <name>way/231250926</name>
    <desc>tourism=caravan_site; id=way/231250926</desc>
  </wpt>
  <wpt lat="62.981621450000006" lon="8.792784599006351">
    <name>Krangnes camping</name>
    <desc>name=Krangnes camping; tourism=caravan_site;
    id=way/232391259</desc>
  </wpt>
  <wpt lat="65.6130515" lon="12.365137213474512">
    <name>Steinmo bobilparkering</name>
    <desc>caravans=no; name=Steinmo bobilparkering;
    sanitary_dump_station=yes; tourism=caravan_site;
    id=way/235854885</desc>
  </wpt>
  <wpt lat="58.746078600000004" lon="5.527836199723975">
    <ele>7.0</ele>
    <name>way/243228007</name>
    <desc>tourism=caravan_site; id=way/243228007</desc>
  </wpt>
  <wpt lat="68.6563065" lon="18.87894384039039">
    <name>Slåttemoen</name>
    <desc>name=Slåttemoen; operator=NCC Bardu; source=Bing hires
    (shifted); tourism=caravan_site; id=way/259481576</desc>
  </wpt>
  <wpt lat="68.9015136" lon="15.425383320309276">
    <name>way/260350698</name>
    <desc>access=unknown; tourism=caravan_site;
    id=way/260350698</desc>
  </wpt>
  <wpt lat="68.6226651" lon="14.56239790728199">
    <name>way/260787490</name>
    <desc>tourism=caravan_site; id=way/260787490</desc>
  </wpt>
  <wpt lat="60.3540797" lon="5.358616362988611">
    <ele>74.0</ele>
    <name>Bergenshallen Bobilparkering</name>
    <desc>access=yes; amenity=parking; capacity=28; charge=330 NOK;
    drinking_water=yes; fee=yes; internet_access=wlan;
    name=Bergenshallen Bobilparkering; name:en=Caravan Parking
    Bergenshallen; parking=surface; power_supply=yes;
    sanitary_dump_station=yes; shower=no; surface=asphalt;
    tents=no; toilets=no; tourism=caravan_site;
    id=way/265095327</desc>
  </wpt>
  <wpt lat="59.053048399999994" lon="5.676186394017552">
    <ele>7.0</ele>
    <name>way/274901873</name>
    <desc>tourism=caravan_site; id=way/274901873</desc>
  </wpt>
  <wpt lat="59.35497355" lon="5.661224057106912">
    <ele>4.0</ele>
    <name>way/276765780</name>
    <desc>tourism=caravan_site; id=way/276765780</desc>
  </wpt>
  <wpt lat="62.258166450000004" lon="8.204045765478837">
    <name>Bjorli Camping</name>
    <desc>name=Bjorli Camping; phone=+4790119990;
    tourism=caravan_site; website=http://www.bjorlicamping.no;
    id=way/291695899</desc>
    <link href="http://www.bjorlicamping.no"></link>
  </wpt>
  <wpt lat="62.25809325" lon="8.210149374781098">
    <name>way/291696275</name>
    <desc>tourism=caravan_site; id=way/291696275</desc>
  </wpt>
  <wpt lat="60.78915955" lon="11.476849408384396">
    <name>Oset Camping</name>
    <desc>name=Oset Camping; tourism=caravan_site;
    id=way/295404898</desc>
  </wpt>
  <wpt lat="62.3103537" lon="10.531636593613932">
    <name>way/307867048</name>
    <desc>tourism=caravan_site; id=way/307867048</desc>
  </wpt>
  <wpt lat="58.787492549999996" lon="5.552315941198874">
    <ele>9.0</ele>
    <name>way/311030101</name>
    <desc>tourism=caravan_site; id=way/311030101</desc>
  </wpt>
  <wpt lat="58.6949181" lon="5.550734975824175">
    <ele>6.0</ele>
    <name>Skeie Camping</name>
    <desc>name=Skeie Camping; tourism=caravan_site;
    id=way/311885226</desc>
  </wpt>
  <wpt lat="58.966145350000005" lon="9.859037635943633">
    <ele>19.0</ele>
    <name>KNA Oddane Sand Camping</name>
    <desc>capacity:caravans=376; caravans=yes; drinking_water=yes;
    email=oddanesand@kna.no; internet_access=wlan; name=KNA Oddane
    Sand Camping; operator=Kongelig Norsk Automobilforbund;
    phone=+4733188270; power_supply=yes; tents=yes;
    tourism=caravan_site; website=https://oddanesand.no/;
    id=way/323123009</desc>
    <link href="https://oddanesand.no/"></link>
  </wpt>
  <wpt lat="61.13844055" lon="11.380232957110792">
    <name>Rena Camping</name>
    <desc>name=Rena Camping; tourism=caravan_site;
    website=https://www.renacamping.no/; id=way/323417403</desc>
    <link href="https://www.renacamping.no/"></link>
  </wpt>
  <wpt lat="69.79534340000001" lon="23.804929888442782">
    <name>4 Jotka</name>
    <desc>access=private; name=4 Jotka; snowmobile=yes;
    source=Norway Orthophoto; tourism=caravan_site;
    website=https://lovdata.no/dokument/LTII/forskrift/2008-05-26-885;
    id=way/345084611</desc>
    <link href="https://lovdata.no/dokument/LTII/forskrift/2008-05-26-885">
    </link>
  </wpt>
  <wpt lat="60.37359685" lon="6.011843377595497">
    <name>way/349494455</name>
    <desc>source=Norge i Bilder - Geovekst; tourism=caravan_site;
    id=way/349494455</desc>
  </wpt>
  <wpt lat="59.0612381" lon="10.406772360560083">
    <ele>14.0</ele>
    <name>way/359876954</name>
    <desc>access=designated; charge=165 NOK/24 hours; fee=yes;
    note=Campers only; opening_hours=24/7; parking=surface;
    payment:easypark=yes; power_supply=no;
    sanitary_dump_station=no; surface=ground; tourism=caravan_site;
    id=way/359876954</desc>
  </wpt>
  <wpt lat="59.2414753" lon="11.683089051541998">
    <ele>111.0</ele>
    <name>Kirkeng Camping</name>
    <desc>drinking_water=yes; fee=yes; name=Kirkeng Camping;
    power_supply=yes; sanitary_dump_station=yes; toilets=yes;
    tourism=caravan_site; id=way/362642394</desc>
  </wpt>
  <wpt lat="59.478404" lon="10.661134026559218">
    <ele>23.0</ele>
    <name>Sjøhaug naturistsenter</name>
    <desc>name=Sjøhaug naturistsenter; tourism=caravan_site;
    id=way/368363619</desc>
  </wpt>
  <wpt lat="69.0726769" lon="18.70313013859073">
    <name>Målselv Fjellandsby</name>
    <desc>name=Målselv Fjellandsby; tourism=caravan_site;
    id=way/372976231</desc>
  </wpt>
  <wpt lat="58.88653665" lon="5.858219868891916">
    <ele>29.0</ele>
    <name>Leirplass Hogstadvika</name>
    <desc>access=private; name=Leirplass Hogstadvika;
    operator=Norsk bobil og caravan club, avd Rogaland, leirplass
    Hogstadvika; permanent_camping=only; tourism=caravan_site;
    id=way/373357975</desc>
  </wpt>
  <wpt lat="65.32612075" lon="13.378087312761231">
    <name>way/397627815</name>
    <desc>tourism=caravan_site; id=way/397627815</desc>
  </wpt>
  <wpt lat="66.3193847" lon="13.310653011215347">
    <name>way/425549600</name>
    <desc>access=yes; description=aire de camping car gratuite;
    fee=no; parking=surface; smoothness=good; surface=asphalt;
    tourism=caravan_site; id=way/425549600</desc>
  </wpt>
  <wpt lat="63.50817" lon="7.968403126368159">
    <name>Veiholmen Bobilparkering</name>
    <desc>cabins=no; caravan_site:type=village; caravans=yes;
    charge=295 NOK/day; charge:conditional=100 NOK/day @ tents;
    description:en=Caravan parking lot; fee=yes;
    internet_access=wlan; lit=yes; name=Veiholmen Bobilparkering;
    operator=Havkroa; phone=+4747174931; power_supply=yes;
    sanitary_dump_station=yes; static_caravans=no; tents=yes;
    toilets=yes; tourism=caravan_site; water_point=yes;
    website=https://havkroa.no/bobilparkering/; wheelchair=yes;
    id=way/426921074</desc>
    <link href="https://havkroa.no/bobilparkering/"></link>
  </wpt>
  <wpt lat="68.4691206" lon="15.89308205857503">
    <name>way/430222586</name>
    <desc>access=private; tourism=caravan_site;
    id=way/430222586</desc>
  </wpt>
  <wpt lat="58.371461" lon="8.677178477538032">
    <ele>3.0</ele>
    <name>Bagatell Camping</name>
    <desc>caravans=yes; name=Bagatell Camping; phone=+47 37 04 74
    67; tents=yes; toilets=yes; tourism=caravan_site;
    website=http://www.bagatell-camping.no; id=way/433218408</desc>
    <link href="http://www.bagatell-camping.no"></link>
  </wpt>
  <wpt lat="58.353184150000004" lon="8.65142018473762">
    <ele>8.0</ele>
    <name>Moysand Familiecamping</name>
    <desc>check_date=2023-07-30; name=Moysand Familiecamping;
    phone=+47 37 04 02 09; stars=4; tourism=caravan_site;
    website=https://www.moysand-familiecamping.no;
    id=way/433218409</desc>
    <link href="https://www.moysand-familiecamping.no"></link>
  </wpt>
  <wpt lat="59.99857555" lon="10.278500242950608">
    <ele>90.0</ele>
    <name>way/437070049</name>
    <desc>tourism=caravan_site; id=way/437070049</desc>
  </wpt>
  <wpt lat="59.7907378" lon="9.414687037713964">
    <ele>630.0</ele>
    <name>Blestua</name>
    <desc>name=Blestua; tourism=caravan_site;
    id=way/444564638</desc>
  </wpt>
  <wpt lat="59.80325015" lon="9.398477617012045">
    <ele>605.0</ele>
    <name>Sjuvasslia Camping</name>
    <desc>name=Sjuvasslia Camping; power_supply=yes;
    sanitary_dump_station=yes; tourism=caravan_site;
    website=https://blefjellheisen.com/sjuvasslia-camping;
    id=way/444564807</desc>
    <link href="https://blefjellheisen.com/sjuvasslia-camping">
    </link>
  </wpt>
  <wpt lat="58.72094475" lon="9.225743845275304">
    <ele>25.0</ele>
    <name>Tjenna bobilparkering</name>
    <desc>area=yes; capacity=30; charge=400 NOK / 24 hours;
    fee=yes; name=Tjenna bobilparkering; note=Use of electricity
    from a power pole is included in the daily price;
    power_supply=yes; reservation=no; sanitary_dump_station=yes;
    shower=no; surface=gravel; toilets=no; tourism=caravan_site;
    website=https://www.risor.kommune.no/tjenester/vei-parkering-havn/parkering/bobilparkering-i-risor-kommune/;
    id=way/445007787</desc>
    <link href="https://www.risor.kommune.no/tjenester/vei-parkering-havn/parkering/bobilparkering-i-risor-kommune/">
    </link>
  </wpt>
  <wpt lat="60.287196300000005" lon="7.561464806209743">
    <ele>1215.0</ele>
    <name>Tinnhølen</name>
    <desc>name=Tinnhølen; tourism=caravan_site;
    id=way/461100848</desc>
  </wpt>
  <wpt lat="58.4544674" lon="5.907884500028879">
    <ele>10.0</ele>
    <name>way/461102067</name>
    <desc>tourism=caravan_site; id=way/461102067</desc>
  </wpt>
  <wpt lat="71.0366875" lon="27.83382912061806">
    <name>Adventure Camp Mehamn</name>
    <desc>name=Adventure Camp Mehamn; tourism=caravan_site;
    id=way/463239141</desc>
  </wpt>
  <wpt lat="59.27207315" lon="7.458790693774767">
    <ele>381.0</ele>
    <name>Sanden Såre Bobilpark</name>
    <desc>camp_type=established; capacity=21;
    email=tdlunden@gmail.com; fee=yes; internet_access=no;
    motorhome=designated; name=Sanden Såre Bobilpark;
    operator=Familien Lunden; phone=+47 37 93 68 49;
    power_supply=yes; sanitary_dump_station=yes;
    tourism=caravan_site; id=way/503227570</desc>
  </wpt>
  <wpt lat="65.4791133" lon="12.216121902315013">
    <name>Brønnøysund Bobilparkering</name>
    <desc>contact:email=postmottak@bronnoy.kommune.no;
    contact:phone=+47 7501 2000;
    contact:website=https://www.bronnoy.kommune.no/tjenester/teknisk-bolig-og-eiendom/bobilparkering/;
    fee=yes; fixme=Local Sign and website shows RV Parking all over
    the Place but half of the Place is maxstay 12H. Maybe an local
    Mapper can get in Contact with the Kommune to clearify this?;
    name=Brønnøysund Bobilparkering; operator=Brønnøy kommune;
    power_supply=yes; sanitary_dump_station=yes;
    tourism=caravan_site; id=way/518191571</desc>
    <link href="https://www.bronnoy.kommune.no/tjenester/teknisk-bolig-og-eiendom/bobilparkering/">
    </link>
  </wpt>
  <wpt lat="69.6366981" lon="18.004972026785715">
    <name>way/545041627</name>
    <desc>source=DigitalGlobe Premium aerials, shifted from Strava
    heatmap; tourism=caravan_site; id=way/545041627</desc>
  </wpt>
  <wpt lat="68.49491445" lon="14.81194099080859">
    <name>Melbu båtforening bobilcamp</name>
    <desc>fee=yes; name=Melbu båtforening bobilcamp;
    tourism=caravan_site;
    website=https://www.melbubat.no/bobilcamp;
    id=way/553640806</desc>
    <link href="https://www.melbubat.no/bobilcamp"></link>
  </wpt>
  <wpt lat="59.27520085" lon="10.39845255218208">
    <ele>5.0</ele>
    <name>Korten Bobilparkering</name>
    <desc>capacity=23; charge=250 NOK/day (150 NOK for
    electricity); fee=yes; maxstay=3 days; name=Korten
    Bobilparkering; opening_hours=24/7; power_supply=yes;
    sanitary_dump_station=no; shower=no; toilets=no;
    tourism=caravan_site; water_point=yes; id=way/555006751</desc>
  </wpt>
  <wpt lat="70.073442" lon="23.54201622246243">
    <name>way/562907013</name>
    <desc>area=yes; tourism=caravan_site; id=way/562907013</desc>
  </wpt>
  <wpt lat="59.413696099999996" lon="10.487280493577892">
    <ele>5.0</ele>
    <name>Horten Gjesthavn</name>
    <desc>fee=yes; name=Horten Gjesthavn; power_supply=yes;
    reservation=no; sanitary_dump_station=yes; shower=yes;
    toilets=yes; tourism=caravan_site; water_point=yes;
    website=https://www.hortenhavn.no/bobil/;
    id=way/583998524</desc>
    <link href="https://www.hortenhavn.no/bobil/"></link>
  </wpt>
  <wpt lat="59.3082066" lon="10.692184677883589">
    <ele>3.0</ele>
    <name>way/614460798</name>
    <desc>tourism=caravan_site; id=way/614460798</desc>
  </wpt>
  <wpt lat="68.49230915" lon="17.516480033965113">
    <name>way/621800478</name>
    <desc>access=private; tourism=caravan_site;
    id=way/621800478</desc>
  </wpt>
  <wpt lat="62.52088795" lon="6.915756517545469">
    <name>Fjellstova Ørskogfjellet</name>
    <desc>name=Fjellstova Ørskogfjellet; phone=+47 70 27 03 03;
    tourism=caravan_site; website=http://www.fjellstova.no;
    wheelchair=yes; id=way/631657636</desc>
    <link href="http://www.fjellstova.no"></link>
  </wpt>
  <wpt lat="59.31818675" lon="10.979341253934567">
    <ele>49.0</ele>
    <name>Utne Camping</name>
    <desc>drinking_water=yes; fee=yes; name=Utne Camping;
    power_supply=yes; sanitary_dump_station=yes; toilets=yes;
    tourism=caravan_site; id=way/642563581</desc>
  </wpt>
  <wpt lat="70.63185720000001" lon="29.716843410587003">
    <name>Båtsfjord bobilparkering</name>
    <desc>name=Båtsfjord bobilparkering; operator=Båtsfjord
    havnevesen; surface=gravel; tourism=caravan_site;
    id=way/667973651</desc>
  </wpt>
  <wpt lat="59.3124863" lon="10.761371647468922">
    <ele>4.0</ele>
    <name>Røstad Familiecamping</name>
    <desc>name=Røstad Familiecamping; tourism=caravan_site;
    id=way/682682408</desc>
  </wpt>
  <wpt lat="59.7974477" lon="9.414071609231494">
    <ele>585.0</ele>
    <name>way/683997139</name>
    <desc>tourism=caravan_site; id=way/683997139</desc>
  </wpt>
  <wpt lat="59.412584249999995" lon="11.181652372501322">
    <ele>53.0</ele>
    <name>Nye Glennetangen camping</name>
    <desc>name=Nye Glennetangen camping; phone=+4746674696;
    tourism=caravan_site; id=way/684694081</desc>
  </wpt>
  <wpt lat="63.437965000000005" lon="10.41949140165315">
    <name>way/688152510</name>
    <desc>capacity=80; fee=yes; internet_access=no;
    power_supply=yes; sanitary_dump_station=yes; tents=no;
    tourism=caravan_site; id=way/688152510</desc>
  </wpt>
  <wpt lat="59.3157372" lon="10.726387781140348">
    <ele>2.0</ele>
    <name>Huseby Camping</name>
    <desc>name=Huseby Camping; tourism=caravan_site;
    id=way/697717723</desc>
  </wpt>
  <wpt lat="59.3113357" lon="10.728487555712903">
    <ele>9.0</ele>
    <name>Hestholmen Camping</name>
    <desc>name=Hestholmen Camping; tourism=caravan_site;
    id=way/697717724</desc>
  </wpt>
  <wpt lat="59.3187916" lon="10.753938892968744">
    <ele>1.0</ele>
    <name>Kjærringholmen familiecamping</name>
    <desc>name=Kjærringholmen familiecamping; tourism=caravan_site;
    id=way/697749035</desc>
  </wpt>
  <wpt lat="70.49839115" lon="28.36119900993215">
    <name>way/698783141</name>
    <desc>fee=no; internet_access=no; sanitary_dump_station=no;
    tents=yes; tourism=caravan_site; id=way/698783141</desc>
  </wpt>
  <wpt lat="71.03813935" lon="27.83428926105327">
    <name>Adventure Camp Mehamn</name>
    <desc>name=Adventure Camp Mehamn; tourism=caravan_site;
    id=way/698982905</desc>
  </wpt>
  <wpt lat="58.91510545" lon="6.886418298159912">
    <ele>586.0</ele>
    <name>way/701668347</name>
    <desc>tourism=caravan_site; id=way/701668347</desc>
  </wpt>
  <wpt lat="59.43524265" lon="8.86283368677695">
    <ele>123.0</ele>
    <name>Hegna Camping</name>
    <desc>name=Hegna Camping; tourism=caravan_site;
    id=way/727254260</desc>
  </wpt>
  <wpt lat="59.456208450000005" lon="8.728222893661135">
    <ele>122.0</ele>
    <name>way/729560923</name>
    <desc>tourism=caravan_site; id=way/729560923</desc>
  </wpt>
  <wpt lat="59.45517745" lon="8.72957556506804">
    <ele>125.0</ele>
    <name>way/729560924</name>
    <desc>tourism=caravan_site; id=way/729560924</desc>
  </wpt>
  <wpt lat="69.97435315000001" lon="29.63290051166914">
    <name>Elsa's caravan &amp; galleri</name>
    <desc>name=Elsa's caravan &amp; galleri; tourism=caravan_site;
    id=way/731618864</desc>
  </wpt>
  <wpt lat="59.435212" lon="10.651008250694453">
    <ele>0.0</ele>
    <name>Kanalen bobilparkering</name>
    <desc>cabins=no; capacity=17; caravan_site=motorhome_stopover;
    caravans=no; charge=260 NOK/24 hours; fee=yes; maxstay=72
    hours; name=Kanalen bobilparkering; operator=Moss kommune;
    power_supply=yes; toilets=yes; tourism=caravan_site;
    water_point=yes; id=way/733986879</desc>
  </wpt>
  <wpt lat="63.55712715" lon="10.65254520057574">
    <name>Øra bobilcamping</name>
    <desc>access=yes; amenity=toilets; capacity=5; fee=no; level=0;
    name=Øra bobilcamping; opening_hours=24/7;
    sanitary_dump_station=public; tourism=caravan_site;
    website=https://www.facebook.com/pages/category/Local-Business/%C3%98ra-Bobilcamping-933756940031825/;
    id=way/761092812</desc>
    <link href="https://www.facebook.com/pages/category/Local-Business/%C3%98ra-Bobilcamping-933756940031825/">
    </link>
  </wpt>
  <wpt lat="59.291902" lon="10.751588425875239">
    <ele>2.0</ele>
    <name>way/766644977</name>
    <desc>tourism=caravan_site; id=way/766644977</desc>
  </wpt>
  <wpt lat="62.67281235" lon="8.552592403943168">
    <name>
    https://www.sunndal.kommune.no/tjenester/veg-vann-og-avlop/vegarbeid-og-vedlikehold/parkering/bobilparkering/</name>
    <desc>capacity=8; sanitary_dump_station=yes; surface=asphalt;
    tourism=caravan_site;
    website=https://www.sunndal.kommune.no/tjenester/veg-vann-og-avlop/vegarbeid-og-vedlikehold/parkering/bobilparkering/;
    id=way/772978962</desc>
    <link href="https://www.sunndal.kommune.no/tjenester/veg-vann-og-avlop/vegarbeid-og-vedlikehold/parkering/bobilparkering/">
    </link>
  </wpt>
  <wpt lat="59.4964127" lon="5.89876230627593">
    <ele>3.0</ele>
    <name>Vikedal Båthavn</name>
    <desc>area=yes; capacity=60; caravans=no; internet_access=wlan;
    internet_access:fee=customers; motorhome=yes; name=Vikedal
    Båthavn; power_supply=yes; sanitary_dump_station=yes; tents=no;
    tourism=caravan_site; website=https://vikedal-baathavn.no;
    id=way/801406945</desc>
    <link href="https://vikedal-baathavn.no"></link>
  </wpt>
  <wpt lat="59.0871252" lon="10.41432599208845">
    <ele>7.0</ele>
    <name>Havna Camping</name>
    <desc>name=Havna Camping; tourism=caravan_site;
    website=https://havnatjome.no/camping/; id=way/857773725</desc>
    <link href="https://havnatjome.no/camping/"></link>
  </wpt>
  <wpt lat="60.3269687" lon="11.26226612131801">
    <ele>132.0</ele>
    <name>way/858004343</name>
    <desc>access=yes; amenity=parking; check_date=2025-08-27;
    covered=no; fee=no; note=has dedicated markings for camper
    vans; parking=surface; power_supply=no; reservation=no;
    sanitary_dump_station=yes; tourism=caravan_site;
    id=way/858004343</desc>
  </wpt>
  <wpt lat="59.314460499999996" lon="10.756839224520121">
    <ele>9.0</ele>
    <name>way/867231199</name>
    <desc>tourism=caravan_site; id=way/867231199</desc>
  </wpt>
  <wpt lat="70.22477169999999" lon="23.4008340914401">
    <name>Nyvoll Caravanplass</name>
    <desc>capacity=31; name=Nyvoll Caravanplass; operator=Nyvoll
    Grendehus og Bygdelag AL; power_supply=yes;
    reservation=members_only; sanitary_dump_station=customers;
    source=Norway Orthophoto; tourism=caravan_site;
    id=way/891904987</desc>
  </wpt>
  <wpt lat="70.66325725" lon="23.675605177148192">
    <name>Hammerfest havn</name>
    <desc>fee=yes; name=Hammerfest havn; opening_hours=24/7;
    power_supply=yes; sanitary_dump_station=yes; source=Norway
    Orthophoto; tourism=caravan_site; id=way/912429476</desc>
  </wpt>
  <wpt lat="60.181719" lon="5.473589313847485">
    <ele>10.0</ele>
    <name>Os Bubil- og Caravanparkering</name>
    <desc>capacity=8; name=Os Bubil- og Caravanparkering;
    power_supply=yes; tourism=caravan_site;
    website=https://osgjestehamn.no/; id=way/963305722</desc>
    <link href="https://osgjestehamn.no/"></link>
  </wpt>
  <wpt lat="60.513505800000004" lon="4.912418505112665">
    <name>way/964360839</name>
    <desc>amenity=parking; parking=surface; tourism=caravan_site;
    id=way/964360839</desc>
  </wpt>
  <wpt lat="60.32191325" lon="5.008667854546484">
    <ele>37.0</ele>
    <name>way/965985212</name>
    <desc>tourism=caravan_site; id=way/965985212</desc>
  </wpt>
  <wpt lat="60.3221346" lon="5.008843780142666">
    <ele>37.0</ele>
    <name>way/965985215</name>
    <desc>tourism=caravan_site; id=way/965985215</desc>
  </wpt>
  <wpt lat="60.3210817" lon="5.008667093261131">
    <ele>39.0</ele>
    <name>way/965985217</name>
    <desc>tourism=caravan_site; id=way/965985217</desc>
  </wpt>
  <wpt lat="60.32077865" lon="5.009492308445868">
    <ele>35.0</ele>
    <name>way/965985219</name>
    <desc>tourism=caravan_site; id=way/965985219</desc>
  </wpt>
  <wpt lat="60.322229199999995" lon="5.00969025772506">
    <ele>44.0</ele>
    <name>way/966018486</name>
    <desc>tourism=caravan_site; id=way/966018486</desc>
  </wpt>
  <wpt lat="58.155535549999996" lon="8.029809580335494">
    <ele>4.0</ele>
    <name>Kongsgård</name>
    <desc>capacity=50; fee=yes; name=Kongsgård; payment:coins=yes;
    payment:contactless=yes; power_supply=yes;
    sanitary_dump_station=yes; tourism=caravan_site;
    website=https://www.kristiansand.kommune.no/aktuelt/2021/kongsgard-bobilparkering-apner-1.-juli/;
    id=way/975804697</desc>
    <link href="https://www.kristiansand.kommune.no/aktuelt/2021/kongsgard-bobilparkering-apner-1.-juli/">
    </link>
  </wpt>
  <wpt lat="68.99902595" lon="15.026692417565279">
    <name>Nyksund Bobilcamp</name>
    <desc>
    contact:facebook=https://www.facebook.com/NyksundBobilcamp/;
    email=info@nyksund.as; name=Nyksund Bobilcamp; phone=+47 90 54
    54 66; tourism=caravan_site; id=way/978856252</desc>
  </wpt>
  <wpt lat="58.45260985" lon="5.906930040407422">
    <ele>6.0</ele>
    <name>way/980072819</name>
    <desc>tourism=caravan_site; id=way/980072819</desc>
  </wpt>
  <wpt lat="59.31786365" lon="10.755772588895546">
    <ele>9.0</ele>
    <name>way/983570704</name>
    <desc>tourism=caravan_site; id=way/983570704</desc>
  </wpt>
  <wpt lat="60.2849556" lon="10.412514865749348">
    <ele>152.0</ele>
    <name>way/984255608</name>
    <desc>tourism=caravan_site; id=way/984255608</desc>
  </wpt>
  <wpt lat="67.9705021" lon="15.008071592935453">
    <name>Gresssletta</name>
    <desc>name=Gresssletta; note=only freshwater and waste
    disposal, so no tents (and vans) allowed;
    sanitary_dump_station=no; tourism=caravan_site;
    id=way/1013332146</desc>
  </wpt>
  <wpt lat="70.51366155" lon="29.711538612617584">
    <name>way/1016544378</name>
    <desc>fee=no; tents=yes; tourism=caravan_site;
    id=way/1016544378</desc>
  </wpt>
  <wpt lat="69.23125175" lon="18.004468532709684">
    <name>way/1072125043</name>
    <desc>amenity=parking; capacity=8; capacity:motorhome=8;
    charge=150 NOK; fee=yes; parking=surface; power_supply=yes;
    tourism=caravan_site; id=way/1072125043</desc>
  </wpt>
  <wpt lat="59.214219400000005" lon="10.924939680817353">
    <ele>3.0</ele>
    <name>Fredrikstad Gjestehavn</name>
    <desc>name=Fredrikstad Gjestehavn; sanitary_dump_station=yes;
    tourism=caravan_site; id=way/1074752177</desc>
  </wpt>
  <wpt lat="70.06802114999999" lon="29.74858628762317">
    <name>way/1079244062</name>
    <desc>amenity=parking; motorhome=designated; parking=surface;
    surface=asphalt; tourism=caravan_site; id=way/1079244062</desc>
  </wpt>
  <wpt lat="59.55798865" lon="9.248336373765987">
    <ele>20.0</ele>
    <name>way/1080977981</name>
    <desc>tourism=caravan_site; id=way/1080977981</desc>
  </wpt>
  <wpt lat="59.30126945" lon="9.043254603369263">
    <ele>79.0</ele>
    <name>way/1080978153</name>
    <desc>fee=yes; power_supply=yes; sanitary_dump_station=yes;
    tourism=caravan_site; id=way/1080978153</desc>
  </wpt>
  <wpt lat="68.87294595" lon="17.839487203790462">
    <name>Strandparken</name>
    <desc>name=Strandparken; tourism=caravan_site;
    id=way/1084195353</desc>
  </wpt>
  <wpt lat="59.877745649999994" lon="8.572065152414485">
    <ele>314.0</ele>
    <name>Rjukan Næringspark</name>
    <desc>access=customers; amenity=parking; capacity=18;
    charge=200 NOK; fee=yes; motorhome=designated; name=Rjukan
    Næringspark; parking=surface; surface=asphalt;
    tourism=caravan_site;
    website=https://www.visitnorway.dk/listings/bobilparkeringen-rjukan/226429/;
    id=way/1084282903</desc>
    <link href="https://www.visitnorway.dk/listings/bobilparkeringen-rjukan/226429/">
    </link>
  </wpt>
  <wpt lat="59.87752555" lon="8.585265211000126">
    <ele>298.0</ele>
    <name>Rjukan bobilparkering Såheimsveien</name>
    <desc>access=customers; capacity=6; charge=200 NOK; fee=yes;
    motorhome=designated; name=Rjukan bobilparkering Såheimsveien;
    surface=asphalt; tourism=caravan_site;
    website=https://www.visitnorway.dk/listings/bobilparkeringen-rjukan/226429/;
    id=way/1084282905</desc>
    <link href="https://www.visitnorway.dk/listings/bobilparkeringen-rjukan/226429/">
    </link>
  </wpt>
  <wpt lat="63.44068095" lon="10.449311726967824">
    <name>way/1086642652</name>
    <desc>tourism=caravan_site; id=way/1086642652</desc>
  </wpt>
  <wpt lat="68.1635641" lon="14.21549985161487">
    <name>Engøya</name>
    <desc>access=yes; charge=300NOK; fee=yes; maxstay=24 hours;
    name=Engøya; parking=surface; toilets=yes;
    tourism=caravan_site; id=way/1111886214</desc>
  </wpt>
  <wpt lat="58.0404855" lon="7.149996960805133">
    <ele>3.0</ele>
    <name>Båly bobilparkering</name>
    <desc>capacity=25; caravans=yes;
    contact:facebook=https://www.facebook.com/people/Lindesnes-Hytteservice-as/100063561822085/;
    email=nina.lindesnes@gmail.com; fee=yes; mobile=+47 930 36 500;
    name=Båly bobilparkering; power_supply=yes; surface=gravel;
    tourism=caravan_site;
    website=https://lindesneshytteservice.no/;
    id=way/1177678431</desc>
    <link href="https://lindesneshytteservice.no/"></link>
  </wpt>
  <wpt lat="62.69915435" lon="6.698032923596683">
    <name>Sandneset Camping</name>
    <desc>amenity=parking_space; caravans=yes; operator=Sandneset
    Camping; parking_space=motorhome; tourism=caravan_site;
    id=way/1188470158</desc>
  </wpt>
  <wpt lat="62.6991639" lon="6.700840630064667">
    <name>Sandneset Camping</name>
    <desc>amenity=parking_space; caravans=yes; operator=Sandneset
    Camping; parking_space=motorhome; tourism=caravan_site;
    id=way/1188470161</desc>
  </wpt>
  <wpt lat="68.38952085" lon="14.411501906724464">
    <name>Laukvika bobilcamp</name>
    <desc>drinking_water=yes; fee=yes; internet_access=no;
    name=Laukvika bobilcamp; power_supply=yes;
    sanitary_dump_station=yes; toilets=yes; tourism=caravan_site;
    wheelchair=yes; id=way/1191252804</desc>
  </wpt>
  <wpt lat="59.001101000000006" lon="10.045782732396866">
    <ele>4.0</ele>
    <name>Solsiden</name>
    <desc>capacity=21; fee=yes; name=Solsiden; power_supply=yes;
    shower=yes; toilets=yes; tourism=caravan_site;
    website=https://solsidenstavern.no/bobilpark/;
    id=way/1203902912</desc>
    <link href="https://solsidenstavern.no/bobilpark/"></link>
  </wpt>
  <wpt lat="58.9928755" lon="10.022482778898334">
    <ele>28.0</ele>
    <name>Stavern Bo &amp; Fritid Bobilpark</name>
    <desc>capacity=100; charge=350 NOK/night;
    check_date:fee=2023-08-31; check_date:opening_hours=2023-08-31;
    fee=yes; name=Stavern Bo &amp; Fritid Bobilpark;
    opening_hours=week 1-27, 34-52; operator=Stavern Folkehoyskole;
    phone=+47 33 15 68 00; power_supply=yes;
    sanitary_dump_station=yes; shower=yes; toilets=yes;
    tourism=caravan_site; water_point=yes;
    website=https://www.stavernbofritid.no/bobilpark;
    id=way/1203921219</desc>
    <link href="https://www.stavernbofritid.no/bobilpark"></link>
  </wpt>
  <wpt lat="59.26616155" lon="10.389081908744547">
    <ele>0.0</ele>
    <name>Bobil Parkering</name>
    <desc>charge=350 NOK/day; check_date:fee=2023-09-01;
    drinking_water=yes; fee=yes; internet_access=wlan; lit=yes;
    name=Bobil Parkering; power_supply=yes;
    sanitary_dump_station=yes; shower=yes; toilets=yes;
    tourism=caravan_site; id=way/1204298443</desc>
  </wpt>
  <wpt lat="58.7599774" lon="9.074779571147456">
    <ele>7.0</ele>
    <name>Søndeled Bobilparkering</name>
    <desc>charge=320 NOK / day; check_date:fee=2023-08-31; fee=yes;
    name=Søndeled Bobilparkering; note=Cash payment in supermarket;
    payment:cash=yes; payment:vipps=yes; power_supply=yes;
    sanitary_dump_station=yes; tourism=caravan_site;
    water_point=yes; id=way/1207573067</desc>
  </wpt>
  <wpt lat="58.13781935" lon="7.073137170547672">
    <ele>10.0</ele>
    <name>way/1211532847</name>
    <desc>capacity=21; fee=yes; internet_access=wlan;
    power_supply=yes; swimming_pool=no; tourism=caravan_site;
    wheelchair=limited; id=way/1211532847</desc>
  </wpt>
  <wpt lat="62.62040845" lon="7.098722393864563">
    <name>Livneset Bobilparkering</name>
    <desc>fee=yes; name=Livneset Bobilparkering; payment:app=yes;
    power_supply=yes; tourism=caravan_site;
    id=way/1212126847</desc>
  </wpt>
  <wpt lat="62.62086065" lon="7.096204568873604">
    <name>Vestnes Småbåtforening</name>
    <desc>internet_access=wlan; name=Vestnes Småbåtforening;
    payment:app=yes; power_supply=yes; sanitary_dump_station=yes;
    tourism=caravan_site;
    website=https://www.vsbf.no/gjestebrygge-bobil;
    id=way/1212178483</desc>
    <link href="https://www.vsbf.no/gjestebrygge-bobil"></link>
  </wpt>
  <wpt lat="62.622921" lon="7.08642403038815">
    <name>Vestnes bobil- og rasteplass</name>
    <desc>capacity=10; fee=yes; name=Vestnes bobil- og rasteplass;
    power_supply=yes; sanitary_dump_station=no; shower=no;
    toilets=no; tourism=caravan_site;
    website=https://www.vestnes.kommune.no/aktuelt/velkommen-til-vestnes-bobil-og-rasteplass.9855.aspx;
    id=way/1212193609</desc>
    <link href="https://www.vestnes.kommune.no/aktuelt/velkommen-til-vestnes-bobil-og-rasteplass.9855.aspx">
    </link>
  </wpt>
  <wpt lat="63.31411625" lon="9.858616698937075">
    <name>Terna Bobilhavn</name>
    <desc>capacity=6; charge=300 NOK/day (2023); fee=yes;
    name=Terna Bobilhavn; payment:app=yes; payment:vipps=yes;
    power_supply=yes; shower=yes; toilets=yes;
    tourism=caravan_site; water_point=yes; id=way/1212570247</desc>
  </wpt>
  <wpt lat="58.45527745" lon="6.002047819178806">
    <ele>2.0</ele>
    <name>Perrongen</name>
    <desc>name=Perrongen; power_supply=yes;
    sanitary_dump_station=no; tourism=caravan_site;
    id=way/1215636292</desc>
  </wpt>
  <wpt lat="58.4544983" lon="6.00256347385702">
    <ele>4.0</ele>
    <name>Gruset</name>
    <desc>charge=250NOK/day (2023); fee=yes; name=Gruset;
    power_supply=yes; sanitary_dump_station=no;
    tourism=caravan_site; id=way/1215636293</desc>
  </wpt>
  <wpt lat="58.44847315" lon="6.006511813158635">
    <ele>13.0</ele>
    <name>Sokndalsveien</name>
    <desc>capacity=10; fee=yes; name=Sokndalsveien;
    power_supply=yes; sanitary_dump_station=no;
    tourism=caravan_site; id=way/1215637189</desc>
  </wpt>
  <wpt lat="62.566708899999995" lon="7.695265095253211">
    <name>Bobilparkering Åndalsnes Tindekaia</name>
    <desc>charge=150 NOK/day; fee=yes; name=Bobilparkering
    Åndalsnes Tindekaia; payment:cards=yes; payment:cash=yes;
    payment:easypark=yes; payment:smartpark=yes; power_supply=no;
    reservation=no; sanitary_dump_station=no; tourism=caravan_site;
    water_point=yes;
    website=https://www.rauma.kommune.no/tjenester/parkering-vei-og-transport/parkering/bobilparkering-andalsnes/;
    id=way/1221563533</desc>
    <link href="https://www.rauma.kommune.no/tjenester/parkering-vei-og-transport/parkering/bobilparkering-andalsnes/">
    </link>
  </wpt>
  <wpt lat="62.469077" lon="6.131609097880602">
    <name>Skjerva bobilparkering</name>
    <desc>capacity=57; fee=yes; internet_access=wlan;
    internet_access:fee=no; name=Skjerva bobilparkering;
    name:de=Stellplatz Ålesund; payment:cards=yes;
    payment:cash=yes; payment:easypark=yes; payment:flexipark=yes;
    power_supply=yes; reservation=no; sanitary_dump_station=yes;
    shower=yes; start_date=2021; toilets=yes; tourism=caravan_site;
    website=https://www.alesundbobil.no/parkering/skjerva-bobilparkering/;
    id=way/1223800116</desc>
    <link href="https://www.alesundbobil.no/parkering/skjerva-bobilparkering/">
    </link>
  </wpt>
  <wpt lat="60.698193950000004" lon="8.948359966118048">
    <name>Bobilparkering</name>
    <desc>contact:facebook=https://www.facebook.com/hallingresort;
    fee=yes; name=Bobilparkering; opening_hours=May 01-Oct 31,24/7;
    payment:vipps=yes; tourism=caravan_site;
    website=https://www.hallingparken.no/bobil-camp;
    id=way/1240564969</desc>
    <link href="https://www.hallingparken.no/bobil-camp"></link>
  </wpt>
  <wpt lat="68.86913559999999" lon="17.77295855924646">
    <name>Garsnes camping</name>
    <desc>name=Garsnes camping; tourism=caravan_site;
    id=way/1265502172</desc>
  </wpt>
  <wpt lat="68.87797069999999" lon="17.82715501590315">
    <name>Brygga bobilparkering</name>
    <desc>name=Brygga bobilparkering; phone=+47 48 15 53 88;
    tourism=caravan_site; id=way/1265502177</desc>
  </wpt>
  <wpt lat="68.86872650000001" lon="17.772379920238045">
    <name>Garsnes camping</name>
    <desc>name=Garsnes camping; tourism=caravan_site;
    id=way/1265502180</desc>
  </wpt>
  <wpt lat="61.835421600000004" lon="6.801837085400952">
    <name>Olden Fjordcamping</name>
    <desc>fixme=needs more info; name=Olden Fjordcamping;
    tourism=caravan_site; id=way/1295016783</desc>
  </wpt>
  <wpt lat="68.07721864999999" lon="13.534722803637973">
    <name>Reineholmen bobilcamp</name>
    <desc>capacity=45; internet_access=no; name=Reineholmen
    bobilcamp; operator=Reineholmen Hotell Eiendom AS;
    power_supply=yes; sanitary_dump_station=yes;
    tourism=caravan_site; id=way/1309457636</desc>
  </wpt>
  <wpt lat="59.1473034" lon="11.55404843089431">
    <ele>99.0</ele>
    <name>Bobilparkering Brekke</name>
    <desc>capacity=4; charge=250 NOK; fee=yes; name=Bobilparkering
    Brekke; panoramax=80e5db6b-18df-4b32-8982-fbbb3fa628c7;
    sanitary_dump_station=no; toilets=yes; tourism=caravan_site;
    id=way/1322163421</desc>
  </wpt>
  <wpt lat="59.8041899" lon="10.621414745352288">
    <ele>124.0</ele>
    <name>way/1336006750</name>
    <desc>tourism=caravan_site; id=way/1336006750</desc>
  </wpt>
  <wpt lat="63.75992375" lon="10.071100295291757">
    <name>Stjørna IL</name>
    <desc>operator=Stjørna IL; payment:vipps=yes;
    tourism=caravan_site; id=way/1377763732</desc>
  </wpt>
  <wpt lat="66.3073155" lon="14.133341007383422">
    <name>Motorhome parking</name>
    <desc>capacity:caravans=5; caravan_site=motorhome_stopover;
    name=Motorhome parking; power_supply=no;
    sanitary_dump_station=no; tourism=caravan_site;
    id=way/1419288253</desc>
  </wpt>
  <wpt lat="59.543744849999996" lon="10.299950663431595">
    <ele>4.0</ele>
    <name>way/1420062107</name>
    <desc>fee=no; internet_access=no; power_supply=no;
    sanitary_dump_station=no; tourism=caravan_site;
    id=way/1420062107</desc>
  </wpt>
  <wpt lat="67.2330511" lon="14.621643268543044">
    <name>Motorhome parking</name>
    <desc>caravan_site=motorhome_stopover; fee=no;
    internet_access=no; name=Motorhome parking; power_supply=no;
    sanitary_dump_station=no; surface=asphalt;
    tourism=caravan_site; id=way/1420071634</desc>
  </wpt>
  <wpt lat="68.19242170000001" lon="13.539896494422365">
    <name>way/1421438411</name>
    <desc>area=yes; charge=400NOK; fee=yes; phone=+47 90694099;
    tourism=caravan_site; id=way/1421438411</desc>
  </wpt>
  <wpt lat="66.87175505" lon="13.705969325116586">
    <name>way/1430799900</name>
    <desc>shower=no; toilets=no; tourism=caravan_site;
    id=way/1430799900</desc>
  </wpt>
</gpx>
