<?xml version="1.0" encoding="utf-8"?>
<gpx xmlns="http://www.topografix.com/GPX/1/1"
xmlns:xsi="http://www.w3.org/2001/XMLSchema-instance"
xsi:schemaLocation="http://www.topografix.com/GPX/1/1 http://www.topografix.com/GPX/1/1/gpx.xsd"
version="1.1" creator="togpx">
  <metadata>
    <copyright>
      <license>"osm3s": { "timestamp_osm_base":
      "2025-08-01T10:00:55Z", "timestamp_areas_base":
      "2025-08-01T04:12:55Z", "copyright": "The data included in
      this document is from www.openstreetmap.org. The data is made
      available under ODbL." } // SRTM: { Elevation data missing in
      OSM was added by the NASA Shuttle Radar Topography Mission as
      public release version, if available there. } // { Check for
      latest version of this file on:
      https://github.com/GpxFeed/campgrounds }</license>
    </copyright>
  </metadata>
  <wpt lat="54.1813643" lon="15.5944818">
    <ele>5.0</ele>
    <name>Baltic 78</name>
    <desc>caravans=yes; email=baltic78@post.pl; fax=+48 94 3524569;
    internet_access=wlan; name=Baltic 78; phone=+48 606 411 954,
    +48 94 3524569; ref:pfcc=78; stars=3; tents=yes; toilets=yes;
    tourism=caravan_site; website=http://www.camping.kolobrzeg.pl/;
    wheelchair=yes; id=node/26860240</desc>
    <link href="http://www.camping.kolobrzeg.pl/"></link>
  </wpt>
  <wpt lat="54.1469792" lon="21.7477806">
    <ele>117.0</ele>
    <name>Park Sonata</name>
    <desc>name=Park Sonata; tourism=caravan_site;
    id=node/26860336</desc>
  </wpt>
  <wpt lat="52.1647095" lon="15.8919073">
    <ele>67.0</ele>
    <name>node/470019022</name>
    <desc>tourism=caravan_site; id=node/470019022</desc>
  </wpt>
  <wpt lat="49.2958715" lon="22.4755263">
    <ele>421.0</ele>
    <name>node/1046807296</name>
    <desc>tourism=caravan_site; id=node/1046807296</desc>
  </wpt>
  <wpt lat="49.5657703" lon="22.2119532">
    <ele>296.0</ele>
    <name>Sosenki</name>
    <desc>name=Sosenki; tourism=caravan_site;
    id=node/1125227416</desc>
  </wpt>
  <wpt lat="49.9487053" lon="18.3526396">
    <ele>194.0</ele>
    <name>Europa</name>
    <desc>name=Europa; tourism=caravan_site;
    id=node/1200527505</desc>
  </wpt>
  <wpt lat="54.6219581" lon="16.9863593">
    <ele>22.0</ele>
    <name>Holidays</name>
    <desc>fee=yes; name=Holidays; power_supply=yes; tents=yes;
    tourism=caravan_site; id=node/1395465422</desc>
  </wpt>
  <wpt lat="50.5428387" lon="23.1966602">
    <ele>255.0</ele>
    <name>node/1421045874</name>
    <desc>tourism=caravan_site; id=node/1421045874</desc>
  </wpt>
  <wpt lat="54.5435201" lon="18.2325033">
    <ele>144.0</ele>
    <name>node/1453559220</name>
    <desc>tourism=caravan_site; id=node/1453559220</desc>
  </wpt>
  <wpt lat="51.6504341" lon="19.3705122">
    <ele>177.0</ele>
    <name>node/1627113083</name>
    <desc>tourism=caravan_site; id=node/1627113083</desc>
  </wpt>
  <wpt lat="50.5447236" lon="18.9817285">
    <ele>292.0</ele>
    <name>U Rzepki</name>
    <desc>name=U Rzepki; tourism=caravan_site;
    id=node/1646913790</desc>
  </wpt>
  <wpt lat="52.3830391" lon="15.8817559">
    <ele>58.0</ele>
    <name>Ośrodek Wypoczynkowy Abarex</name>
    <desc>fee=yes; internet_access=wlan; internet_access:fee=no;
    name=Ośrodek Wypoczynkowy Abarex; tourism=caravan_site;
    website=http://abarex.pl/index.php?option=com_content&amp;task=view&amp;id=86&amp;Itemid=28;
    id=node/1728369939</desc>
    <link href="http://abarex.pl/index.php?option=com_content%26task=view%26id=86%26Itemid=28">
    </link>
  </wpt>
  <wpt lat="53.0048084" lon="14.9579014">
    <ele>60.0</ele>
    <name>node/1744080201</name>
    <desc>tourism=caravan_site; id=node/1744080201</desc>
  </wpt>
  <wpt lat="52.8959214" lon="16.0150099">
    <ele>35.0</ele>
    <name>node/1746470222</name>
    <desc>tourism=caravan_site; id=node/1746470222</desc>
  </wpt>
  <wpt lat="52.323823" lon="18.3093653">
    <ele>87.0</ele>
    <name>bernardynkaport</name>
    <desc>name=bernardynkaport; tourism=caravan_site;
    id=node/1754766376</desc>
  </wpt>
  <wpt lat="51.496921" lon="23.5472463">
    <ele>164.0</ele>
    <name>Ośrodek Wypoczynkowy Wodnik</name>
    <desc>email=info@wodnik-okuninka.pl; name=Ośrodek Wypoczynkowy
    Wodnik; phone=+48500336186; power_supply=yes; tents=yes;
    tourism=caravan_site; website=http://www.wodnik-okuninka.pl/;
    id=node/1789095720</desc>
    <link href="http://www.wodnik-okuninka.pl/"></link>
  </wpt>
  <wpt lat="51.4434622" lon="19.9163658">
    <ele>182.0</ele>
    <name>node/1825829492</name>
    <desc>tourism=caravan_site; id=node/1825829492</desc>
  </wpt>
  <wpt lat="53.4249586" lon="17.9321965">
    <ele>88.0</ele>
    <name>node/1845175598</name>
    <desc>tourism=caravan_site; id=node/1845175598</desc>
  </wpt>
  <wpt lat="51.4956548" lon="21.6212272">
    <ele>157.0</ele>
    <name>Polanka</name>
    <desc>name=Polanka; tourism=caravan_site;
    id=node/1965668982</desc>
  </wpt>
  <wpt lat="49.9639219" lon="18.3307543">
    <ele>191.0</ele>
    <name>node/2139720374</name>
    <desc>tourism=caravan_site; id=node/2139720374</desc>
  </wpt>
  <wpt lat="54.1036715" lon="17.9446407">
    <ele>164.0</ele>
    <name>node/2178057944</name>
    <desc>tourism=caravan_site; id=node/2178057944</desc>
  </wpt>
  <wpt lat="50.7552565" lon="16.6956087">
    <ele>273.0</ele>
    <name>Forteca</name>
    <desc>name=Forteca; tourism=caravan_site;
    id=node/2242662977</desc>
  </wpt>
  <wpt lat="50.7693996" lon="20.7632588">
    <ele>249.0</ele>
    <name>node/2253212020</name>
    <desc>tourism=caravan_site; id=node/2253212020</desc>
  </wpt>
  <wpt lat="52.9104156" lon="23.0757678">
    <ele>129.0</ele>
    <name>node/2392023223</name>
    <desc>tourism=caravan_site; id=node/2392023223</desc>
  </wpt>
  <wpt lat="50.0233891" lon="19.198209">
    <ele>234.0</ele>
    <name>Centrum Dialogu i Modlitwy</name>
    <desc>fee=yes; internet_access=wlan; name=Centrum Dialogu i
    Modlitwy; power_supply=yes; tents=yes; tourism=caravan_site;
    id=node/2413491861</desc>
  </wpt>
  <wpt lat="53.4147011" lon="19.3913267">
    <ele>77.0</ele>
    <name>node/2413764217</name>
    <desc>tourism=caravan_site; id=node/2413764217</desc>
  </wpt>
  <wpt lat="54.2160533" lon="15.7690991">
    <ele>15.0</ele>
    <name>Camping AWF Poznań</name>
    <desc>addr:city=Ustronie Morskie; addr:housenumber=26;
    addr:postcode=78-111; addr:street=Wojska Polskiego; fee=yes;
    kitchen=yes; name=Camping AWF Poznań; phone=+48 94 351 50 04;
    power_supply=yes; stars=2; tents=yes; toilets=yes;
    tourism=caravan_site; website=http://awf.obitur.pl;
    id=node/2415679301</desc>
    <link href="http://awf.obitur.pl"></link>
  </wpt>
  <wpt lat="53.0117704" lon="15.636755">
    <ele>70.0</ele>
    <name>node/2425764803</name>
    <desc>tourism=caravan_site; id=node/2425764803</desc>
  </wpt>
  <wpt lat="51.3506548" lon="16.8319753">
    <ele>146.0</ele>
    <name>Ośrodek Wypoczynkowy "Karczma Nad Stawem"</name>
    <desc>contact:email=nadstawem@onet.pl; contact:phone=+48
    512667354; name=Ośrodek Wypoczynkowy "Karczma Nad Stawem";
    tourism=caravan_site; id=node/2440771508</desc>
  </wpt>
  <wpt lat="52.5499229" lon="21.0895984">
    <ele>81.0</ele>
    <name>Kamping nad Narwią</name>
    <desc>description=10pln/doba mozna zostawić bus. W okolicy
    tereny do jazdy crossem; name=Kamping nad Narwią;
    tourism=caravan_site; id=node/2461282961</desc>
  </wpt>
  <wpt lat="52.3994791" lon="22.0064039">
    <ele>119.0</ele>
    <name>Camping nad Liwcem</name>
    <desc>name=Camping nad Liwcem; tourism=caravan_site;
    id=node/2510427074</desc>
  </wpt>
  <wpt lat="52.8540449" lon="16.5312717">
    <ele>88.0</ele>
    <name>Camping nr 214</name>
    <desc>name=Camping nr 214; power_supply=yes; tents=yes;
    tourism=caravan_site; id=node/2525355262</desc>
  </wpt>
  <wpt lat="52.244688" lon="15.4025056">
    <ele>103.0</ele>
    <name>node/2610627951</name>
    <desc>tourism=caravan_site; id=node/2610627951</desc>
  </wpt>
  <wpt lat="54.034678" lon="21.7600993">
    <ele>124.0</ele>
    <name>St. Bruno</name>
    <desc>addr:city=Giżycko; addr:postcode=11-500;
    addr:street=Świętego Brunona; cabins=no; charge=130;
    disused:tourism=camp_site; fee=yes; internet_access=yes;
    internet_access:fee=no; name=St. Bruno;
    panoramax=cd7495af-531a-4e3d-ac60-ec91c3872b23;
    panoramax:0=6f5e612f-55f1-46c2-95da-0aa352ebe6da;
    panoramax:1=9ef2163a-22d0-4036-879a-ed2c9c7f4278;
    panoramax:2=8de21e76-b896-4dc2-a7e4-01fe8df743dc;
    permanent_camping=no; power_supply=yes; shower=hot; tents=no;
    toilets=yes; tourism=caravan_site; id=node/2623143570</desc>
  </wpt>
  <wpt lat="50.0834173" lon="19.1373373">
    <ele>250.0</ele>
    <name>node/2727787877</name>
    <desc>tourism=caravan_site; id=node/2727787877</desc>
  </wpt>
  <wpt lat="50.0833244" lon="19.1441609">
    <ele>254.0</ele>
    <name>node/2727787906</name>
    <desc>tourism=caravan_site; id=node/2727787906</desc>
  </wpt>
  <wpt lat="50.9395272" lon="16.5111122">
    <ele>189.0</ele>
    <name>node/2853170419</name>
    <desc>tourism=caravan_site; id=node/2853170419</desc>
  </wpt>
  <wpt lat="53.0795789" lon="15.7871907">
    <ele>73.0</ele>
    <name>Siedem Sosen</name>
    <desc>name=Siedem Sosen; tourism=caravan_site;
    id=node/2862548848</desc>
  </wpt>
  <wpt lat="53.2229972" lon="15.9033581">
    <ele>96.0</ele>
    <name>node/2862875681</name>
    <desc>tourism=caravan_site; id=node/2862875681</desc>
  </wpt>
  <wpt lat="54.2071859" lon="15.7309516">
    <ele>10.0</ele>
    <name>Dla Ciebie</name>
    <desc>name=Dla Ciebie; phone=+48 607 969 730; power_supply=yes;
    tents=yes; tourism=caravan_site; id=node/2915641878</desc>
  </wpt>
  <wpt lat="51.2780315" lon="16.945042">
    <ele>161.0</ele>
    <name>Ośrodek Wypoczynkowy "PRODUS"</name>
    <desc>email=produs1@o2.pl; fee=yes; name=Ośrodek Wypoczynkowy
    "PRODUS"; phone=+48 71 310 27 46; power_supply=yes; tents=yes;
    tourism=caravan_site; website=http://www.wilczynlesny.pl;
    id=node/2929129992</desc>
    <link href="http://www.wilczynlesny.pl"></link>
  </wpt>
  <wpt lat="53.8933557" lon="18.3797628">
    <ele>115.0</ele>
    <name>node/3024404619</name>
    <desc>tourism=caravan_site; id=node/3024404619</desc>
  </wpt>
  <wpt lat="52.5803522" lon="21.0684729">
    <ele>111.0</ele>
    <name>CamperPark24</name>
    <desc>addr:housenumber=62; addr:place=Trzepowo;
    addr:postcode=06-114; capacity=15; description=Safe
    accommodation base for caravanning fans. The perfect pace for
    traveling by motorhome or with a caravan trailer. You can
    refuel with clean water and leave gray water. Parcels for
    vehicles are overgrown with grass.; email=602215429@wp.pl;
    fee=yes; internet_access=no; name=CamperPark24;
    operator=Budodróg; payment:cash=yes; phone=+48 602 215 429;
    power_supply=yes; sanitary_dump_station=yes;
    tourism=caravan_site; website=https://camperpark24.pl/;
    id=node/3033992059</desc>
    <link href="https://camperpark24.pl/"></link>
  </wpt>
  <wpt lat="52.5355445" lon="14.8799577">
    <ele>26.0</ele>
    <name>node/3211601062</name>
    <desc>tourism=caravan_site; id=node/3211601062</desc>
  </wpt>
  <wpt lat="50.9759018" lon="21.1475594">
    <ele>269.0</ele>
    <name>node/3457248951</name>
    <desc>tourism=caravan_site; id=node/3457248951</desc>
  </wpt>
  <wpt lat="54.6678852" lon="17.0533508">
    <ele>3.0</ele>
    <name>Na Wydmie</name>
    <desc>name=Na Wydmie; operator=Robert Gąsiorowski;
    sanitary_dump_station=customers; tourism=caravan_site;
    id=node/3675711450</desc>
  </wpt>
  <wpt lat="53.2659155" lon="23.6389109">
    <ele>190.0</ele>
    <name>node/3699854371</name>
    <desc>access=yes; amenity=water_point; fee=yes;
    opening_hours=24/7; payment:coins=yes; power_supply=yes;
    sanitary_dump_station=no; tourism=caravan_site;
    id=node/3699854371</desc>
  </wpt>
  <wpt lat="53.8700911" lon="17.5475024">
    <ele>128.0</ele>
    <name>Agrokemping</name>
    <desc>addr:housenumber=4; addr:place=Płęsno;
    addr:postcode=89-608; name=Agrokemping; opening_hours=24/7;
    tourism=caravan_site; id=node/4255578694</desc>
  </wpt>
  <wpt lat="51.3325991" lon="21.0172785">
    <ele>197.0</ele>
    <name>node/4266427889</name>
    <desc>tourism=caravan_site; id=node/4266427889</desc>
  </wpt>
  <wpt lat="53.1083641" lon="23.2192056">
    <ele>135.0</ele>
    <name>BOSiR</name>
    <desc>fee=yes; opening_hours=Apr 01-Oct 31; operator=BOSiR;
    tourism=caravan_site; id=node/4296609634</desc>
  </wpt>
  <wpt lat="54.3081474" lon="16.198836">
    <ele>0.0</ele>
    <name>Mewa</name>
    <desc>name=Mewa; tourism=caravan_site;
    id=node/4324438535</desc>
  </wpt>
  <wpt lat="54.7593832" lon="17.5412063">
    <ele>0.0</ele>
    <name>node/4337140614</name>
    <desc>internet_access=wlan; tourism=caravan_site;
    id=node/4337140614</desc>
  </wpt>
  <wpt lat="53.9575774" lon="21.7379055">
    <ele>120.0</ele>
    <name>Bila</name>
    <desc>addr:housenumber=54; addr:place=Bogaczewo;
    addr:postcode=11-500; name=Bila; opening_hours=24/7; phone=+48
    669 484 211; tourism=caravan_site;
    website=https://bila.mazury.com/; id=node/4337292729</desc>
    <link href="https://bila.mazury.com/"></link>
  </wpt>
  <wpt lat="54.2428739" lon="15.8859646">
    <ele>2.0</ele>
    <name>Alfa Klif</name>
    <desc>addr:city=Gąski; addr:housenumber=3;
    addr:postcode=76-034; addr:street=Marynarzy; name=Alfa Klif;
    operator=Adam Gryczman; tourism=caravan_site;
    website=https://www.alfa-klif.pl/; id=node/4338119046</desc>
    <link href="https://www.alfa-klif.pl/"></link>
  </wpt>
  <wpt lat="53.6652153" lon="20.3774733">
    <ele>147.0</ele>
    <name>Wymój Park</name>
    <desc>name=Wymój Park; tourism=caravan_site;
    id=node/4343601989</desc>
  </wpt>
  <wpt lat="50.0346068" lon="19.8767468">
    <ele>204.0</ele>
    <name>Elcamp Stellplatz</name>
    <desc>fee=yes; internet_access=wlan; name=Elcamp Stellplatz;
    power_supply=yes; tourism=caravan_site;
    id=node/4452073633</desc>
  </wpt>
  <wpt lat="54.2276324" lon="18.3148203">
    <ele>186.0</ele>
    <name>jezioro Głębokie</name>
    <desc>name=jezioro Głębokie; name:pl=jezioro Głębokie;
    tourism=caravan_site; id=node/4558283992</desc>
  </wpt>
  <wpt lat="53.8347152" lon="21.2028657">
    <ele>165.0</ele>
    <name>node/4745557865</name>
    <desc>tourism=caravan_site; id=node/4745557865</desc>
  </wpt>
  <wpt lat="54.1027101" lon="21.7710145">
    <ele>114.0</ele>
    <name>node/4799344724</name>
    <desc>tourism=caravan_site; id=node/4799344724</desc>
  </wpt>
  <wpt lat="54.1297263" lon="22.6221464">
    <ele>171.0</ele>
    <name>node/4831077321</name>
    <desc>tourism=caravan_site; id=node/4831077321</desc>
  </wpt>
  <wpt lat="53.9591684" lon="17.8053366">
    <ele>137.0</ele>
    <name>node/4832263316</name>
    <desc>tourism=caravan_site; id=node/4832263316</desc>
  </wpt>
  <wpt lat="53.7044055" lon="21.3822778">
    <ele>145.0</ele>
    <name>PHU Stanica Wodna Ośrodek Sportowo - Turystyczny</name>
    <desc>addr:city=Piecki; addr:country=PL; addr:housenumber=50;
    addr:place=Cierzpięty; addr:postcode=11-710; fee=yes; name=PHU
    Stanica Wodna Ośrodek Sportowo - Turystyczny; power_supply=yes;
    tents=yes; tourism=caravan_site; wheelchair=yes;
    id=node/4880023711</desc>
  </wpt>
  <wpt lat="54.0622754" lon="14.9425536">
    <ele>12.0</ele>
    <name>node/4902516925</name>
    <desc>addr:housenumber=17; addr:postcode=72-346;
    addr:street=Kujawska; email=irena_rewal@op.pl;
    phone=+48607920064; tourism=caravan_site;
    id=node/4902516925</desc>
  </wpt>
  <wpt lat="54.7203501" lon="18.4197842">
    <ele>6.0</ele>
    <name>node/4947145525</name>
    <desc>tourism=caravan_site; id=node/4947145525</desc>
  </wpt>
  <wpt lat="51.1834128" lon="23.7274705">
    <ele>174.0</ele>
    <name>Bar u Marka</name>
    <desc>internet_access=wlan; name=Bar u Marka; name:en=Bar u
    Marka; name:pl=Bar u Marka; name:uk=Бар у Марка;
    tourism=caravan_site; id=node/4950211343</desc>
  </wpt>
  <wpt lat="51.4454322" lon="23.1219836">
    <ele>176.0</ele>
    <name>Pole wypoczynkowe</name>
    <desc>name=Pole wypoczynkowe; name:pl=Pole wypoczynkowe;
    opening_hours=24/7; tourism=caravan_site;
    id=node/4960229223</desc>
  </wpt>
  <wpt lat="53.8999222" lon="23.234708">
    <ele>124.0</ele>
    <name>node/5037073124</name>
    <desc>fee=yes; tourism=caravan_site; id=node/5037073124</desc>
  </wpt>
  <wpt lat="54.1868111" lon="21.7678022">
    <ele>136.0</ele>
    <name>node/5039209623</name>
    <desc>tourism=caravan_site; id=node/5039209623</desc>
  </wpt>
  <wpt lat="54.3207566" lon="22.3380967">
    <ele>154.0</ele>
    <name>node/5039605368</name>
    <desc>tourism=caravan_site; id=node/5039605368</desc>
  </wpt>
  <wpt lat="54.3600323" lon="19.6969423">
    <ele>19.0</ele>
    <name>node/5040002392</name>
    <desc>tourism=caravan_site; id=node/5040002392</desc>
  </wpt>
  <wpt lat="54.1584251" lon="21.8231509">
    <ele>113.0</ele>
    <name>Pole namiotowe nad Lemiętem</name>
    <desc>name=Pole namiotowe nad Lemiętem; name:pl=Pole namiotowe
    nad Lemiętem; tourism=caravan_site; id=node/5055644623</desc>
  </wpt>
  <wpt lat="54.2180443" lon="21.5772675">
    <ele>82.0</ele>
    <name>node/5064171621</name>
    <desc>tourism=caravan_site; id=node/5064171621</desc>
  </wpt>
  <wpt lat="53.6676303" lon="23.1107558">
    <ele>115.0</ele>
    <name>node/5088291722</name>
    <desc>tourism=caravan_site; id=node/5088291722</desc>
  </wpt>
  <wpt lat="53.4895008" lon="22.7448061">
    <ele>121.0</ele>
    <name>node/5091272624</name>
    <desc>tourism=caravan_site; id=node/5091272624</desc>
  </wpt>
  <wpt lat="50.3668461" lon="23.078881">
    <ele>217.0</ele>
    <name>Pole namiotowe Borowe Młyny. Początek spływu
    Tanwią.</name>
    <desc>amenity=bbq; name=Pole namiotowe Borowe Młyny. Początek
    spływu Tanwią.; tourism=caravan_site; id=node/5155559814</desc>
  </wpt>
  <wpt lat="54.3019115" lon="16.1864877">
    <ele>6.0</ele>
    <name>node/5160411222</name>
    <desc>tourism=caravan_site; id=node/5160411222</desc>
  </wpt>
  <wpt lat="54.2944561" lon="16.1696071">
    <ele>6.0</ele>
    <name>node/5160411322</name>
    <desc>tourism=caravan_site; id=node/5160411322</desc>
  </wpt>
  <wpt lat="49.5608682" lon="19.277099">
    <ele>734.0</ele>
    <name>node/5206955523</name>
    <desc>tourism=caravan_site; id=node/5206955523</desc>
  </wpt>
  <wpt lat="49.6358069" lon="19.3028149">
    <ele>468.0</ele>
    <name>Pole namiotowe. Chatka harcerska</name>
    <desc>name=Pole namiotowe. Chatka harcerska; name:pl=Pole
    namiotowe. Chatka harcerska; tourism=caravan_site;
    id=node/5206955722</desc>
  </wpt>
  <wpt lat="53.6278555" lon="21.5460355">
    <ele>116.0</ele>
    <name>Binduga</name>
    <desc>name=Binduga; tourism=caravan_site;
    id=node/5357079821</desc>
  </wpt>
  <wpt lat="52.1674565" lon="20.9363655">
    <ele>107.0</ele>
    <name>UniPark</name>
    <desc>name=UniPark; phone=+48797513113; tourism=caravan_site;
    id=node/5362071423</desc>
  </wpt>
  <wpt lat="49.7886362" lon="19.2010091">
    <ele>321.0</ele>
    <name>Eden</name>
    <desc>name=Eden; tourism=caravan_site;
    id=node/5484998435</desc>
  </wpt>
  <wpt lat="54.3513325" lon="19.2240484">
    <ele>21.0</ele>
    <name>Gniazdo Kormorana</name>
    <desc>name=Gniazdo Kormorana; tourism=caravan_site;
    id=node/5747672539</desc>
  </wpt>
  <wpt lat="49.7785979" lon="22.7550237">
    <ele>196.0</ele>
    <name>node/5760648347</name>
    <desc>fee=yes; sanitary_dump_station=no; shower=yes;
    toilets=yes; tourism=caravan_site; id=node/5760648347</desc>
  </wpt>
  <wpt lat="53.34239" lon="20.6284009">
    <ele>142.0</ele>
    <name>node/5822545653</name>
    <desc>tourism=caravan_site; id=node/5822545653</desc>
  </wpt>
  <wpt lat="52.4964277" lon="19.5054564">
    <ele>71.0</ele>
    <name>Agrotyrajscy</name>
    <desc>addr:city:simc=0564174; addr:housenumber=24;
    addr:place=Białe; addr:postcode=09-504; name=Agrotyrajscy;
    opening_hours=Mo-Su 07:00-23:00; phone=+48 721 398 137;
    source:addr=emuia.gugik.gov.pl; tourism=caravan_site;
    id=node/5832585285</desc>
  </wpt>
  <wpt lat="53.6922521" lon="20.0802114">
    <ele>118.0</ele>
    <name>Pod Sosnami</name>
    <desc>addr:street=Olsztyńska; name=Pod Sosnami;
    opening_hours=24/7; phone=+48 601 611 946;
    tourism=caravan_site; website=http://www.podsosnamibiwak.pl/;
    id=node/5832941485</desc>
    <link href="http://www.podsosnamibiwak.pl/"></link>
  </wpt>
  <wpt lat="50.1551949" lon="18.6881958">
    <ele>257.0</ele>
    <name>Kamperplac</name>
    <desc>email=rixcamper@op.pl; fee=yes; internet_access=wlan;
    name=Kamperplac; phone=+48 502 210 457; power_supply=yes;
    sanitary_dump_station=yes; tourism=caravan_site;
    website=https://www.kamperplac.pl/; id=node/5849923437</desc>
    <link href="https://www.kamperplac.pl/"></link>
  </wpt>
  <wpt lat="49.5710168" lon="19.3374393">
    <ele>661.0</ele>
    <name>Korbielów</name>
    <desc>name=Korbielów; tourism=caravan_site;
    id=node/5892093385</desc>
  </wpt>
  <wpt lat="50.8128897" lon="19.0910052">
    <ele>285.0</ele>
    <name>node/5898638487</name>
    <desc>tourism=caravan_site; id=node/5898638487</desc>
  </wpt>
  <wpt lat="53.0764018" lon="22.9059355">
    <ele>115.0</ele>
    <name>node/5907900385</name>
    <desc>tourism=caravan_site; id=node/5907900385</desc>
  </wpt>
  <wpt lat="54.1578123" lon="21.657563">
    <ele>123.0</ele>
    <name>Stanica Wodna Kietlice nad Mamrami</name>
    <desc>addr:postcode=11-600; name=Stanica Wodna Kietlice nad
    Mamrami; name:pl=Stanica Wodna Kietlice nad Mamrami; phone=+48
    87 427 51 30; tourism=caravan_site; website=http://kietlice.pl;
    id=node/5986563185</desc>
    <link href="http://kietlice.pl"></link>
  </wpt>
  <wpt lat="53.5396755" lon="16.0931846">
    <ele>130.0</ele>
    <name>node/6153529785</name>
    <desc>tourism=caravan_site; id=node/6153529785</desc>
  </wpt>
  <wpt lat="53.2194412" lon="15.7726">
    <ele>78.0</ele>
    <name>Plusk</name>
    <desc>name=Plusk; tourism=caravan_site;
    id=node/6185713387</desc>
  </wpt>
  <wpt lat="50.3996514" lon="22.9541065">
    <ele>191.0</ele>
    <name>Biwak Ranczo</name>
    <desc>name=Biwak Ranczo; tourism=caravan_site;
    id=node/6435364585</desc>
  </wpt>
  <wpt lat="52.0118896" lon="20.2103276">
    <ele>108.0</ele>
    <name>https://grabskiesiolo.pl/</name>
    <desc>camp_site=standard; opening_hours=24/7;
    phone=+48468351222; tourism=caravan_site;
    website=https://grabskiesiolo.pl/; id=node/6531560857</desc>
    <link href="https://grabskiesiolo.pl/"></link>
  </wpt>
  <wpt lat="49.7039607" lon="20.057678">
    <ele>611.0</ele>
    <name>node/6539702685</name>
    <desc>tourism=caravan_site; id=node/6539702685</desc>
  </wpt>
  <wpt lat="53.0172699" lon="14.9079719">
    <ele>67.0</ele>
    <name>node/6612047255</name>
    <desc>tourism=caravan_site; id=node/6612047255</desc>
  </wpt>
  <wpt lat="54.766295" lon="17.5895738">
    <ele>5.0</ele>
    <name>Ginter Park</name>
    <desc>name=Ginter Park; power_supply=yes;
    sanitary_dump_station=yes; tents=yes; tourism=caravan_site;
    id=node/6770009643</desc>
  </wpt>
  <wpt lat="53.8021595" lon="14.6140942">
    <ele>-2.0</ele>
    <name>node/7028749870</name>
    <desc>phone=+48 602 288 497; tourism=caravan_site;
    id=node/7028749870</desc>
  </wpt>
  <wpt lat="53.8595219" lon="14.5300414">
    <ele>4.0</ele>
    <name>Villa Danuta</name>
    <desc>name=Villa Danuta; tourism=caravan_site;
    website=http://villa-danuta.com; id=node/7128024262</desc>
    <link href="http://villa-danuta.com"></link>
  </wpt>
  <wpt lat="51.8975908" lon="19.7053569">
    <ele>155.0</ele>
    <name>node/7254639385</name>
    <desc>name:ru=Есть душ Wi-Fi туалет кофе; tourism=caravan_site;
    id=node/7254639385</desc>
  </wpt>
  <wpt lat="50.1026847" lon="19.8150916">
    <ele>236.0</ele>
    <name>RogateRancho</name>
    <desc>addr:housenumber=26; addr:street=Krakowska;
    name=RogateRancho; opening_hours=24/7; tourism=caravan_site;
    id=node/7447363986</desc>
  </wpt>
  <wpt lat="53.9787565" lon="22.2722615">
    <ele>129.0</ele>
    <name>Spływy kajakowe Pole namiotowe u Małgosi</name>
    <desc>email=kajakimazury@gmail.com;
    facebook=https://www.facebook.com/kajakiumalgosi; name=Spływy
    kajakowe Pole namiotowe u Małgosi; phone=+48 792 912 510;
    tourism=caravan_site; id=node/7797973885</desc>
  </wpt>
  <wpt lat="49.2795835" lon="22.1210453">
    <ele>603.0</ele>
    <name>node/7826890187</name>
    <desc>tourism=caravan_site; id=node/7826890187</desc>
  </wpt>
  <wpt lat="49.998141" lon="19.4147787">
    <ele>240.0</ele>
    <name>node/7904552886</name>
    <desc>tourism=caravan_site; id=node/7904552886</desc>
  </wpt>
  <wpt lat="53.9556284" lon="23.1120219">
    <ele>130.0</ele>
    <name>node/8504514037</name>
    <desc>tourism=caravan_site; id=node/8504514037</desc>
  </wpt>
  <wpt lat="52.2086424" lon="17.2009461">
    <ele>82.0</ele>
    <name>Camper Park Annopole</name>
    <desc>email=info@gzub.pl; fee=yes; mobile=+48 667 753 982;
    name=Camper Park Annopole; sanitary_dump_station=yes;
    tents=yes; tourism=caravan_site; id=node/8615510792</desc>
  </wpt>
  <wpt lat="49.7889666" lon="22.3315141">
    <ele>227.0</ele>
    <name>node/8767947017</name>
    <desc>fee=yes; tourism=caravan_site; id=node/8767947017</desc>
  </wpt>
  <wpt lat="50.3425009" lon="23.3383566">
    <ele>269.0</ele>
    <name>Na piachach</name>
    <desc>name=Na piachach; tourism=caravan_site;
    id=node/8792045658</desc>
  </wpt>
  <wpt lat="49.9891277" lon="19.44915">
    <ele>228.0</ele>
    <name>Zator</name>
    <desc>addr:city=Zator; addr:housenumber=8;
    addr:postcode=32-640; addr:street=Parkowa;
    tourism=caravan_site; id=node/8952528685</desc>
  </wpt>
  <wpt lat="50.6816373" lon="16.5893813">
    <ele>339.0</ele>
    <name>
    https://osir.bielawa.pl/index.php/obiekty/jezioro-osir/pole-biwakowe</name>
    <desc>caravans=yes; internet_access=wlan; operator=OSiR
    Bielawa; phone=+48 531 824 507; power_supply=yes;
    sanitary_dump_station=yes; socket=typee; tents=yes;
    tourism=caravan_site;
    website=https://osir.bielawa.pl/index.php/obiekty/jezioro-osir/pole-biwakowe;
    id=node/8990042677</desc>
    <link href="https://osir.bielawa.pl/index.php/obiekty/jezioro-osir/pole-biwakowe">
    </link>
  </wpt>
  <wpt lat="53.3423995" lon="15.0498596">
    <ele>22.0</ele>
    <name>node/9073424317</name>
    <desc>opening_hours=24/7; tourism=caravan_site;
    id=node/9073424317</desc>
  </wpt>
  <wpt lat="53.3356848" lon="15.0348254">
    <ele>32.0</ele>
    <name>node/10581786486</name>
    <desc>access=yes; capacity:caravans=1; caravans=yes;
    drinking_water=no; fee=no; internet_access=no;
    power_supply=yes; reservation=no; sanitary_dump_station=yes;
    shower=yes; tents=no; toilets=yes; tourism=caravan_site;
    id=node/10581786486</desc>
  </wpt>
  <wpt lat="52.8191403" lon="17.2014618">
    <ele>92.0</ele>
    <name>Camping nr 177 Wągrowiec</name>
    <desc>fee=yes; name=Camping nr 177 Wągrowiec;
    opening_hours=Apr-Oct; operator=OSiR Wągrowiec; phone=+48 67
    262 24 81; power_supply=yes; sanitary_dump_station=yes;
    tents=yes; tourism=caravan_site;
    website=https://osir.wagrowiec.eu/obiekty/pole-kempingowe;
    id=node/10589992889</desc>
    <link href="https://osir.wagrowiec.eu/obiekty/pole-kempingowe">
    </link>
  </wpt>
  <wpt lat="50.7804685" lon="15.7382702">
    <ele>731.0</ele>
    <name>Camper Park Panorama</name>
    <desc>
    contact:facebook=https://www.facebook.com/people/Camper-Park-Panorama/100082643092033;
    contact:phone=+48 608 644 839; name=Camper Park Panorama;
    tourism=caravan_site;
    website=https://www.camperparkpanorama.pl;
    id=node/10614654095</desc>
    <link href="https://www.camperparkpanorama.pl"></link>
  </wpt>
  <wpt lat="54.3608053" lon="18.3889491">
    <ele>143.0</ele>
    <name>Galeria Pępowo</name>
    <desc>capacity=8; email=info@vwmuzeum.pl; fee=yes; mobile=+48
    604 704 050; name=Galeria Pępowo; phone=+48 58 681 82 05;
    tents=yes; tourism=caravan_site;
    website=http://vwmuseum.pl/pl/godziny-otwarcia/nocleg/;
    id=node/10669310046</desc>
    <link href="http://vwmuseum.pl/pl/godziny-otwarcia/nocleg/">
    </link>
  </wpt>
  <wpt lat="53.7188949" lon="18.4993082">
    <ele>83.0</ele>
    <name>Oh Deer Camping</name>
    <desc>addr:city=Osiek; addr:housenumber=3; addr:street=Za
    Jeziorem; description=kamping, pole namiotowe, hamaki, stanica;
    name=Oh Deer Camping; phone=+48 691 068 884; power_supply=yes;
    tents=yes; tourism=caravan_site;
    website=https://ohdeercamping.pl/; id=node/11158543525</desc>
    <link href="https://ohdeercamping.pl/"></link>
  </wpt>
  <wpt lat="51.5099755" lon="18.122978">
    <ele>128.0</ele>
    <name>Przystań Eskapada</name>
    <desc>addr:housenumber=33; addr:street=Rybacka; name=Przystań
    Eskapada; tourism=caravan_site; id=node/11197475437</desc>
  </wpt>
  <wpt lat="53.6712308" lon="15.112904">
    <ele>46.0</ele>
    <name>Postój kamper</name>
    <desc>name=Postój kamper; tourism=caravan_site;
    id=node/11306679722</desc>
  </wpt>
  <wpt lat="52.1726319" lon="18.5697543">
    <ele>102.0</ele>
    <name>node/11582647764</name>
    <desc>tourism=caravan_site; id=node/11582647764</desc>
  </wpt>
  <wpt lat="52.1647192" lon="17.6883249">
    <ele>82.0</ele>
    <name>node/11937998660</name>
    <desc>tourism=caravan_site; id=node/11937998660</desc>
  </wpt>
  <wpt lat="54.0145384" lon="21.7405556">
    <ele>118.0</ele>
    <name>Siedlisko u Tymka - camper plac</name>
    <desc>addr:housenumber=1b; addr:street=Olsztyńska;
    check_date=2024-08-04; name=Siedlisko u Tymka - camper plac;
    power_supply=yes; reservation=yes; sanitary_dump_station=yes;
    tourism=caravan_site;
    website=https://www.siedliskoutymka.pl/oferta/camper-plac/;
    id=node/12091476564</desc>
    <link href="https://www.siedliskoutymka.pl/oferta/camper-plac/">
    </link>
  </wpt>
  <wpt lat="52.755554" lon="15.7256069">
    <ele>27.0</ele>
    <name>Za Lasem</name>
    <desc>name=Za Lasem; tourism=caravan_site;
    id=node/12106950646</desc>
  </wpt>
  <wpt lat="53.7600212" lon="14.7611046">
    <ele>26.0</ele>
    <name>At Przybiernów Lake</name>
    <desc>fee=yes; name=At Przybiernów Lake; power_supply=yes;
    sanitary_dump_station=yes; surface=gravel;
    tourism=caravan_site; water_supply=yes;
    id=node/12147437481</desc>
  </wpt>
  <wpt lat="53.4385682" lon="23.1252501">
    <ele>136.0</ele>
    <name>Park Kulturowy Korycin - Milewszczyzna</name>
    <desc>fee=no; name=Park Kulturowy Korycin - Milewszczyzna;
    tourism=caravan_site; id=node/12192750753</desc>
  </wpt>
  <wpt lat="49.7778464" lon="22.6468382">
    <ele>205.0</ele>
    <name>node/12206640069</name>
    <desc>fee=no; tourism=caravan_site; id=node/12206640069</desc>
  </wpt>
  <wpt lat="49.3021605" lon="20.1159105">
    <ele>1131.0</ele>
    <name>Schronisko Głodówka</name>
    <desc>fee=yes; name=Schronisko Głodówka; tourism=caravan_site;
    id=node/12285954448</desc>
  </wpt>
  <wpt lat="52.5762978" lon="16.0037032">
    <ele>57.0</ele>
    <name>Olandia</name>
    <desc>addr:city:simc=0587985; addr:housenumber=5;
    addr:place=Prusim; addr:postcode=64-420; caravans=yes; fee=yes;
    name=Olandia; phone=+48 608 467 367; power_supply=yes;
    sanitary_dump_station=yes; source:addr=kwilcz.e-mapa.net;
    tourism=caravan_site;
    website=https://www.olandia.pl/kamperowisko;
    id=node/12512689404</desc>
    <link href="https://www.olandia.pl/kamperowisko"></link>
  </wpt>
  <wpt lat="53.6680491" lon="15.1183157">
    <ele>45.0</ele>
    <name>Postój kamper</name>
    <desc>name=Postój kamper; tourism=caravan_site;
    id=node/12539162158</desc>
  </wpt>
  <wpt lat="53.667751" lon="15.0889261">
    <ele>67.0</ele>
    <name>Postój kamper</name>
    <desc>name=Postój kamper; tourism=caravan_site;
    id=node/12539162159</desc>
  </wpt>
  <wpt lat="53.6756413" lon="15.1302807">
    <ele>52.0</ele>
    <name>Postój kamper</name>
    <desc>name=Postój kamper; tourism=caravan_site;
    id=node/12539162160</desc>
  </wpt>
  <wpt lat="53.6610783" lon="15.0846393">
    <ele>46.0</ele>
    <name>Postój kamper</name>
    <desc>name=Postój kamper; tourism=caravan_site;
    id=node/12539162161</desc>
  </wpt>
  <wpt lat="49.8759288" lon="18.59656">
    <ele>235.0</ele>
    <name>Biker's Bistro&amp;Area</name>
    <desc>
    contact:facebook=https://www.facebook.com/Bikers.Bistro.Area;
    contact:phone=+48537484179; fee=15.00 PLN; operator=Biker's
    Bistro&amp;Area; parking=surface; power_supply=yes;
    tourism=caravan_site; id=node/12832895286</desc>
  </wpt>
  <wpt lat="49.9965004" lon="19.405147">
    <ele>241.0</ele>
    <name>Miejsce kamperowe</name>
    <desc>capacity=80; internet_access=wlan; name=Miejsce
    kamperowe; power_supply=yes; sanitary_dump_station=yes;
    tourism=caravan_site; id=node/12847534190</desc>
  </wpt>
  <wpt lat="51.1010724" lon="17.123599">
    <ele>120.0</ele>
    <name>Odra Camp</name>
    <desc>addr:city=Wrocław; addr:housenumber=149B;
    addr:postcode=51-640; addr:street=Braci Gierymskich; mobile=+48
    730 118 499; name=Odra Camp; power_supply=yes;
    tourism=caravan_site; id=node/12881235202</desc>
  </wpt>
  <wpt lat="49.8178087" lon="19.5455188">
    <ele>305.0</ele>
    <name>https://czill.com.pl/</name>
    <desc>capacity=8; charge=25 EUR; power_supply=yes;
    sanitary_dump_station=yes; survey:date=2025-06-18;
    tourism=caravan_site; website=https://czill.com.pl/;
    id=node/12923697535</desc>
    <link href="https://czill.com.pl/"></link>
  </wpt>
  <wpt lat="49.8175155" lon="19.5460114">
    <ele>307.0</ele>
    <name>https://czill.com.pl/</name>
    <desc>capacity=8; power_supply=yes; survey:date=2025-06-18;
    tourism=caravan_site; website=https://czill.com.pl/;
    id=node/12923697536</desc>
    <link href="https://czill.com.pl/"></link>
  </wpt>
  <wpt lat="53.382523" lon="19.4062122">
    <ele>95.0</ele>
    <name>Camping JezioroDebno.pl</name>
    <desc>addr:housenumber=3; addr:place=Robotno;
    addr:postcode=87-305; internet_access=yes;
    internet_access:fee=yes; name=Camping JezioroDebno.pl;
    power_supply=yes; sanitary_dump_station=yes;
    tourism=caravan_site; id=node/12985105302</desc>
  </wpt>
  <wpt lat="54.1642233" lon="15.5011786">
    <ele>2.0</ele>
    <name>Summercamp</name>
    <desc>capacity=80; email=summercamp.grzybowo@gmail.com;
    fee=yes; name=Summercamp; phone=+48 535 213 881;
    power_supply=yes; sanitary_dump_station=yes; tents=yes;
    tourism=caravan_site; website=https://summercamp.com.pl/;
    id=node/12991864092</desc>
    <link href="https://summercamp.com.pl/"></link>
  </wpt>
  <wpt lat="52.6690926" lon="18.3262222">
    <ele>80.0</ele>
    <name>node/13018874302</name>
    <desc>tourism=caravan_site; id=node/13018874302</desc>
  </wpt>
  <wpt lat="53.5183819" lon="15.444645986582255">
    <ele>91.0</ele>
    <name>Ośrodek Wypoczynkowy "Woświn" - Halina Kwiatkowska</name>
    <desc>email=woswin@op.pl; name=Ośrodek Wypoczynkowy "Woświn" -
    Halina Kwiatkowska; phone=+48 913972854; tourism=caravan_site;
    website=http://www.osrodek.pl/woswin; id=way/58995267</desc>
    <link href="http://www.osrodek.pl/woswin"></link>
  </wpt>
  <wpt lat="49.76914805" lon="19.87626319156702">
    <ele>739.0</ele>
    <name>way/83014513</name>
    <desc>tourism=caravan_site; id=way/83014513</desc>
  </wpt>
  <wpt lat="49.71752725" lon="19.180957429207417">
    <ele>342.0</ele>
    <name>way/102217757</name>
    <desc>barrier=fence; tourism=caravan_site;
    id=way/102217757</desc>
  </wpt>
  <wpt lat="49.71692285" lon="19.180957762386623">
    <ele>342.0</ele>
    <name>way/102217761</name>
    <desc>barrier=fence; tourism=caravan_site;
    id=way/102217761</desc>
  </wpt>
  <wpt lat="49.71634315" lon="19.18107620987749">
    <ele>341.0</ele>
    <name>way/102217763</name>
    <desc>barrier=fence; tourism=caravan_site;
    id=way/102217763</desc>
  </wpt>
  <wpt lat="49.716677000000004" lon="19.180950543389592">
    <ele>342.0</ele>
    <name>way/102217764</name>
    <desc>barrier=fence; tourism=caravan_site;
    id=way/102217764</desc>
  </wpt>
  <wpt lat="49.7182164" lon="19.180608956283002">
    <ele>343.0</ele>
    <name>way/102217768</name>
    <desc>barrier=fence; tourism=caravan_site;
    id=way/102217768</desc>
  </wpt>
  <wpt lat="49.7159915" lon="19.18127642209437">
    <ele>341.0</ele>
    <name>way/102217773</name>
    <desc>barrier=fence; tourism=caravan_site;
    id=way/102217773</desc>
  </wpt>
  <wpt lat="49.77980945" lon="19.053853131654844">
    <ele>415.0</ele>
    <name>Camping Ondraszek</name>
    <desc>addr:city=Bielsko-Biała; addr:housenumber=43;
    addr:postcode=43-300; addr:street=Pocztowa; capacity=25;
    chalet=yes; ele=415; email=kemping57ondraszek@op.pl;
    facebook=https://www.facebook.com/profile.php?id=100054196793561;
    fax=+48 33 814 36 01; fee=yes; internet_access=yes;
    name=Camping Ondraszek; phone=+48 33 814 64 25; ref:pfcc=57;
    stars=1; tents=yes; tourism=caravan_site;
    website=https://www.campingondraszek.pl/;
    id=way/107966572</desc>
    <link href="https://www.campingondraszek.pl/"></link>
  </wpt>
  <wpt lat="50.475786600000006" lon="22.481662194621205">
    <ele>174.0</ele>
    <name>Mono Tennis Camp</name>
    <desc>addr:city=Harasiuki; addr:postcode=37-413; area=yes;
    name=Mono Tennis Camp; phone=+48602369235; power_supply=yes;
    sport=tennis; tourism=caravan_site;
    website=https://mono.com.pl/; id=way/135183772</desc>
    <link href="https://mono.com.pl/"></link>
  </wpt>
  <wpt lat="53.81632655" lon="22.353825605466376">
    <ele>121.0</ele>
    <name>way/164367069</name>
    <desc>tourism=caravan_site; id=way/164367069</desc>
  </wpt>
  <wpt lat="51.45378435" lon="19.992691331495777">
    <ele>169.0</ele>
    <name>U Sołtysa</name>
    <desc>fee=yes; name=U Sołtysa; phone=+48608177918;
    power_supply=no; sanitary_dump_station=no; shower=yes;
    tents=yes; toilets=yes; tourism=caravan_site; wheelchair=no;
    id=way/176750809</desc>
  </wpt>
  <wpt lat="54.372076199999995" lon="18.630117161804417">
    <ele>4.0</ele>
    <name>PG Camper Park</name>
    <desc>addr:city=Gdańsk; addr:country=PL; addr:housenumber=40;
    addr:postcode=80-218; addr:street=Towarowa; barrier=fence;
    capacity=30; email=camperpark@pg.gda.pl; fee=yes;
    internet_access=wlan; internet_access:fee=no; name=PG Camper
    Park; note=10eur; phone=+48 608 303 079; power_supply=yes;
    supervised=yes; tourism=caravan_site;
    website=http://camperpark.pg.gda.pl/; wheelchair=limited;
    id=way/184149867</desc>
    <link href="http://camperpark.pg.gda.pl/"></link>
  </wpt>
  <wpt lat="54.0932586" lon="22.915510767719297">
    <ele>166.0</ele>
    <name>Eurocamping nr 133</name>
    <desc>addr:city=Suwałki; addr:city:simc=0977456;
    addr:housenumber=26; addr:postcode=16-400;
    addr:street=Zarzecze; caravans=yes; fee=yes;
    internet_access=yes; name=Eurocamping nr 133; operator=Ośrodek
    Sportu i Rekreacja w Suwałkach; phone=+48 87 567 33 07, +48 87
    566 72 20; shower=yes; toilets=yes; tourism=caravan_site;
    website=https://osir.suwalki.pl/nasze-obiekty/eurocamping/;
    id=way/185752560</desc>
    <link href="https://osir.suwalki.pl/nasze-obiekty/eurocamping/">
    </link>
  </wpt>
  <wpt lat="50.078683049999995" lon="19.159047384522264">
    <ele>248.0</ele>
    <name>way/188834735</name>
    <desc>barrier=fence; tourism=caravan_site;
    id=way/188834735</desc>
  </wpt>
  <wpt lat="53.79484185" lon="21.564987496865065">
    <ele>139.0</ele>
    <name>Wagabunda</name>
    <desc>addr:city=Mikołajki; addr:city:simc=0977723;
    addr:housenumber=2; addr:postcode=11-730; addr:street=Leśna;
    fee=yes; internet_access=wlan; name=Wagabunda; note=Pole
    namiotowo - campingowe ośrodka.; operator=PT "Wagabunda";
    sanitary_dump_station=yes; tents=yes; tourism=caravan_site;
    id=way/191374361</desc>
  </wpt>
  <wpt lat="50.243603300000004" lon="19.048700582171318">
    <ele>274.0</ele>
    <name>Camping 215</name>
    <desc>addr:city=Katowice; addr:housenumber=23;
    addr:postcode=40-291; addr:street=Trzech Stawów; capacity=75;
    contact:email=camping@mosir.katowice.pl; contact:phone=+48 32
    255-53-88;
    contact:website=http://www.mosir.katowice.pl/obiekty/53-camping-215.html;
    email=camping@mosir.katowice.pl; fee=yes; internet_access=wlan;
    name=Camping 215; phone=+48 32 255-53-88; power_supply=yes;
    ref:pfcc=215; source=Ortofotomapa Katowice; stars=4; tents=yes;
    tourism=caravan_site;
    website=https://www.mosir.katowice.pl/kemping-215;
    id=way/230134854</desc>
    <link href="http://www.mosir.katowice.pl/obiekty/53-camping-215.html">
    </link>
  </wpt>
  <wpt lat="54.5076749" lon="16.472087654402788">
    <ele>-3.0</ele>
    <name>Zasmir Domki Letniskowe</name>
    <desc>addr:city=Wicie; addr:city:simc=0305596;
    addr:housenumber=6; addr:postcode=76-150; addr:street=Spokojna;
    addr:street:sym_ul=20677; barrier=fence; name=Zasmir Domki
    Letniskowe; phone=+48602871131; source:addr=darlowo.e-mapa.net;
    tourism=caravan_site; id=way/258701535</desc>
  </wpt>
  <wpt lat="51.304254099999994" lon="16.91021634169163">
    <ele>164.0</ele>
    <name>Camping "Pod Topolą"</name>
    <desc>addr:street=Zielona; name=Camping "Pod Topolą";
    operator=Ośrodek Sportu i Rekreacji Oborniki Śląskie; phone=+48
    71 310 12 70; tents=no; tourism=caravan_site;
    website=http://www.osiros.prv.pl/; id=way/286937329</desc>
    <link href="http://www.osiros.prv.pl/"></link>
  </wpt>
  <wpt lat="49.3928851" lon="22.45994438106215">
    <ele>439.0</ele>
    <name>Kemping Solina-Jawor</name>
    <desc>fee=yes; name=Kemping Solina-Jawor; power_supply=yes;
    tents=yes; tourism=caravan_site; id=way/289468011</desc>
  </wpt>
  <wpt lat="54.206255549999995" lon="15.735741250647337">
    <ele>0.0</ele>
    <name>Kemping Ku Morzu</name>
    <desc>
    contact:facebook=https://www.facebook.com/profile.php?id=100069963549870;
    contact:instagram=https://www.instagram.com/kemping_ku_morzu/;
    name=Kemping Ku Morzu; phone=+48 600 944 644; power_supply=yes;
    tents=yes; tourism=caravan_site;
    website=https://www.kempingkumorzu.com/;
    id=way/291433990</desc>
    <link href="https://www.kempingkumorzu.com/"></link>
  </wpt>
  <wpt lat="49.337958650000004" lon="22.43880992211958">
    <ele>423.0</ele>
    <name>way/293479723</name>
    <desc>tourism=caravan_site; id=way/293479723</desc>
  </wpt>
  <wpt lat="49.37737915" lon="22.511706345848992">
    <ele>426.0</ele>
    <name>way/295160892</name>
    <desc>tourism=caravan_site; id=way/295160892</desc>
  </wpt>
  <wpt lat="54.0998801" lon="21.930481224813867">
    <ele>119.0</ele>
    <name>way/296434186</name>
    <desc>tourism=caravan_site; id=way/296434186</desc>
  </wpt>
  <wpt lat="53.686358999999996" lon="21.551672327219052">
    <ele>116.0</ele>
    <name>way/319276204</name>
    <desc>tourism=caravan_site; id=way/319276204</desc>
  </wpt>
  <wpt lat="50.64121835" lon="16.470959412633242">
    <ele>538.0</ele>
    <name>http://www.harenda.biz.pl</name>
    <desc>access=customers; addr:city=Ludwikowice Kłodzkie;
    addr:housenumber=34; addr:postcode=57-450; addr:street=Jana
    Kasprowicza; fee=yes; operator=CRK Harenda; phone=+48748722412;
    supervised=no; tourism=caravan_site;
    website=http://www.harenda.biz.pl; id=way/325731335</desc>
    <link href="http://www.harenda.biz.pl"></link>
  </wpt>
  <wpt lat="53.574534299999996" lon="21.516971308561672">
    <ele>136.0</ele>
    <name>Binduga Bobrowa</name>
    <desc>name=Binduga Bobrowa; tourism=caravan_site;
    id=way/355297803</desc>
  </wpt>
  <wpt lat="54.09340295" lon="22.934400406684492">
    <ele>164.0</ele>
    <name>Zajazd Private</name>
    <desc>addr:city=Suwałki; addr:housenumber=9;
    addr:postcode=16-400; addr:street=Polna; capacity=6;
    dish_washing=yes; fee=yes; internet_access=yes;
    internet_access:fee=no; kitchen=no; name=Zajazd Private;
    panoramax=c58082f9-faa4-48fa-ae47-9f2579948271;
    panoramax:0=d3f3b8ce-560c-4e6f-9c1d-ffc3fd217b62;
    power_supply=yes; toilets=yes; tourism=caravan_site;
    id=way/357095156</desc>
  </wpt>
  <wpt lat="53.23969195" lon="18.1288512">
    <ele>89.0</ele>
    <name>way/358558815</name>
    <desc>tourism=caravan_site; id=way/358558815</desc>
  </wpt>
  <wpt lat="53.58435075" lon="21.52661114703046">
    <ele>121.0</ele>
    <name>way/358955128</name>
    <desc>fee=yes; power_supply=yes; tents=yes;
    tourism=caravan_site; id=way/358955128</desc>
  </wpt>
  <wpt lat="49.9474001" lon="19.272881716265957">
    <ele>256.0</ele>
    <name>Camping MOLO</name>
    <desc>addr:city=Osiek; addr:postcode=32-608;
    addr:street=Stawowa; capacity=50; fee=yes; internet_access=yes;
    name=Camping MOLO; operator=MOLO; phone=+48 33 432 25 10;
    power_supply=yes; sanitary_dump_station=yes;
    tourism=caravan_site; website=http://camping-molo.pl;
    id=way/372305679</desc>
    <link href="http://camping-molo.pl"></link>
  </wpt>
  <wpt lat="50.7565623" lon="18.07384579059633">
    <ele>186.0</ele>
    <name>https://jeziorosrebrnewosowcu.pl/camping/</name>
    <desc>fee=yes; operator=Ireneusz Rachwalik; tents=yes;
    tourism=caravan_site;
    website=https://jeziorosrebrnewosowcu.pl/camping/;
    id=way/392235577</desc>
    <link href="https://jeziorosrebrnewosowcu.pl/camping/"></link>
  </wpt>
  <wpt lat="50.75864095" lon="18.07258445948425">
    <ele>184.0</ele>
    <name>Jezioro Srebrne</name>
    <desc>fee=yes; name=Jezioro Srebrne; operator=Ireneusz
    Rachwalik; tents=yes; tourism=caravan_site;
    website=https://jeziorosrebrnewosowcu.pl/camping/;
    id=way/392235578</desc>
    <link href="https://jeziorosrebrnewosowcu.pl/camping/"></link>
  </wpt>
  <wpt lat="50.89636675" lon="15.74223095">
    <ele>365.0</ele>
    <name>Auto-Camping Park</name>
    <desc>building=roof; name=Auto-Camping Park;
    tourism=caravan_site; id=way/404483777</desc>
  </wpt>
  <wpt lat="53.720314349999995" lon="14.295325263625838">
    <ele>0.0</ele>
    <name>Camping Mila Nowe Warpno</name>
    <desc>addr:city=Nowe Warpno; addr:country=PL;
    addr:housenumber=23; addr:street=Słoneczna;
    email=camping@mila.szczecin.pl; name=Camping Mila Nowe Warpno;
    operator=Dom Żeglarski Mila Sp. z o.o.; phone=+48 570 500 657;
    power_supply=yes; tents=yes; tourism=caravan_site;
    id=way/428973273</desc>
  </wpt>
  <wpt lat="54.269927550000006" lon="16.090760519672255">
    <ele>0.0</ele>
    <name>Camp Ada</name>
    <desc>caravans=yes;
    contact:facebook=https://www.facebook.com/AdaRodzinnePolaNamiotowe;
    email=recepcja@ada.strefa.pl; name=Camp Ada; phone=+48
    601483197,+48 608 762 374; tents=yes; tourism=caravan_site;
    website=https://ada.strefa.pl/; id=way/435382310</desc>
    <link href="https://ada.strefa.pl/"></link>
  </wpt>
  <wpt lat="54.269429650000006" lon="16.092585168307526">
    <ele>4.0</ele>
    <name>Majka Pole Campingowe</name>
    <desc>name=Majka Pole Campingowe; phone=+48 604375666;
    tourism=caravan_site; id=way/435382314</desc>
  </wpt>
  <wpt lat="49.47068885" lon="21.29564253626331">
    <ele>511.0</ele>
    <name>Recepcja</name>
    <desc>addr:housenumber=80; addr:place=Zdynia;
    addr:postcode=38-315; building=commercial; building:levels=2;
    name=Recepcja; phone=+48 605297139; tourism=caravan_site;
    website=http://kempingzdynia.pl/; id=way/497989443</desc>
    <link href="http://kempingzdynia.pl/"></link>
  </wpt>
  <wpt lat="53.2079647" lon="15.971877342313665">
    <ele>81.0</ele>
    <name>Nowa Korytnica</name>
    <desc>name=Nowa Korytnica; operator=leśniczy (Nowa Korytnica);
    tourism=caravan_site; id=way/515377021</desc>
  </wpt>
  <wpt lat="54.0438154" lon="21.73901020670732">
    <ele>119.0</ele>
    <name>way/526999005</name>
    <desc>tourism=caravan_site; id=way/526999005</desc>
  </wpt>
  <wpt lat="51.9837743" lon="20.45967405">
    <ele>162.0</ele>
    <name>Apartamenty Wakacyjna Wioska Ngô Wręcza</name>
    <desc>addr:city=Grabce-Towarzystwo; addr:city:simc=0732536;
    addr:housenumber=7; addr:postcode=96-320; addr:street=Żukowska;
    addr:street:sym_ul=26560; internet_access=wlan;
    name=Apartamenty Wakacyjna Wioska Ngô Wręcza; power_supply=yes;
    sanitary_dump_station=yes; source:addr=mszczonow.e-mapa.net;
    tourism=caravan_site; id=way/551949921</desc>
  </wpt>
  <wpt lat="52.845201349999996" lon="14.12732797345696">
    <ele>8.0</ele>
    <name>Kemping nad Odrą</name>
    <desc>capacity:pitches=32; caravans=yes; charge=8 EUR/day;
    fee=yes; internet_access=yes; internet_access:fee=no;
    name=Kemping nad Odrą; name:de=Camping an der Oder;
    operator=Polenmarkt Hohenwutzen; power_supply=yes;
    reservation=no; sanitary_dump_station=yes; shower=yes;
    surface=grass; tents=yes; toilets=yes; tourism=caravan_site;
    website=https://hohenwutzen.com/camping/;
    id=way/583940539</desc>
    <link href="https://hohenwutzen.com/camping/"></link>
  </wpt>
  <wpt lat="53.48439465" lon="18.744368586402924">
    <ele>19.0</ele>
    <name>Marina Grudziądz</name>
    <desc>capacity=12; fee=yes; internet_access=no; name=Marina
    Grudziądz; panoramax=da31cd69-da52-45d3-9504-894821ef9564;
    panoramax:0=b83e7ad1-590a-4146-ab8a-6810d1442c79;
    permanent_camping=no; power_supply=yes;
    sanitary_dump_station=yes; shower=customers; toilets=yes;
    tourism=caravan_site; id=way/594284321</desc>
  </wpt>
  <wpt lat="53.8020092" lon="22.347573567769636">
    <ele>121.0</ele>
    <name>way/608417855</name>
    <desc>tourism=caravan_site; id=way/608417855</desc>
  </wpt>
  <wpt lat="51.80425995" lon="18.658384060657237">
    <ele>116.0</ele>
    <name>way/655011134</name>
    <desc>tourism=caravan_site; id=way/655011134</desc>
  </wpt>
  <wpt lat="50.1384676" lon="19.452096740468228">
    <ele>289.0</ele>
    <name>way/689957522</name>
    <desc>tourism=caravan_site; id=way/689957522</desc>
  </wpt>
  <wpt lat="54.34534105" lon="19.112704662259333">
    <ele>15.0</ele>
    <name>Camping numer 180</name>
    <desc>cabins=yes; caravans=yes; email=camp180@mierzeja.pl;
    mobile=+48 600 220 777; motorhome=yes; name=Camping numer 180;
    phone=+48 55 247 82 94; shower=yes; tents=yes; toilets=yes;
    tourism=caravan_site; website=https://camp180.mierzeja.pl/;
    id=way/698953980</desc>
    <link href="https://camp180.mierzeja.pl/"></link>
  </wpt>
  <wpt lat="54.14569475" lon="15.285614300000006">
    <ele>1.0</ele>
    <name>Rescue Team Usługi ratownicze Piotr Worwa</name>
    <desc>fee=May 01-Sep 15; operator=Rescue Team Usługi ratownicze
    Piotr Worwa; supervised=no; tourism=caravan_site;
    id=way/700568721</desc>
  </wpt>
  <wpt lat="54.21175975" lon="15.760181091344936">
    <ele>8.0</ele>
    <name>Grajkowo</name>
    <desc>email=jakub@pod-brzozami.pl; fax=+48 94 35 15 709;
    name=Grajkowo; operator=Jakub Grajek; phone=+48 502 812 055;
    tourism=caravan_site; website=http://grajkowo.com/;
    id=way/702022843</desc>
    <link href="http://grajkowo.com/"></link>
  </wpt>
  <wpt lat="53.3696945" lon="16.503108829691183">
    <ele>108.0</ele>
    <name>Camping nr 64 Zdbice</name>
    <desc>
    contact:facebook=https://www.facebook.com/Camping64Zdbice;
    email=camping64zdbice@gmail.com; fee=yes; name=Camping nr 64
    Zdbice; official_name=Camping nr 64 Zdbice imienia Zdobywców
    Wału Pomorskiego; opening_hours=May-Sep; operator=Polska
    Federacja Campingu i Caravaningu; phone=+48 664 039 310, +48
    723 733 563; power_supply=yes; tents=yes; tourism=caravan_site;
    website=http://www.pfcc.eu/pol/main.php?nazwa=64;
    id=way/705746836</desc>
    <link href="http://www.pfcc.eu/pol/main.php?nazwa=64"></link>
  </wpt>
  <wpt lat="49.692633" lon="21.781674592123565">
    <ele>261.0</ele>
    <name>Camper Park MOSiR Krosno</name>
    <desc>capacity=4; name=Camper Park MOSiR Krosno;
    operator=Miejski Ośrodek Sportu i Rekreacji Krosno;
    power_supply=yes; tourism=caravan_site;
    website=https://mosirkrosno.pl/camper-park.html;
    id=way/713611527</desc>
    <link href="https://mosirkrosno.pl/camper-park.html"></link>
  </wpt>
  <wpt lat="51.006794049999996" lon="21.173024412399517">
    <ele>226.0</ele>
    <name>way/719952204</name>
    <desc>access=yes; fee=no; power_supply=yes;
    sanitary_dump_station=yes; surface=paving_stones;
    tourism=caravan_site; id=way/719952204</desc>
  </wpt>
  <wpt lat="53.75504405" lon="21.605337496728183">
    <ele>118.0</ele>
    <name>way/722972611</name>
    <desc>tourism=caravan_site; id=way/722972611</desc>
  </wpt>
  <wpt lat="54.6737696" lon="18.72639393648174">
    <ele>2.0</ele>
    <name>way/727986803</name>
    <desc>tourism=caravan_site; id=way/727986803</desc>
  </wpt>
  <wpt lat="53.83304805" lon="14.622353681049269">
    <ele>3.0</ele>
    <name>way/751827779</name>
    <desc>phone=+48 510 100 402; tourism=caravan_site;
    id=way/751827779</desc>
  </wpt>
  <wpt lat="53.9109044" lon="14.269276426455624">
    <ele>-1.0</ele>
    <name>way/779870770</name>
    <desc>landuse=grass; tourism=caravan_site;
    id=way/779870770</desc>
  </wpt>
  <wpt lat="54.24658045" lon="15.93123546552075">
    <ele>5.0</ele>
    <name>Ada</name>
    <desc>internet_access=no; landuse=residential; name=Ada;
    toilets=yes; tourism=caravan_site; wheelchair=yes;
    id=way/827953388</desc>
  </wpt>
  <wpt lat="54.2351013" lon="20.137915957071346">
    <ele>69.0</ele>
    <name>Wawrowski Caravan Park</name>
    <desc>fee=yes; name=Wawrowski Caravan Park;
    payment:credit_cards=no; payment:debit_cards=no; tents=yes;
    tourism=caravan_site; id=way/842242252</desc>
  </wpt>
  <wpt lat="49.96741385" lon="18.530914024841067">
    <ele>231.0</ele>
    <name>Camper</name>
    <desc>access=yes; capacity=6; fee=no; name=Camper;
    operator=Gmina Mszana; operator:type=public; parking=surface;
    surface=asphalt; tourism=caravan_site; id=way/942342533</desc>
  </wpt>
  <wpt lat="54.24470425" lon="15.90361911303351">
    <ele>3.0</ele>
    <name>way/966315867</name>
    <desc>landuse=residential; tourism=caravan_site;
    id=way/966315867</desc>
  </wpt>
  <wpt lat="54.765522399999995" lon="17.550090419872298">
    <ele>4.0</ele>
    <name>way/966577016</name>
    <desc>tourism=caravan_site; id=way/966577016</desc>
  </wpt>
  <wpt lat="54.765238350000004" lon="17.549081941166193">
    <ele>7.0</ele>
    <name>way/966577017</name>
    <desc>tourism=caravan_site; id=way/966577017</desc>
  </wpt>
  <wpt lat="54.1978183" lon="15.66068286291944">
    <ele>1.0</ele>
    <name>OAZA Kołobrzeg-Podczele</name>
    <desc>fee=yes; landuse=residential; name=OAZA
    Kołobrzeg-Podczele; phone=+48 609 500 991; toilets=yes;
    tourism=caravan_site;
    website=https://oazakolobrzeg-podczele.pl/;
    id=way/966594349</desc>
    <link href="https://oazakolobrzeg-podczele.pl/"></link>
  </wpt>
  <wpt lat="53.73356005" lon="21.5613508905642">
    <ele>112.0</ele>
    <name>way/974333844</name>
    <desc>caravans=yes; power_supply=yes; tourism=caravan_site;
    id=way/974333844</desc>
  </wpt>
  <wpt lat="54.0154902" lon="21.74146615160153">
    <ele>117.0</ele>
    <name>way/1024609416</name>
    <desc>internet_access=no; power_supply=no;
    sanitary_dump_station=no; tourism=caravan_site;
    id=way/1024609416</desc>
  </wpt>
  <wpt lat="49.3239475" lon="19.984409165186058">
    <ele>772.0</ele>
    <name>way/1034134013</name>
    <desc>tourism=caravan_site; id=way/1034134013</desc>
  </wpt>
  <wpt lat="50.73746385" lon="21.768142419894893">
    <ele>159.0</ele>
    <name>Camp Winnica Sandomierska</name>
    <desc>access=yes; amenity=parking; name=Camp Winnica
    Sandomierska; parking=surface; surface=gravel;
    tourism=caravan_site; id=way/1056765102</desc>
  </wpt>
  <wpt lat="54.549461199999996" lon="17.815790095041862">
    <ele>34.0</ele>
    <name>way/1079311461</name>
    <desc>tourism=caravan_site; id=way/1079311461</desc>
  </wpt>
  <wpt lat="54.15192805" lon="15.343203270138732">
    <ele>9.0</ele>
    <name>Sea Camp</name>
    <desc>email=rezerwacje@seacamp.pl; landuse=residential;
    name=Sea Camp; phone=+48 515 824 863; power_supply=yes;
    tents=yes; tourism=caravan_site; website=https://seacamp.pl/;
    id=way/1079969008</desc>
    <link href="https://seacamp.pl/"></link>
  </wpt>
  <wpt lat="51.6218265" lon="15.151944468453994">
    <ele>159.0</ele>
    <name>Kamper Park Żary</name>
    <desc>addr:city=Żary; addr:country=PL; addr:housenumber=34;
    addr:postcode=68-200; addr:street=Leśna; capacity=6;
    caravans=yes; dog=yes; fee=no; internet_access=no; name=Kamper
    Park Żary; opening_hours=Mo-Su 08:00-20:00; operator=Żary;
    phone=+48 884 004 961; power_supply=yes; reservation=no;
    sanitary_dump_station=yes; seasonal=summer; shower=yes;
    tents=yes; toilets=yes; tourism=caravan_site; water_point=yes;
    wheelchair=yes; id=way/1106015680</desc>
  </wpt>
  <wpt lat="54.23222065" lon="17.7507954">
    <ele>145.0</ele>
    <name>way/1108479446</name>
    <desc>fee=yes; power_supply=yes; tourism=caravan_site;
    id=way/1108479446</desc>
  </wpt>
  <wpt lat="54.23323055" lon="17.75137839059733">
    <ele>148.0</ele>
    <name>way/1108479462</name>
    <desc>fee=yes; power_supply=yes; tents=yes;
    tourism=caravan_site; id=way/1108479462</desc>
  </wpt>
  <wpt lat="52.2422939" lon="15.398494890687822">
    <ele>89.0</ele>
    <name>Relaks</name>
    <desc>cabins=yes; caravans=yes; email=info@camping-relaks.pl;
    internet_access=no; name=Relaks; phone=+48 692439005;
    power_supply=yes; sanitary_dump_station=yes; shower=yes;
    tents=yes; toilets=yes; tourism=caravan_site;
    website=https://www.camping-relaks.pl/;
    id=way/1164656763</desc>
    <link href="https://www.camping-relaks.pl/"></link>
  </wpt>
  <wpt lat="51.601504000000006" lon="18.73942158502509">
    <ele>131.0</ele>
    <name>way/1172949364</name>
    <desc>tourism=caravan_site; id=way/1172949364</desc>
  </wpt>
  <wpt lat="51.006651399999996" lon="21.17367925615175">
    <ele>202.0</ele>
    <name>way/1177313301</name>
    <desc>power_supply=yes; sanitary_dump_station=yes;
    tourism=caravan_site; id=way/1177313301</desc>
  </wpt>
  <wpt lat="51.00650985" lon="21.172415331811393">
    <ele>216.0</ele>
    <name>way/1177313303</name>
    <desc>power_supply=yes; sanitary_dump_station=yes;
    tourism=caravan_site; id=way/1177313303</desc>
  </wpt>
  <wpt lat="53.42478255" lon="18.09085574123734">
    <ele>90.0</ele>
    <name>way/1188577178</name>
    <desc>tourism=caravan_site; id=way/1188577178</desc>
  </wpt>
  <wpt lat="53.8060515" lon="21.50489372374357">
    <ele>121.0</ele>
    <name>Zełwągi</name>
    <desc>addr:city=Zełwągi; addr:housenumber=69C;
    addr:postcode=11-730; addr:street=Zełwągi; internet_access=no;
    name:pl=Pole kamperowe kamper plac Między Wodami;
    power_supply=yes; sanitary_dump_station=yes;
    tourism=caravan_site; id=way/1202334885</desc>
  </wpt>
  <wpt lat="52.5388631" lon="15.710541935285931">
    <ele>62.0</ele>
    <name>Pod Platanem</name>
    <desc>name=Pod Platanem; tourism=caravan_site;
    id=way/1209493816</desc>
  </wpt>
  <wpt lat="54.807593350000005" lon="18.379429085861183">
    <ele>35.0</ele>
    <name>Camping Balticsport</name>
    <desc>addr:city=Chłapowo; addr:housenumber=52;
    addr:postcode=84-120; addr:street=Stefana Żeromskiego;
    check_date=2023-10-31; internet_access=wlan;
    internet_access:fee=customers; name=Camping Balticsport;
    power_supply=yes; sanitary_dump_station=no;
    tourism=caravan_site; id=way/1219730149</desc>
  </wpt>
  <wpt lat="52.392951" lon="22.66181582352119">
    <ele>113.0</ele>
    <name>way/1245570660</name>
    <desc>fee=no; tourism=caravan_site; id=way/1245570660</desc>
  </wpt>
  <wpt lat="52.4742763" lon="16.780330995924267">
    <ele>72.0</ele>
    <name>way/1252123247</name>
    <desc>tourism=caravan_site; id=way/1252123247</desc>
  </wpt>
  <wpt lat="53.1898397" lon="17.83290256764373">
    <ele>92.0</ele>
    <name>AgroPark Dabrowka Nowa</name>
    <desc>name=AgroPark Dabrowka Nowa; tourism=caravan_site;
    website=http://www.camping-dabrowka-nowa.de/PL;
    id=way/1264425581</desc>
    <link href="http://www.camping-dabrowka-nowa.de/PL"></link>
  </wpt>
  <wpt lat="50.274197" lon="16.879780885744267">
    <ele>521.0</ele>
    <name>way/1290773051</name>
    <desc>tourism=caravan_site; id=way/1290773051</desc>
  </wpt>
  <wpt lat="52.15444694999999" lon="20.890193311619555">
    <ele>97.0</ele>
    <name>way/1296452814</name>
    <desc>capacity=10; fee=yes; surface=fine_gravel;
    tourism=caravan_site; id=way/1296452814</desc>
  </wpt>
  <wpt lat="51.56922785" lon="21.994302068112134">
    <ele>118.0</ele>
    <name>way/1297280697</name>
    <desc>tourism=caravan_site; id=way/1297280697</desc>
  </wpt>
  <wpt lat="54.3808632" lon="16.317429522701012">
    <ele>4.0</ele>
    <name>way/1307755059</name>
    <desc>barrier=fence; tourism=caravan_site;
    id=way/1307755059</desc>
  </wpt>
  <wpt lat="52.4296209" lon="17.942932631315845">
    <ele>93.0</ele>
    <name>way/1308477434</name>
    <desc>tourism=caravan_site; id=way/1308477434</desc>
  </wpt>
  <wpt lat="53.97011535" lon="18.51517665621992">
    <ele>74.0</ele>
    <name>Miejsce dla kamperów</name>
    <desc>fee=yes; name=Miejsce dla kamperów; operator=Ośrodek
    Sportu i Rekreacji w Starogardzie Gdańskim; power_supply=yes;
    sanitary_dump_station=yes; tourism=caravan_site;
    website=https://osir.com.pl/kompleks-piekielki/campery.html;
    id=way/1311293070</desc>
    <link href="https://osir.com.pl/kompleks-piekielki/campery.html">
    </link>
  </wpt>
  <wpt lat="50.152305150000004" lon="23.130246871279045">
    <ele>208.0</ele>
    <name>Krainie Roztocze</name>
    <desc>name=Krainie Roztocze; opening_hours=Mo-Su 07:00-21:00;
    phone=+48 601 290 097; tourism=caravan_site;
    id=way/1361226829</desc>
  </wpt>
  <wpt lat="50.0732495" lon="20.841287650076744">
    <ele>187.0</ele>
    <name>way/1392054583</name>
    <desc>access=customers; tourism=caravan_site;
    id=way/1392054583</desc>
  </wpt>
  <wpt lat="53.9890199" lon="20.401263095823566">
    <ele>74.0</ele>
    <name>Camper Park</name>
    <desc>addr:city=Dobre Miasto; addr:housenumber=a;
    addr:street=Tadeusza Nalepy; fee=no; internet_access=no;
    name=Camper Park; note=Only three places / Nur drei Sitze;
    opening_hours=24/7; operator=Ośrodek Sportu i Rekreacji Dobre
    Miasto; power_supply=yes; reservation=no;
    sanitary_dump_station=yes; tourism=caravan_site;
    id=way/1415271782</desc>
  </wpt>
  <wpt lat="53.9860341" lon="20.414383469811366">
    <ele>90.0</ele>
    <name>Camper Park</name>
    <desc>addr:city=Dobre Miasto; addr:housenumber=18;
    addr:street=Garnizonowa; description=Only three places / Nur
    drei Sitzplätze; fee=no; internet_access=no; name=Camper Park;
    opening_hours=24/7; operator=Ośrodek Sportu i Rekreacji Dobre
    Miasto; power_supply=yes; reservation=no;
    sanitary_dump_station=yes; tourism=caravan_site;
    id=way/1415271783</desc>
  </wpt>
  <wpt lat="52.478573749999995" lon="19.060367718821745">
    <ele>107.0</ele>
    <name>Kujawski Zakątek</name>
    <desc>fee=yes; internet_access=wlan;
    internet_access:fee=customers; name=Kujawski Zakątek;
    opening_hours=We 17:00-19:00, Fr 17:00-21:00, Sa,Su
    08:30-10:00, 17:00-21:00; power_supply=yes;
    power_supply:maxcurrent=6; sanitary_dump_station=yes;
    seasonal=yes; tourism=caravan_site; water_point=yes;
    id=way/1416049959</desc>
  </wpt>
  <wpt lat="54.44302805" lon="16.398594238909688">
    <ele>-3.0</ele>
    <name>Kamper Park</name>
    <desc>
    contact:facebook=https://www.facebook.com/KamperParkDarlowko;
    email=biuro@kamperparkdarlowko.pl; mobile=+48 512 497 111;
    name=Kamper Park; phone=+48 663 466 606; power_supply=yes;
    tourism=caravan_site; website=https://kamperparkdarlowko.pl/;
    id=way/1418289365</desc>
    <link href="https://kamperparkdarlowko.pl/"></link>
  </wpt>
</gpx>
