<?xml version="1.0" encoding="utf-8"?>
<gpx xmlns="http://www.topografix.com/GPX/1/1"
xmlns:xsi="http://www.w3.org/2001/XMLSchema-instance"
xsi:schemaLocation="http://www.topografix.com/GPX/1/1 http://www.topografix.com/GPX/1/1/gpx.xsd"
version="1.1" creator="togpx">
  <metadata>
    <copyright>
      <license>"osm3s": { "timestamp_osm_base":
      "2025-08-01T10:00:55Z", "timestamp_areas_base":
      "2025-08-01T08:00:16Z", "copyright": "The data included in
      this document is from www.openstreetmap.org. The data is made
      available under ODbL." } // SRTM: { Elevation data missing in
      OSM was added by the NASA Shuttle Radar Topography Mission as
      public release version, if available there. } // { Check for
      latest version of this file on:
      https://github.com/GpxFeed/campgrounds }</license>
    </copyright>
  </metadata>
  <wpt lat="53.336944" lon="17.9025">
    <ele>113.0</ele>
    <name>Ängby</name>
    <desc>created_by=JOSM; name=Ängby; tourism=camp_site;
    id=node/26860235</desc>
  </wpt>
  <wpt lat="50.9644777" lon="18.2790783">
    <ele>193.0</ele>
    <name>Bąkow</name>
    <desc>caravans=yes; email=otwbakow@osir.kluczbork.pl;
    name=Bąkow; operator=Ośrodek Sportu i Rekrecji w Kluczborku;
    phone=+48774180586; ref:pfcc=23; stars=2; tents=yes;
    tourism=camp_site; website=http://www.osir.kluczbork.pl;
    id=node/26860238</desc>
    <link href="http://www.osir.kluczbork.pl"></link>
  </wpt>
  <wpt lat="54.313889" lon="18.266111">
    <ele>169.0</ele>
    <name>Burczykas</name>
    <desc>name=Burczykas; tourism=camp_site;
    id=node/26860248</desc>
  </wpt>
  <wpt lat="49.5788456" lon="19.626007">
    <ele>785.0</ele>
    <name>Camp-Cup</name>
    <desc>name=Camp-Cup; tourism=camp_site; id=node/26860250</desc>
  </wpt>
  <wpt lat="53.868056" lon="21.503611">
    <ele>125.0</ele>
    <name>Christian</name>
    <desc>name=Christian; tourism=camp_site;
    id=node/26860254</desc>
  </wpt>
  <wpt lat="52.3504247" lon="15.3393145">
    <ele>150.0</ele>
    <name>de Kroon</name>
    <desc>name=de Kroon; tourism=camp_site; id=node/26860257</desc>
  </wpt>
  <wpt lat="53.9675" lon="21.776667">
    <ele>115.0</ele>
    <name>Echo</name>
    <desc>capacity=ca. 50; description=Hervorragend geführter
    Platz. Sauber, ordentlich und gemütlich. Wenn man vor
    Mitternacht Ruhe braucht, sollte man Abstand zum Grillplatz
    halten, hier fließt regelmäßig Bier und Vodka in Strömen.
    Kinderfreundlich.; fee=yes; name=Echo; tourism=camp_site;
    id=node/26860262</desc>
  </wpt>
  <wpt lat="53.7341961" lon="21.5620513">
    <ele>119.0</ele>
    <name>Galindia</name>
    <desc>name=Galindia; tourism=camp_site; id=node/26860269</desc>
  </wpt>
  <wpt lat="49.324167" lon="19.985">
    <ele>791.0</ele>
    <name>Harenda</name>
    <desc>caravans=yes; email=harenda51b@gmail.com; fax=18 20 147
    00; name=Harenda; phone=+48 18 201 47 00, +48 500 896 251, +48
    601 506 717; ref:pfcc=160; stars=2; tents=yes;
    tourism=camp_site; website=http://www.harenda.tatrynet.pl/;
    id=node/26860273</desc>
    <link href="http://www.harenda.tatrynet.pl/"></link>
  </wpt>
  <wpt lat="53.844444" lon="21.56">
    <ele>119.0</ele>
    <name>Kama</name>
    <desc>name=Kama; tourism=camp_site; id=node/26860280</desc>
  </wpt>
  <wpt lat="54.7775282" lon="18.4562213">
    <ele>3.0</ele>
    <name>Kaper</name>
    <desc>addr:city=Władysławowo; addr:postcode=84-120;
    addr:street=Droga Helska; capacity:persons=450; caravans=yes;
    check_date=2024-07-31; dog=yes; fee=yes; name=Kaper; phone=+48
    666 367 397; stars=3; static_caravans=yes; tents=no;
    tourism=camp_site; website=https://www.kaperkemping.pl;
    id=node/26860282</desc>
    <link href="https://www.kaperkemping.pl"></link>
  </wpt>
  <wpt lat="50.0155172" lon="19.9245287">
    <ele>225.0</ele>
    <name>Krakowianka</name>
    <desc>caravans=yes; email=nolcegi@krakowianka.com.pl,
    hotel@krakowianka.com.pl, hotel@krakowianka.info; fax=+48 12
    268 14 17; internet_access=wlan; internet_access:fee=no;
    name=Krakowianka; operator=Ośrodek Turystyki Sportu i Rekreacji
    "Krakowianka"; phone=+48 12 268 11 35, +48 12 268 14 17;
    ref:pfcc=171; stars=1; tents=yes; tourism=camp_site;
    website=https://www.krakowianka.info/; id=node/26860287</desc>
    <link href="https://www.krakowianka.info/"></link>
  </wpt>
  <wpt lat="53.703333" lon="21.547222">
    <ele>118.0</ele>
    <name>Kruska</name>
    <desc>name=Kruska; tourism=camp_site; id=node/26860290</desc>
  </wpt>
  <wpt lat="51.1422246" lon="16.239993">
    <ele>166.0</ele>
    <name>Camping 234</name>
    <desc>addr:city=Legnickie Pole; addr:country=PL;
    addr:housenumber=7; addr:postcode=59-241; addr:street=Henryka
    Brodatego; caravans=yes; contact:email=campinglp@wp.pl;
    contact:facebook=https://www.facebook.com/Camping.Leg.Pole;
    contact:fax=+48 76 852 53 49; contact:phone=+48 76 858 28 27;
    name=Camping 234; ref:pfcc=234; shower=yes; stars=2; tents=yes;
    toilets=yes; tourism=camp_site;
    website=https://www.gokis-legnickiepole.pl/turystyka;
    id=node/26860292</desc>
    <link href="https://www.gokis-legnickiepole.pl/turystyka">
    </link>
  </wpt>
  <wpt lat="51.5123435" lon="17.8482062">
    <ele>140.0</ele>
    <name>Lido</name>
    <desc>name=Lido; tourism=camp_site; id=node/26860295</desc>
  </wpt>
  <wpt lat="53.84" lon="21.2075">
    <ele>156.0</ele>
    <name>Lorsby</name>
    <desc>name=Lorsby; tourism=camp_site;
    website=https://www.lorsby.pl/; id=node/26860297</desc>
    <link href="https://www.lorsby.pl/"></link>
  </wpt>
  <wpt lat="54.0473635" lon="19.039976">
    <ele>12.0</ele>
    <name>Malbork</name>
    <desc>addr:city=Malbork; addr:housenumber=3;
    addr:postcode=82-200; addr:street=Parkowa; capacity=25;
    fee=yes; internet_access=yes; internet_access:fee=no;
    name=Malbork; tourism=camp_site; id=node/26860299</desc>
  </wpt>
  <wpt lat="54.5764071" lon="16.8807074">
    <ele>4.0</ele>
    <name>Camping Morski</name>
    <desc>addr:city=Ustka; addr:housenumber=4;
    addr:postcode=76-270; addr:street=Armii Krajowej;
    capacity:persons=150; caravans=yes; check_date=2024-07-31;
    drinking_water=yes; email=cam_mor@pro.onet.pl; fax=+48 59 814
    44 26; fee=yes; name=Camping Morski; phone=+48 59 814 44 26,+48
    59 814 47 89; power_supply=yes; ref:pfcc=101;
    sanitary_dump_station=yes; shower=yes; stars=2;
    static_caravans=yes; tents=yes; toilets=yes; tourism=camp_site;
    website=https://morski101.pl/; id=node/26860303</desc>
    <link href="https://morski101.pl/"></link>
  </wpt>
  <wpt lat="53.7802497" lon="21.3366876">
    <ele>150.0</ele>
    <name>Piecki</name>
    <desc>name=Piecki; tourism=camp_site; id=node/26860339</desc>
  </wpt>
  <wpt lat="50.9044789" lon="16.008726">
    <ele>549.0</ele>
    <name>Pod Bukami</name>
    <desc>name=Pod Bukami; tourism=camp_site;
    id=node/26860340</desc>
  </wpt>
  <wpt lat="52.0535231" lon="23.5626252">
    <ele>134.0</ele>
    <name>Pod Dębami</name>
    <desc>name=Pod Dębami; tourism=camp_site;
    id=node/26860342</desc>
  </wpt>
  <wpt lat="52.4975" lon="18.138056">
    <ele>101.0</ele>
    <name>Pomerania</name>
    <desc>name=Pomerania; tourism=camp_site;
    id=node/26860346</desc>
  </wpt>
  <wpt lat="54.3203907" lon="18.1182156">
    <ele>163.0</ele>
    <name>Tamowa</name>
    <desc>name=Tamowa; tourism=camp_site; id=node/26860359</desc>
  </wpt>
  <wpt lat="54.0542619" lon="22.1395765">
    <ele>152.0</ele>
    <name>Folwark Łękuk - camping</name>
    <desc>name=Folwark Łękuk - camping; tourism=camp_site;
    id=node/31521921</desc>
  </wpt>
  <wpt lat="52.4633189" lon="15.5040465">
    <ele>47.0</ele>
    <name>U Maślaka</name>
    <desc>name=U Maślaka; old_name=Ober Görzig; tourism=camp_site;
    id=node/269341562</desc>
  </wpt>
  <wpt lat="52.490879" lon="15.5438961">
    <ele>48.0</ele>
    <name>Głębokie 3</name>
    <desc>name=Głębokie 3; tourism=camp_site;
    id=node/269344216</desc>
  </wpt>
  <wpt lat="52.5132208" lon="15.4429258">
    <ele>41.0</ele>
    <name>Bledzew</name>
    <desc>name=Bledzew; old_name=Blesen; tourism=camp_site;
    id=node/269414017</desc>
  </wpt>
  <wpt lat="53.7870951" lon="20.3993263">
    <ele>113.0</ele>
    <name>Ukiel</name>
    <desc>caravans=yes; email=zbyszekmalag@wp.pl; maxtents=100;
    name=Ukiel; phone=+48 89 522 27 66, +48 509 382 924;
    ref:pfcc=16; tents=yes; tourism=camp_site;
    website=http://www.camping.mazury.pl/; id=node/279542327</desc>
    <link href="http://www.camping.mazury.pl/"></link>
  </wpt>
  <wpt lat="53.3957067" lon="14.6367954">
    <ele>3.0</ele>
    <name>Marina PTTK</name>
    <desc>addr:city=Szczecin; addr:housenumber=23;
    addr:postcode=70-800; addr:street=Przestrzenna;
    alt_name=Camping Marina; email=campingmarina@campingmarina.pl;
    internet_access=wlan; name=Marina PTTK; phone=+48 91 46 01 165;
    tourism=camp_site; website=http://www.campingmarina.pl;
    id=node/303122072</desc>
    <link href="http://www.campingmarina.pl"></link>
  </wpt>
  <wpt lat="53.2041004" lon="17.9508356">
    <ele>61.0</ele>
    <name>Na Szlaku Brdy</name>
    <desc>addr:city=Bydgoszcz; addr:housenumber=8;
    addr:postcode=85-471; addr:street=Biwakowa; caravans=yes;
    email=naszlakubrdy@gmail.com; name=Na Szlaku Brdy;
    old_name=Camping Janowo; opening_hours=Jan-Apr closed, May-Sep
    Mo-Su sunrise-sunset, Oct-Dec closed; operator=PTTK; phone=+48
    609 757 995; tents=yes; tourism=camp_site;
    website=https://www.naszlakubrdy.pl/; id=node/310754035</desc>
    <link href="https://www.naszlakubrdy.pl/"></link>
  </wpt>
  <wpt lat="53.3405576" lon="18.3876399">
    <ele>27.0</ele>
    <name>node/310808098</name>
    <desc>tourism=camp_site; id=node/310808098</desc>
  </wpt>
  <wpt lat="54.3378345" lon="18.908999">
    <ele>1.0</ele>
    <name>node/311198522</name>
    <desc>tourism=camp_site; id=node/311198522</desc>
  </wpt>
  <wpt lat="53.3733596" lon="14.6342213">
    <ele>37.0</ele>
    <name>Harcerska Baza Turystyczna „Wzgórze”</name>
    <desc>access=private; name=Harcerska Baza Turystyczna
    „Wzgórze”; operator=Hufiec ZHP Szczecin-Dąbie; scout=yes;
    tourism=camp_site; website=https://szczecindabie.zhp.pl/;
    id=node/365945705</desc>
    <link href="https://szczecindabie.zhp.pl/"></link>
  </wpt>
  <wpt lat="54.1057725" lon="16.4708473">
    <ele>88.0</ele>
    <name>node/374274179</name>
    <desc>tourism=camp_site; id=node/374274179</desc>
  </wpt>
  <wpt lat="52.1641651" lon="15.8925421">
    <ele>58.0</ele>
    <name>node/470019021</name>
    <desc>tourism=camp_site; id=node/470019021</desc>
  </wpt>
  <wpt lat="53.0066625" lon="15.9541998">
    <ele>43.0</ele>
    <name>Biwak Osieczno</name>
    <desc>addr:city:simc=0526908; addr:housenumber=26;
    addr:place=Przesieki; addr:postcode=64-763; caravans=yes;
    email=info@drawskie-kajaki.pl; name=Biwak Osieczno;
    official_name=Camping przy Drawie; operator=Stowarzyszenie
    Bydgoskie Kajaki; phone=+48 790 224 205;
    source:addr=emuia.gugik.gov.pl; tents=yes; tourism=camp_site;
    website=https://drawskie-kajaki.pl/camping-przy-drawie;
    id=node/477241548</desc>
    <link href="https://drawskie-kajaki.pl/camping-przy-drawie">
    </link>
  </wpt>
  <wpt lat="53.069867" lon="16.0782966">
    <ele>88.0</ele>
    <name>node/477245959</name>
    <desc>tourism=camp_site; id=node/477245959</desc>
  </wpt>
  <wpt lat="52.8958997" lon="16.0150966">
    <ele>35.0</ele>
    <name>Świderek</name>
    <desc>caravans=yes; email=anita.mendlewska@o2.pl;
    name=Świderek; official_name=Ośrodek Wypoczynkowy Świderek;
    phone=+48 517 228 513, +48 512 353 097; tents=yes;
    tourism=camp_site; website=https://owswiderek.com.pl/;
    id=node/477349692</desc>
    <link href="https://owswiderek.com.pl/"></link>
  </wpt>
  <wpt lat="54.2525488" lon="16.0214641">
    <ele>-1.0</ele>
    <name>Camping „ARA” nr 107</name>
    <desc>addr:city=Mielenko; addr:housenumber=9;
    addr:postcode=76-032; addr:street=Plażowa;
    capacity:persons=240; caravans=yes; check_date=2024-07-31;
    email=info@campingara.eu; fee=yes; mobile=+48 664 430 945;
    name=Camping „ARA” nr 107; ref:pfcc=107; stars=3;
    static_caravans=yes; tents=yes; tourism=camp_site;
    website=http://www.campingara.eu/; id=node/493346723</desc>
    <link href="http://www.campingara.eu/"></link>
  </wpt>
  <wpt lat="50.0809163" lon="22.2456244">
    <ele>194.0</ele>
    <name>node/506517520</name>
    <desc>tourism=camp_site; id=node/506517520</desc>
  </wpt>
  <wpt lat="51.81315" lon="18.71425">
    <ele>116.0</ele>
    <name>Camping Leśny</name>
    <desc>addr:city=Pęczniew; name=Camping Leśny;
    phone=+48609472277; source=http://ump.waw.pl/ retrieved
    18:45:18 09/30/09
    (UMP-Kalisz/src/POI-Kalisz.pnt-converted.txt);
    tourism=camp_site; id=node/528545102</desc>
  </wpt>
  <wpt lat="53.43744" lon="18.41639">
    <ele>71.0</ele>
    <name>Camping</name>
    <desc>addr:city=Sulnówko; addr:postcode=86-100;
    addr:street=Sulnówko; name=Camping; source=http://ump.waw.pl/
    retrieved 11:19:07 11/17/09
    (UMP-Torun/src/POI-Torun.pnt-converted.txt); tourism=camp_site;
    id=node/599467169</desc>
  </wpt>
  <wpt lat="50.3309829" lon="23.3605015">
    <ele>276.0</ele>
    <name>Pizuny</name>
    <desc>addr:city=Pizuny; fixme=location;
    source=http://ump.waw.pl/ retrieved 15:59:48 01/18/10
    (UMP-Przemysl/src/POI-Przemysl.inne.pnt-converted.txt);
    tourism=camp_site; wheelchair=yes; id=node/661299502</desc>
  </wpt>
  <wpt lat="51.4515126" lon="19.9721682">
    <ele>162.0</ele>
    <name>Karolinów</name>
    <desc>addr:city=Karolinów; source=http://ump.waw.pl/ retrieved
    00:10:48 03/29/10
    (UMP-Lodz/src/POI-Lodz.inne.pnt-converted.txt);
    tourism=camp_site; id=node/683184518</desc>
  </wpt>
  <wpt lat="49.5130286" lon="19.2211732">
    <ele>763.0</ele>
    <name>Złatna Huta</name>
    <desc>name=Złatna Huta; tourism=camp_site;
    id=node/765951821</desc>
  </wpt>
  <wpt lat="54.7612371" lon="17.6554102">
    <ele>0.0</ele>
    <name>Habenda</name>
    <desc>caravans=yes; name=Habenda; tents=yes; tourism=camp_site;
    id=node/830606809</desc>
  </wpt>
  <wpt lat="52.3241559" lon="23.0482881">
    <ele>125.0</ele>
    <name>node/830997357</name>
    <desc>tourism=camp_site; id=node/830997357</desc>
  </wpt>
  <wpt lat="52.6838935" lon="23.8262063">
    <ele>165.0</ele>
    <name>node/840092132</name>
    <desc>tourism=camp_site; id=node/840092132</desc>
  </wpt>
  <wpt lat="53.6906459" lon="21.3986548">
    <ele>131.0</ele>
    <name>Pole Namiotowe "Nad Mokrym"</name>
    <desc>comment=Zgłoszenie noclegu pod tel. 089 742 18 36, opłata
    5zł/osoba/doba, ognisko w wyznaczonym miejscu, zakaz mycia,
    prania i zmywania w jeziorze i na brzegu w odległości mniejszej
    niż 50m od brzegu. Osoba odpowiedzialna: Konrad Nakielski;
    name=Pole Namiotowe "Nad Mokrym"; owner=Mazur Syrenka, Krutyń
    36, 11-710 Piecki; tourism=camp_site; id=node/853584627</desc>
  </wpt>
  <wpt lat="53.6318551" lon="21.3715697">
    <ele>127.0</ele>
    <name>node/869418444</name>
    <desc>tourism=camp_site; id=node/869418444</desc>
  </wpt>
  <wpt lat="52.62764" lon="15.86071">
    <ele>49.0</ele>
    <name>Ośrodek Blue</name>
    <desc>name=Ośrodek Blue; tourism=camp_site;
    id=node/904970830</desc>
  </wpt>
  <wpt lat="52.4617429" lon="14.8696509">
    <ele>45.0</ele>
    <name>Victorio Camp</name>
    <desc>name=Victorio Camp; tourism=camp_site;
    website=http://victorio-camp.pl; id=node/904970835</desc>
    <link href="http://victorio-camp.pl"></link>
  </wpt>
  <wpt lat="54.6788676" lon="17.4359859">
    <ele>3.0</ele>
    <name>node/919096995</name>
    <desc>tourism=camp_site; id=node/919096995</desc>
  </wpt>
  <wpt lat="54.5407537" lon="16.5389694">
    <ele>15.0</ele>
    <name>node/919096996</name>
    <desc>tourism=camp_site; id=node/919096996</desc>
  </wpt>
  <wpt lat="53.7973384" lon="21.8744088">
    <ele>125.0</ele>
    <name>Pole Biwakowe "Pod Sosnami"</name>
    <desc>name=Pole Biwakowe "Pod Sosnami"; tourism=camp_site;
    id=node/946816212</desc>
  </wpt>
  <wpt lat="53.94528" lon="21.7468366">
    <ele>120.0</ele>
    <name>Baza Kula</name>
    <desc>name=Baza Kula; tourism=camp_site;
    id=node/951333725</desc>
  </wpt>
  <wpt lat="53.9704601" lon="21.7645206">
    <ele>126.0</ele>
    <name>pole biwakowe "Bogaczewo"</name>
    <desc>name=pole biwakowe "Bogaczewo"; name:en=Camping;
    tourism=camp_site; id=node/951333748</desc>
  </wpt>
  <wpt lat="54.4228883" lon="16.4019401">
    <ele>0.0</ele>
    <name>Bionika Przystań</name>
    <desc>fee=yes; name=Bionika Przystań; tourism=camp_site;
    id=node/973888784</desc>
  </wpt>
  <wpt lat="54.5766484" lon="16.8554422">
    <ele>3.0</ele>
    <name>Pokoje gościnne i pole namiotowe u Irka</name>
    <desc>name=Pokoje gościnne i pole namiotowe u Irka;
    tourism=camp_site; id=node/973944719</desc>
  </wpt>
  <wpt lat="54.5741053" lon="16.8758962">
    <ele>14.0</ele>
    <name>node/975932433</name>
    <desc>tourism=camp_site; id=node/975932433</desc>
  </wpt>
  <wpt lat="52.5817387" lon="16.0048386">
    <ele>58.0</ele>
    <name>node/1103023253</name>
    <desc>tourism=camp_site; id=node/1103023253</desc>
  </wpt>
  <wpt lat="50.0069691" lon="18.2886247">
    <ele>188.0</ele>
    <name>node/1245613240</name>
    <desc>tourism=camp_site; id=node/1245613240</desc>
  </wpt>
  <wpt lat="49.7514726" lon="19.2107712">
    <ele>323.0</ele>
    <name>Kran</name>
    <desc>addr:city=Czernichów; addr:housenumber=1;
    addr:postcode=34-311; addr:street=Spacerowa; fax=+48 33 862 40
    70; name=Kran; phone=+48 661-085-614; tourism=camp_site;
    website=http://www.kran.obitur.pl; id=node/1264159840</desc>
    <link href="http://www.kran.obitur.pl"></link>
  </wpt>
  <wpt lat="54.8290689" lon="18.0868883">
    <ele>2.0</ele>
    <name>Słoneczne</name>
    <desc>name=Słoneczne; tourism=camp_site;
    id=node/1276456029</desc>
  </wpt>
  <wpt lat="52.4010341" lon="17.9457379">
    <ele>97.0</ele>
    <name>Pole namiotowe Ośrodka „Szansa”</name>
    <desc>name=Pole namiotowe Ośrodka „Szansa”; source=GPS;
    tourism=camp_site; id=node/1300910817</desc>
  </wpt>
  <wpt lat="54.0452285" lon="19.0262738">
    <ele>7.0</ele>
    <name>Nad Stawem</name>
    <desc>caravans=yes; email=biuro@malbork-kemping.eu; name=Nad
    Stawem; phone=+48 501 406 740; tents=yes; tourism=camp_site;
    website=http://www.malbork-kemping.eu;
    id=node/1304619517</desc>
    <link href="http://www.malbork-kemping.eu"></link>
  </wpt>
  <wpt lat="52.2171136" lon="15.3957839">
    <ele>89.0</ele>
    <name>Ośrodek Wczasowy Irena</name>
    <desc>caravans=yes; name=Ośrodek Wczasowy Irena; phone=+48 68
    381 21 20; short_name=OW Irena; tents=yes; tourism=camp_site;
    id=node/1307426758</desc>
  </wpt>
  <wpt lat="53.726329" lon="21.5532541">
    <ele>123.0</ele>
    <name>node/1360658946</name>
    <desc>tourism=camp_site; id=node/1360658946</desc>
  </wpt>
  <wpt lat="53.6899478" lon="21.7465674">
    <ele>124.0</ele>
    <name>Binduga Młyńska</name>
    <desc>name=Binduga Młyńska; tourism=camp_site;
    id=node/1364995475</desc>
  </wpt>
  <wpt lat="53.6934665" lon="21.7378309">
    <ele>112.0</ele>
    <name>Binduga Młyńska-Port</name>
    <desc>fee=yes; name=Binduga Młyńska-Port; tourism=camp_site;
    id=node/1364995489</desc>
  </wpt>
  <wpt lat="54.076009" lon="16.3942829">
    <ele>66.0</ele>
    <name>Czapla</name>
    <desc>designation=kajaki, rowery wodne; name=Czapla; phone=+48
    602 573 676; tourism=camp_site;
    website=https://czapla.osrodek.pl/; id=node/1386712579</desc>
    <link href="https://czapla.osrodek.pl/"></link>
  </wpt>
  <wpt lat="54.0727523" lon="16.3911097">
    <ele>65.0</ele>
    <name>Raj Ośrodek Wypoczynkowy</name>
    <desc>addr:housenumber=10; addr:place=Mostowo;
    addr:postcode=76-015; name=Raj Ośrodek Wypoczynkowy;
    phone=+48790734650; source=UG Manowo; tourism=camp_site;
    website=https://www.rajmostowo.pl/; id=node/1386712602</desc>
    <link href="https://www.rajmostowo.pl/"></link>
  </wpt>
  <wpt lat="54.4296988" lon="19.5977259">
    <ele>9.0</ele>
    <name>node/1389527132</name>
    <desc>tourism=camp_site; id=node/1389527132</desc>
  </wpt>
  <wpt lat="53.0153491" lon="15.9843541">
    <ele>58.0</ele>
    <name>node/1390151516</name>
    <desc>caravans=yes; tents=yes; tourism=camp_site;
    id=node/1390151516</desc>
  </wpt>
  <wpt lat="54.6231039" lon="16.9848783">
    <ele>27.0</ele>
    <name>Mistral</name>
    <desc>addr:city=Poddąbie; addr:housenumber=18;
    addr:postcode=76-211; addr:street=Promenada Słońca; fee=yes;
    name=Mistral; phone=+48 59 846 13 63; power_supply=yes;
    tents=yes; tourism=camp_site; id=node/1395465425</desc>
  </wpt>
  <wpt lat="52.6925101" lon="23.8309474">
    <ele>164.0</ele>
    <name>U Michała</name>
    <desc>caravans=yes; email=inazena@wp.pl; name=U Michała;
    name:be=У Міхала; phone=+48 85 681 27 03; ref:pfcc=124;
    stars=1; tents=yes; tourism=camp_site;
    website=https://www.campingbialowieza.pl/;
    id=node/1414327595</desc>
    <link href="https://www.campingbialowieza.pl/"></link>
  </wpt>
  <wpt lat="50.5429908" lon="23.1960926">
    <ele>255.0</ele>
    <name>Krasnobród</name>
    <desc>addr:city=Krasnobród; addr:city:simc=0891281;
    addr:housenumber=17; addr:postcode=22-440;
    addr:street=Wczasowa; source:addr=gugik.gov.pl;
    tourism=camp_site; id=node/1421045864</desc>
  </wpt>
  <wpt lat="50.0611035" lon="22.4835966">
    <ele>185.0</ele>
    <name>Pastewnik</name>
    <desc>caravans=yes; email=zajazdpastewnik@hot.pl; fax=+48 16
    649 23 01; name=Pastewnik; phone=+48 16 649 23 00, +48 691 381
    400; power_supply=yes; ref:pfcc=221; stars=3; tents=yes;
    tourism=camp_site; website=http://www.pastewnik.pl;
    id=node/1437573264</desc>
    <link href="http://www.pastewnik.pl"></link>
  </wpt>
  <wpt lat="50.2805961" lon="22.5151672">
    <ele>172.0</ele>
    <name>Pole biwakowe "Laguna"</name>
    <desc>name=Pole biwakowe "Laguna"; tourism=camp_site;
    id=node/1445759587</desc>
  </wpt>
  <wpt lat="54.543395" lon="18.2642496">
    <ele>185.0</ele>
    <name>Borowo</name>
    <desc>contact:email=polebiwakoweborowo@gmail.com;
    contact:facebook=https://www.facebook.com/BorowoPoleBiwakowe;
    contact:phone=+48 574 704 707; fee=yes; name=Borowo;
    tourism=camp_site; id=node/1462827889</desc>
  </wpt>
  <wpt lat="52.709146" lon="21.1179994">
    <ele>94.0</ele>
    <name>Baza Biwakowa Popławy</name>
    <desc>name=Baza Biwakowa Popławy; tourism=camp_site;
    id=node/1507174787</desc>
  </wpt>
  <wpt lat="51.5958308" lon="21.5398059">
    <ele>113.0</ele>
    <name>Kozienickie Centrum Rekreacji i Sportu</name>
    <desc>caravans=yes; email=rekreacja@kcris.pl; fax=+48 48 614 60
    91; name=Kozienickie Centrum Rekreacji i Sportu; openfire=yes;
    operator=Kozienickie Centrum Rekreacji i Sportu; phone=+48 48
    614 60 91; ref:pfcc=74; stars=2; tents=yes; tourism=camp_site;
    website=http://www.kcris.pl/; id=node/1515575815</desc>
    <link href="http://www.kcris.pl/"></link>
  </wpt>
  <wpt lat="53.5752047" lon="20.6047757">
    <ele>147.0</ele>
    <name>Pod Sosnami</name>
    <desc>name=Pod Sosnami; tourism=camp_site;
    id=node/1569237688</desc>
  </wpt>
  <wpt lat="53.5934651" lon="21.6842128">
    <ele>126.0</ele>
    <name>node/1574387523</name>
    <desc>tourism=camp_site; id=node/1574387523</desc>
  </wpt>
  <wpt lat="53.5945094" lon="21.6842771">
    <ele>119.0</ele>
    <name>node/1574387596</name>
    <desc>tourism=camp_site; id=node/1574387596</desc>
  </wpt>
  <wpt lat="50.36016" lon="18.6509258">
    <ele>264.0</ele>
    <name>44-100 Camping Gliwice Czechowice,</name>
    <desc>name=44-100 Camping Gliwice Czechowice,;
    tourism=camp_site; id=node/1595548531</desc>
  </wpt>
  <wpt lat="50.5474103" lon="18.9663283">
    <ele>281.0</ele>
    <name>node/1646913762</name>
    <desc>tourism=camp_site; id=node/1646913762</desc>
  </wpt>
  <wpt lat="50.5447373" lon="18.9818411">
    <ele>292.0</ele>
    <name>node/1646913801</name>
    <desc>tourism=camp_site; id=node/1646913801</desc>
  </wpt>
  <wpt lat="50.5468717" lon="18.968812">
    <ele>281.0</ele>
    <name>Rozbark</name>
    <desc>caravans=yes; email=gkmrozbark@poczta.onet.pl;
    name=Rozbark; phone=+48 608 731 562, +48 793 820 205;
    power_supply=yes; shower=yes; tents=yes; toilets=yes;
    tourism=camp_site; website=https://www.gkmrozbark.pl/;
    id=node/1646913812</desc>
    <link href="https://www.gkmrozbark.pl/"></link>
  </wpt>
  <wpt lat="53.7361972" lon="22.4040795">
    <ele>117.0</ele>
    <name>wypożyczalnia kajaków Lipińskie Małe 4</name>
    <desc>name=wypożyczalnia kajaków Lipińskie Małe 4;
    tourism=camp_site; id=node/1658618540</desc>
  </wpt>
  <wpt lat="50.3966616" lon="19.0249627">
    <ele>286.0</ele>
    <name>node/1662284587</name>
    <desc>tourism=camp_site; id=node/1662284587</desc>
  </wpt>
  <wpt lat="50.101704" lon="21.4490407">
    <ele>177.0</ele>
    <name>Jałowce</name>
    <desc>name=Jałowce; tourism=camp_site;
    id=node/1674239599</desc>
  </wpt>
  <wpt lat="53.258907" lon="19.7416635">
    <ele>139.0</ele>
    <name>Pole namiotowe Twoje Piaseczno</name>
    <desc>caravans=yes; email=twojepiaseczno@gmail.com; fee=yes;
    name=Pole namiotowe Twoje Piaseczno; phone=+48514811826;
    static_caravans=yes; tents=yes; tourism=camp_site;
    website=https://www.twojepiaseczno.pl/;
    id=node/1699871060</desc>
    <link href="https://www.twojepiaseczno.pl/"></link>
  </wpt>
  <wpt lat="53.5501856" lon="22.9019114">
    <ele>108.0</ele>
    <name>Pole namiotowe BPN</name>
    <desc>caravans=no; description=Shower (10 PLN) and good toilets
    at the bar, but not open 24/7.; drinking_water=no; fee=no;
    internet_access=no; name=Pole namiotowe BPN; power_supply=no;
    shower=yes; tents=yes; toilets=yes; tourism=camp_site;
    wheelchair=yes; id=node/1743299240</desc>
  </wpt>
  <wpt lat="53.0049343" lon="14.9579014">
    <ele>60.0</ele>
    <name>node/1744080112</name>
    <desc>addr:housenumber=2/8; addr:street=Lipowa;
    phone=+48510647389; tourism=camp_site;
    id=node/1744080112</desc>
  </wpt>
  <wpt lat="53.2000961" lon="19.6458031">
    <ele>95.0</ele>
    <name>https://www.facebook.com/podnamiot</name>
    <desc>access=customers; addr:city=Górzno; addr:postcode=87-320;
    addr:street=Wędkarska; capacity=100; caravans=yes;
    drinking_water=yes; email=kontakt@podnamiot.cba.pl; fee=yes;
    leisure=summer_camp; motor_vehicle=yes; openfire=yes;
    operator=Adam Pobłocki; phone=+48508726111;
    reservation=recommended; sanitary_dump_station=no; tents=yes;
    toilets:wheelchair=no; tourism=camp_site;
    tourism_1=caravan_site;
    website=https://www.facebook.com/podnamiot; wheelchair=yes;
    id=node/1746401571</desc>
    <link href="https://www.facebook.com/podnamiot"></link>
  </wpt>
  <wpt lat="53.0054728" lon="14.9154894">
    <ele>66.0</ele>
    <name>node/1747559856</name>
    <desc>tourism=camp_site; id=node/1747559856</desc>
  </wpt>
  <wpt lat="51.5776178" lon="19.2228732">
    <ele>183.0</ele>
    <name>node/1751328603</name>
    <desc>caravans=yes; description=Kemping dla wędkarzy
    korzystających ze stawów rybnych.; internet_access=no;
    tents=yes; tourism=camp_site; id=node/1751328603</desc>
  </wpt>
  <wpt lat="49.4585294" lon="20.2121677">
    <ele>535.0</ele>
    <name>Camping Łęg</name>
    <desc>addr:city=Frydman; addr:postcode=34-435;
    addr:street=Nowotarska; caravans=yes; dog=leashed; fee=yes;
    group_only=no; internet_access=wlan; internet_access:fee=no;
    name=Camping Łęg; openfire=yes; opening_hours=Mo-Su
    09:00-20:00; phone=+48 507 337 019; power_supply=yes;
    reservation=no; sanitary_dump_station=yes; shower=yes;
    tents=yes; toilets=yes; tourism=camp_site;
    website=https://www.frydman.pl/; id=node/1754756170</desc>
    <link href="https://www.frydman.pl/"></link>
  </wpt>
  <wpt lat="52.3238681" lon="18.3084059">
    <ele>88.0</ele>
    <name>bernardynkaport</name>
    <desc>addr:city=Wąsosze; addr:postcode=62-561;
    addr:street=Ślesin k/Konina; email=bernardynka@bernardynka.pl;
    fee=yes; name=bernardynkaport; phone=+48 512 259 946;
    tourism=camp_site; website=http://www.bernardynkaport.pl/;
    id=node/1754769681</desc>
    <link href="http://www.bernardynkaport.pl/"></link>
  </wpt>
  <wpt lat="52.2792487" lon="20.7545043">
    <ele>79.0</ele>
    <name>Biker Pub</name>
    <desc>caravans=yes; name=Biker Pub; opening_hours=Sa-Su;
    tents=yes; tourism=camp_site; website=http://www.bikerpub.pl;
    id=node/1760635250</desc>
    <link href="http://www.bikerpub.pl"></link>
  </wpt>
  <wpt lat="53.9305584" lon="17.8246916">
    <ele>148.0</ele>
    <name>Ośrodek Wczasowy Wiele-Rogalewo</name>
    <desc>addr:city=Karsin; addr:country=PL; addr:housenumber=1;
    addr:place=Rogalewo; addr:postcode=83-441; alt_name=Ośrodek
    Wczasowy Stoczni Północnej; name=Ośrodek Wczasowy
    Wiele-Rogalewo; tourism=camp_site; id=node/1764783483</desc>
  </wpt>
  <wpt lat="53.9197172" lon="17.8407343">
    <ele>144.0</ele>
    <name>eFKa Wiele</name>
    <desc>addr:housenumber=2; addr:place=Piątkowo;
    addr:postcode=83-441; name=eFKa Wiele; tourism=camp_site;
    website=https://efka-wiele.pl/; id=node/1764783484</desc>
    <link href="https://efka-wiele.pl/"></link>
  </wpt>
  <wpt lat="53.313242" lon="19.5663621">
    <ele>78.0</ele>
    <name>Kamping Waldemar karbowski</name>
    <desc>name=Kamping Waldemar karbowski; tourism=camp_site;
    id=node/1774975763</desc>
  </wpt>
  <wpt lat="51.4930876" lon="23.5395148">
    <ele>158.0</ele>
    <name>HONORiS Okuninka</name>
    <desc>fax=+48825648840; name=HONORiS Okuninka;
    phone=+48825648840; tourism=camp_site;
    id=node/1782815299</desc>
  </wpt>
  <wpt lat="50.7736077" lon="23.9676106">
    <ele>179.0</ele>
    <name>Pole namiotowe Czumów</name>
    <desc>name=Pole namiotowe Czumów; phone=+48846981486;
    tourism=camp_site; id=node/1785217235</desc>
  </wpt>
  <wpt lat="51.4945073" lon="23.5196255">
    <ele>164.0</ele>
    <name>Ośrodek Rehabilitacyjno-Wczasowy Astur</name>
    <desc>email=info@astur.com.pl; fax=+48815324468; fee=yes;
    name=Ośrodek Rehabilitacyjno-Wczasowy Astur;
    phone=+48825717037; tourism=camp_site;
    id=node/1789081263</desc>
  </wpt>
  <wpt lat="50.9163327" lon="16.1030286">
    <ele>331.0</ele>
    <name>Camping nr 92</name>
    <desc>addr:city=Bolków; addr:country=PL; addr:housenumber=16;
    addr:postcode=59-420; addr:street=Polna; caravans=yes;
    contact:fax=+48 75 741 34 31; contact:phone=+48 75 741 34 59;
    contact:website=http://www.domkultury-bolkow.pl/; name=Camping
    nr 92; operator=Dom Kultury w Bolkowie; ref:pfcc=92;
    shower=yes; stars=2; tents=yes; toilets=yes; tourism=camp_site;
    id=node/1794041355</desc>
    <link href="http://www.domkultury-bolkow.pl/"></link>
  </wpt>
  <wpt lat="50.7718331" lon="20.3944462">
    <ele>208.0</ele>
    <name>Biwak kajakowy nad Białą Nidą</name>
    <desc>name=Biwak kajakowy nad Białą Nidą; tourism=camp_site;
    id=node/1826049696</desc>
  </wpt>
  <wpt lat="52.3004704" lon="16.6328483">
    <ele>90.0</ele>
    <name>Baza Obozowa Ośrodka ZHP Buk</name>
    <desc>name=Baza Obozowa Ośrodka ZHP Buk; official_name=Baza
    Szkoleniowo-Wypoczynkowa Ośrodka ZHP Buk w Rybojedzku;
    phone=+48 602 865 247; tourism=camp_site;
    website=http://buk.zhp.net.pl/baza-w-rybojedzku;
    id=node/1826405067</desc>
    <link href="http://buk.zhp.net.pl/baza-w-rybojedzku"></link>
  </wpt>
  <wpt lat="54.1183915" lon="16.4752898">
    <ele>87.0</ele>
    <name>node/1835523142</name>
    <desc>tourism=camp_site; id=node/1835523142</desc>
  </wpt>
  <wpt lat="53.9169673" lon="14.2559959">
    <ele>4.0</ele>
    <name>Relax (PFCC nr 44)</name>
    <desc>access=customers; addr:housenumber=1;
    addr:street=Juliusza Słowackiego; capacity=450; caravans=yes;
    check_date=2024-09-01; email=relax@osir.uznam.net.pl; fax=91
    321 39 12; fee=yes; internet_access=wlan;
    internet_access:fee=no; name=Relax (PFCC nr 44);
    opening_hours=24/7; operator=Ośrodek Sportu i Rekreacji
    "Wyspiarz"; payment:cash=yes; payment:mastercard=yes;
    payment:visa=yes; phone=+48 91 321 39 12; picnic_table=yes;
    power_supply=yes; ref:pfcc=44; sanitary_dump_station=yes;
    shower=yes; static_caravans=no; tents=yes; toilets=yes;
    toilets:wheelchair=yes; tourism=camp_site;
    website=https://www.camping-relax.com.pl/; wheelchair=yes;
    id=node/1844971351</desc>
    <link href="https://www.camping-relax.com.pl/"></link>
  </wpt>
  <wpt lat="51.4578762" lon="19.2555427">
    <ele>195.0</ele>
    <name>Stanica ZHP Patyki</name>
    <desc>name=Stanica ZHP Patyki; scout=yes; tourism=camp_site;
    id=node/1845804181</desc>
  </wpt>
  <wpt lat="53.7660229" lon="21.8469726">
    <ele>112.0</ele>
    <name>node/1852968897</name>
    <desc>tourism=camp_site; id=node/1852968897</desc>
  </wpt>
  <wpt lat="53.6600134" lon="21.3837934">
    <ele>127.0</ele>
    <name>pole namiotowe gospodarz</name>
    <desc>name=pole namiotowe gospodarz; tourism=camp_site;
    id=node/1856432587</desc>
  </wpt>
  <wpt lat="53.6375006" lon="21.8177798">
    <ele>112.0</ele>
    <name>node/1857311604</name>
    <desc>tourism=camp_site; id=node/1857311604</desc>
  </wpt>
  <wpt lat="53.6402809" lon="21.8268899">
    <ele>111.0</ele>
    <name>EkoMarina plaża miejska</name>
    <desc>caravans=yes; name=EkoMarina plaża miejska; shower=yes;
    tents=yes; toilets=yes; tourism=camp_site;
    id=node/1857311605</desc>
  </wpt>
  <wpt lat="53.769663" lon="19.955098">
    <ele>112.0</ele>
    <name>node/1863999049</name>
    <desc>tourism=camp_site; id=node/1863999049</desc>
  </wpt>
  <wpt lat="49.7410086" lon="19.576658">
    <ele>356.0</ele>
    <name>node/1871301210</name>
    <desc>source=http://warper.geothings.net/maps/5532;
    tourism=camp_site; id=node/1871301210</desc>
    <link href="http://warper.geothings.net/maps/5532"></link>
  </wpt>
  <wpt lat="53.5863348" lon="18.3048332">
    <ele>71.0</ele>
    <name>node/1879930656</name>
    <desc>tourism=camp_site; id=node/1879930656</desc>
  </wpt>
  <wpt lat="54.0868586" lon="15.7057473">
    <ele>5.0</ele>
    <name>node/1903123151</name>
    <desc>internet_access=no; tourism=camp_site;
    id=node/1903123151</desc>
  </wpt>
  <wpt lat="51.9999591" lon="16.7113348">
    <ele>80.0</ele>
    <name>node/1951233320</name>
    <desc>tourism=camp_site; id=node/1951233320</desc>
  </wpt>
  <wpt lat="53.6416561" lon="21.2991758">
    <ele>138.0</ele>
    <name>node/2057500644</name>
    <desc>tourism=camp_site; id=node/2057500644</desc>
  </wpt>
  <wpt lat="53.6270755" lon="21.357884">
    <ele>123.0</ele>
    <name>node/2057500654</name>
    <desc>tourism=camp_site; id=node/2057500654</desc>
  </wpt>
  <wpt lat="53.7196091" lon="21.5770685">
    <ele>122.0</ele>
    <name>Tarpan II</name>
    <desc>name=Tarpan II; tourism=camp_site;
    id=node/2057500674</desc>
  </wpt>
  <wpt lat="53.7643892" lon="21.6197765">
    <ele>114.0</ele>
    <name>Przeczka</name>
    <desc>name=Przeczka; tourism=camp_site;
    id=node/2057500679</desc>
  </wpt>
  <wpt lat="53.6276863" lon="21.352305">
    <ele>124.0</ele>
    <name>node/2057500687</name>
    <desc>tourism=camp_site; id=node/2057500687</desc>
  </wpt>
  <wpt lat="53.5791343" lon="20.5975992">
    <ele>156.0</ele>
    <name>Baza obozowa Hufca Warmińskiego ZHP</name>
    <desc>name=Baza obozowa Hufca Warmińskiego ZHP;
    tourism=camp_site; id=node/2112802110</desc>
  </wpt>
  <wpt lat="54.0447852" lon="23.2275277">
    <ele>130.0</ele>
    <name>node/2113751198</name>
    <desc>tourism=camp_site; id=node/2113751198</desc>
  </wpt>
  <wpt lat="52.3150042" lon="16.7429835">
    <ele>83.0</ele>
    <name>node/2114571989</name>
    <desc>tourism=camp_site; id=node/2114571989</desc>
  </wpt>
  <wpt lat="54.1019603" lon="17.9431025">
    <ele>155.0</ele>
    <name>node/2178057951</name>
    <desc>tourism=camp_site; id=node/2178057951; ;
    id=way/204539931</desc>
  </wpt>
  <wpt lat="54.32971" lon="18.11217">
    <ele>159.0</ele>
    <name>OW Świt</name>
    <desc>addr:city=Chmielno; addr:housenumber=3;
    addr:postcode=83-333; addr:street=Grodziska; name=OW Świt;
    source:addr=chmielno.e-mapa.net; tourism=camp_site;
    id=node/2199659265</desc>
  </wpt>
  <wpt lat="52.9893927" lon="15.9531667">
    <ele>39.0</ele>
    <name>Miejsce Biwakowania Czarnolesie</name>
    <desc>addr:housenumber=1; addr:place=Czarnolesie;
    addr:postcode=66-520; name=Miejsce Biwakowania Czarnolesie;
    operator=Nadleśnictwo Głusko; source=dobiegniew.e-mapa.net;
    tourism=camp_site;
    website=https://czaswlas.pl/obiekty/czarnolesie-480;
    id=node/2206349433</desc>
    <link href="https://czaswlas.pl/obiekty/czarnolesie-480">
    </link>
  </wpt>
  <wpt lat="50.7694625" lon="20.7635565">
    <ele>247.0</ele>
    <name>node/2253212076</name>
    <desc>tourism=camp_site; id=node/2253212076</desc>
  </wpt>
  <wpt lat="50.4476006" lon="17.1059865">
    <ele>211.0</ele>
    <name>node/2299553295</name>
    <desc>tourism=camp_site; id=node/2299553295</desc>
  </wpt>
  <wpt lat="50.4789812" lon="17.122037">
    <ele>216.0</ele>
    <name>Otmuchów</name>
    <desc>caravans=yes; email=camping.otmuchow@wp.pl;
    name=Otmuchów; operator=PTTK; phone=+48 77 431 52 25, +48 602
    136 986; ref:pfcc=42; shower=yes; stars=2; tents=yes;
    toilets=yes; tourism=camp_site;
    website=https://www.camping-otmuchow.pl/;
    id=node/2302516906</desc>
    <link href="https://www.camping-otmuchow.pl/"></link>
  </wpt>
  <wpt lat="53.7990885" lon="17.4429744">
    <ele>132.0</ele>
    <name>BABILON HOME&amp;FAMILY - domki w Borach
    Tucholskich</name>
    <desc>designation=Campsite; name=BABILON HOME&amp;FAMILY -
    domki w Borach Tucholskich; phone=666111827; tourism=camp_site;
    website=https://babilonhf.pl/; id=node/2329326292</desc>
    <link href="https://babilonhf.pl/"></link>
  </wpt>
  <wpt lat="49.3223217" lon="19.985725">
    <ele>759.0</ele>
    <name>Camping Ustup</name>
    <desc>addr:city=Zakopane; addr:housenumber=5b;
    addr:postcode=34-500; addr:street=Ustup; description:en=Gates
    open for cars 6-22, for pedestrians 6-23;
    email=camping.ustup@gmail.com; name=Camping Ustup;
    name:en=Camping Ustup; name:pl=Camping Ustup;
    opening_hours=24/7; phone=+48 667 477 791;
    source=emuia.gugik.gov.pl; tourism=camp_site;
    website=https://www.camping-ustup.pl/en/;
    id=node/2330674883</desc>
    <link href="https://www.camping-ustup.pl/en/"></link>
  </wpt>
  <wpt lat="54.7154524" lon="18.1686821">
    <ele>42.0</ele>
    <name>node/2353738499</name>
    <desc>tourism=camp_site; id=node/2353738499</desc>
  </wpt>
  <wpt lat="53.8388218" lon="17.6387239">
    <ele>132.0</ele>
    <name>Wasserwanderrastplatz Czernica</name>
    <desc>name=Wasserwanderrastplatz Czernica; tourism=camp_site;
    id=node/2355259577</desc>
  </wpt>
  <wpt lat="51.3184216" lon="21.930258">
    <ele>119.0</ele>
    <name>Camping Spichlerz (Camping Nr. 146)</name>
    <desc>caravans=yes; email=recepcja@spichlerzkazimierz.pl;
    internet_access=wlan; internet_access:fee=no; name=Camping
    Spichlerz (Camping Nr. 146); operator=Hotel Spichlerz;
    phone=+48 81 881 00 36; ref:pfcc=36; stars=2; tents=yes;
    tourism=camp_site; website=http://www.spichlerzkazimierz.pl/;
    id=node/2371301583</desc>
    <link href="http://www.spichlerzkazimierz.pl/"></link>
  </wpt>
  <wpt lat="53.7338316" lon="23.388576">
    <ele>124.0</ele>
    <name>node/2380156185</name>
    <desc>amenity=bbq; tourism=camp_site; id=node/2380156185</desc>
  </wpt>
  <wpt lat="52.5136224" lon="17.1865382">
    <ele>103.0</ele>
    <name>Wronczynek</name>
    <desc>backcountry=yes; name=Wronczynek; openfire=no;
    tourism=camp_site; id=node/2390791350</desc>
  </wpt>
  <wpt lat="52.4923098" lon="17.2465298">
    <ele>91.0</ele>
    <name>node/2390822197</name>
    <desc>backcountry=yes; tourism=camp_site;
    id=node/2390822197</desc>
  </wpt>
  <wpt lat="53.9324282" lon="22.2881412">
    <ele>129.0</ele>
    <name>Korol</name>
    <desc>name=Korol; tourism=camp_site; id=node/2395412322</desc>
  </wpt>
  <wpt lat="50.4749965" lon="17.281518">
    <ele>214.0</ele>
    <name>Camping nr 230</name>
    <desc>caravans=yes; email=nor@nor.nysa.pl; fax=+48 77 4334279;
    name=Camping nr 230; operator=Nyski Ośrodek Sportu i Rekreacji;
    phone=+48 77 433 20 26, +48 77 433 38 81; ref:pfcc=230;
    source=survey; tents=yes; tourism=camp_site;
    website=https://www.nor.nysa.pl/; id=node/2397460843</desc>
    <link href="https://www.nor.nysa.pl/"></link>
  </wpt>
  <wpt lat="54.0022045" lon="14.703459">
    <ele>5.0</ele>
    <name>node/2400899186</name>
    <desc>tourism=camp_site; id=node/2400899186</desc>
  </wpt>
  <wpt lat="54.0020465" lon="14.6838756">
    <ele>6.0</ele>
    <name>Fraszka</name>
    <desc>description:de=Camping Platz, Rollstuhlgerechter Eingang,
    Kinderfreundlich.; name=Fraszka; phone=+48 91 483 70 98;
    tourism=camp_site; website=http://www.campingfraszka.pl/;
    id=node/2400900438</desc>
    <link href="http://www.campingfraszka.pl/"></link>
  </wpt>
  <wpt lat="53.1906982" lon="16.1653809">
    <ele>93.0</ele>
    <name>node/2401721587</name>
    <desc>caravans=yes; source=gps; tents=yes; tourism=camp_site;
    id=node/2401721587</desc>
  </wpt>
  <wpt lat="52.6430392" lon="16.8043734">
    <ele>45.0</ele>
    <name>Pole namiotowe Przystań Kowale</name>
    <desc>addr:city=Oborniki; addr:city:simc=0971181;
    addr:postcode=64-600; addr:street=Szamotulska; capacity=100;
    fee=yes; name=Pole namiotowe Przystań Kowale; operator=Rafał
    (Kowal) i Iwona; phone=+48 503 754 656;
    source=https://www.facebook.com/przystankowale;
    tourism=camp_site; website=https://przystankowale.pl/;
    id=node/2403046532</desc>
    <link href="https://przystankowale.pl/"></link>
  </wpt>
  <wpt lat="53.9810125" lon="14.6330658">
    <ele>5.0</ele>
    <name>node/2404070829</name>
    <desc>tourism=camp_site; id=node/2404070829</desc>
  </wpt>
  <wpt lat="49.7213303" lon="19.6974633">
    <ele>364.0</ele>
    <name>Ośrodek Usług Turystyczno-Wypoczynkowych "Jazy"</name>
    <desc>caravans=yes; email=osrodek.jazy@gmail.com; name=Ośrodek
    Usług Turystyczno-Wypoczynkowych "Jazy"; operator=Witold
    Bucała; phone=+48 33 877 16 05, +48 608 722 394; ref:pfcc=270;
    short_name=Jazy; tents=yes; tourism=camp_site;
    website=http://www.jazy.pl/; id=node/2406419050</desc>
    <link href="http://www.jazy.pl/"></link>
  </wpt>
  <wpt lat="49.4079495" lon="20.303665">
    <ele>508.0</ele>
    <name>
    http://www.niedzica.pl/noclegi/polana-sosny/camping</name>
    <desc>addr:city=Niedzica; caravans=yes;
    email=polana.sosny@niedzica.pl; fax=18 334 77 63;
    fixme=position; phone=+48 18 334 77 60; ref:pfcc=38; stars=2;
    tents=yes; tourism=camp_site;
    website=http://www.niedzica.pl/noclegi/polana-sosny/camping;
    id=node/2406422319</desc>
    <link href="http://www.niedzica.pl/noclegi/polana-sosny/camping">
    </link>
  </wpt>
  <wpt lat="52.501771" lon="18.306857">
    <ele>91.0</ele>
    <name>node/2408037488</name>
    <desc>tourism=camp_site; id=node/2408037488</desc>
  </wpt>
  <wpt lat="54.0318735" lon="23.3514306">
    <ele>133.0</ele>
    <name>Gieret</name>
    <desc>caravans=yes; email=iinfo@gieret.com.pl; fax=48 87 5162
    175; fixme=position; name=Gieret; operator=Ośrodek Wypoczynkowy
    „Gieret"; phone=+48 87 516 21 75, +48 609 917 814, +48 609 917
    813; ref:pfcc=75; tents=yes; tourism=camp_site;
    website=http://www.gieret.com.pl/; id=node/2408236124</desc>
    <link href="http://www.gieret.com.pl/"></link>
  </wpt>
  <wpt lat="50.9619603" lon="20.5408511">
    <ele>271.0</ele>
    <name>Moto-raj (PFCC nr 115)</name>
    <desc>caravans=yes; email=tor-kielce@automobilklub.kielce.pl;
    name=Moto-raj (PFCC nr 115); operator=Automobilklub Kielecki;
    phone=+48 41 303 16 60, +48 41 303 49 49, +48 501 485 331;
    ref:pfcc=115; stars=1; tents=yes; tourism=camp_site;
    website=https://automobilklub.kielce.pl/;
    id=node/2409712140</desc>
    <link href="https://automobilklub.kielce.pl/"></link>
  </wpt>
  <wpt lat="50.5203537" lon="20.5164915">
    <ele>184.0</ele>
    <name>Camping nr 257</name>
    <desc>caravans=yes; name=Camping nr 257; phone=+48 41 357 20
    44; ref:pfcc=257; tents=yes; tourism=camp_site;
    id=node/2409714489</desc>
  </wpt>
  <wpt lat="50.2878745" lon="17.458882">
    <ele>364.0</ele>
    <name>Złota Dolina</name>
    <desc>caravans=yes; email=osrodek@zlotadolina.eu; name=Złota
    Dolina; operator=Złota Dolina Sp. z o.o.; phone=+48 77 887 21
    55, +48 77 439 75 53, +48 794 043 500; ref:pfcc=144;
    shower=yes; stars=2; tents=yes; toilets=yes; tourism=camp_site;
    website=https://zlotadolina.eu/; id=node/2409921274</desc>
    <link href="https://zlotadolina.eu/"></link>
  </wpt>
  <wpt lat="53.6923318" lon="21.5760546">
    <ele>114.0</ele>
    <name>Goły Rożek</name>
    <desc>name=Goły Rożek; tourism=camp_site;
    id=node/2410265488</desc>
  </wpt>
  <wpt lat="53.6204881" lon="21.6966729">
    <ele>134.0</ele>
    <name>node/2410300105</name>
    <desc>tourism=camp_site; id=node/2410300105</desc>
  </wpt>
  <wpt lat="54.0710582" lon="14.9746439">
    <ele>20.0</ele>
    <name>Przy Morzu</name>
    <desc>addr:city=Pustkowo; addr:housenumber=3;
    addr:postcode=72-344; addr:street=Nadmorska; name=Przy Morzu;
    phone=+48 663 742 966; tourism=camp_site;
    website=https://przymorzu.eu/; id=node/2411636755</desc>
    <link href="https://przymorzu.eu/"></link>
  </wpt>
  <wpt lat="52.1549125" lon="17.1506882">
    <ele>71.0</ele>
    <name>Leśniczówka Łękno</name>
    <desc>name=Leśniczówka Łękno; tourism=camp_site;
    id=node/2412096705</desc>
  </wpt>
  <wpt lat="50.4151385" lon="16.5144243">
    <ele>366.0</ele>
    <name>Camping nr 169</name>
    <desc>caravans=yes; contact:email=info@osirpolanica.pl;
    contact:fax=+48 74 868 12 11; contact:mobile=+48 600 240 282;
    contact:phone=+48 74 868 12 11, +48 74 868 12 10;
    contact:website=https://osirpolanica.pl; maxtents=50;
    name=Camping nr 169; operator=OSiR Polanica-Zdrój;
    ref:pfcc=169; shower=yes; stars=2; tents=yes; toilets=yes;
    tourism=camp_site; id=node/2412272559</desc>
    <link href="https://osirpolanica.pl"></link>
  </wpt>
  <wpt lat="50.4090303" lon="16.3816456">
    <ele>554.0</ele>
    <name>Agrocamp</name>
    <desc>caravans=yes; contact:email=biuro@agrocamp.eu;
    contact:phone=+48 697 865 272, +48 661 255 998;
    contact:website=http://www.agrocamp.eu/; name=Agrocamp;
    operator=Beata Szewców; ref:pfcc=227; stars=2; tents=yes;
    tourism=camp_site; id=node/2412279772</desc>
    <link href="http://www.agrocamp.eu/"></link>
  </wpt>
  <wpt lat="53.4146947" lon="19.391772">
    <ele>77.0</ele>
    <name>node/2413764212</name>
    <desc>tourism=camp_site; id=node/2413764212</desc>
  </wpt>
  <wpt lat="51.075781" lon="17.0893541">
    <ele>119.0</ele>
    <name>Camping Wrocław</name>
    <desc>addr:city=Wrocław; addr:housenumber=11a;
    addr:postcode=52-020; addr:street=Starodworska; capacity=25;
    caravans=yes; contact:email=biuro@camping-wroclaw.pl;
    contact:phone=+48 509 846 500;
    contact:website=http://www.camping-wroclaw.pl/; fee=yes;
    internet_access=wlan; internet_access:fee=no; loc_name=Camping
    Wroclaw nr 126; name=Camping Wrocław; opening_hours=Mo-Su
    14:00-21:00; opening_hours:description=otwarty od 01.04 do
    28.10, godziny przyjazdu od 14 do 21; ref:pfcc=126; tents=yes;
    tourism=camp_site; id=node/2413901990</desc>
    <link href="http://www.camping-wroclaw.pl/"></link>
  </wpt>
  <wpt lat="50.832051" lon="16.4881135">
    <ele>236.0</ele>
    <name>Camping nr 231</name>
    <desc>caravans=yes; contact:email=dw@osir.swidnica.pl;
    contact:fax=+48 74 8520553; contact:phone=+48 74 8520553;
    contact:website=http://www.osir.swidnica.pl/; maxtents=40;
    name=Camping nr 231; operator=Świdnicki Ośrodek Sportu i
    Rekreacji; ref:pfcc=231; stars=3; tents=yes; tourism=camp_site;
    id=node/2413908405</desc>
    <link href="http://www.osir.swidnica.pl/"></link>
  </wpt>
  <wpt lat="54.0216581" lon="14.7459552">
    <ele>4.0</ele>
    <name>Korab</name>
    <desc>caravans=yes; email=campingtramp@onet.pl; fax=+48 91 381
    35 69; internet_access=yes; name=Korab; phone=+48 91 381 35 69,
    +48 698 12 26 62; ref:pfcc=93; tents=yes; tourism=camp_site;
    website=http://www.campingkorab.com/; id=node/2414319027</desc>
    <link href="http://www.campingkorab.com/"></link>
  </wpt>
  <wpt lat="54.0701141" lon="16.3071759">
    <ele>61.0</ele>
    <name>Pole Biwakowe Rosnowo</name>
    <desc>name=Pole Biwakowe Rosnowo; tourism=camp_site;
    id=node/2423150626</desc>
  </wpt>
  <wpt lat="54.0035104" lon="17.9968565">
    <ele>133.0</ele>
    <name>Leśne Pole Namiotowe nr 3 - Perła Kaszub</name>
    <desc>internet_access=no; name=Leśne Pole Namiotowe nr 3 -
    Perła Kaszub; smoking=yes; tourism=camp_site;
    id=node/2423263579</desc>
  </wpt>
  <wpt lat="53.0133152" lon="15.6385414">
    <ele>76.0</ele>
    <name>Pole namiotowe Ostromęcko</name>
    <desc>alt_name=Biwakowisko Ostromęcko; name=Pole namiotowe
    Ostromęcko; tourism=camp_site; id=node/2425764815</desc>
  </wpt>
  <wpt lat="53.8133572" lon="20.795064">
    <ele>111.0</ele>
    <name>Ośrodek Wypoczynkowy Camping Tumiany</name>
    <desc>caravans=yes; email=biuro@camping-tumiany.pl;
    name=Ośrodek Wypoczynkowy Camping Tumiany; operator=Camping
    Tumiany s.c.; phone=+48 602 757 481, +48 89 513 96 06;
    ref:pfcc=10; stars=4; tents=yes; tourism=camp_site;
    website=https://www.camping-tumiany.pl/;
    id=node/2431074325</desc>
    <link href="https://www.camping-tumiany.pl/"></link>
  </wpt>
  <wpt lat="53.8760136" lon="21.3167705">
    <ele>142.0</ele>
    <name>Cezar</name>
    <desc>caravans=yes; email=cezar@mazury.info.pl;
    fax=+48897412533; name=Cezar; opening_hours=Mo-Su 07:00-22:00;
    operator=ULMAREX Irena Jasińska; phone=+48 500 002 870, +48 89
    741 25 33; ref:pfcc=3; stars=3; tents=yes; tourism=camp_site;
    website=https://mazury.info.pl/cezar/;
    id=node/2431084859</desc>
    <link href="https://mazury.info.pl/cezar/"></link>
  </wpt>
  <wpt lat="53.2941478" lon="17.0099356">
    <ele>101.0</ele>
    <name>Agroturystyka u Króla</name>
    <desc>access=customers; name=Agroturystyka u Króla; tents=yes;
    tourism=camp_site; website=https://u-krola.pl/;
    id=node/2437053453</desc>
    <link href="https://u-krola.pl/"></link>
  </wpt>
  <wpt lat="54.7603321" lon="17.5562748">
    <ele>0.0</ele>
    <name>Stella</name>
    <desc>internet_access=yes; name=Stella; tourism=camp_site;
    id=node/2438736808</desc>
  </wpt>
  <wpt lat="53.844543" lon="17.6250627">
    <ele>143.0</ele>
    <name>Baza Obozowa "Czernica"</name>
    <desc>name=Baza Obozowa "Czernica"; operator=ZHP Chorągiew
    Gdańska Hufiec Gdynia; tourism=camp_site;
    id=node/2464659983</desc>
  </wpt>
  <wpt lat="53.0307721" lon="15.943492">
    <ele>49.0</ele>
    <name>miejsce biwakowania Kamienna</name>
    <desc>name=miejsce biwakowania Kamienna; operator=Drawieński
    Park Narodowy; tourism=camp_site; id=node/2469640998</desc>
  </wpt>
  <wpt lat="53.0708904" lon="15.9264613">
    <ele>75.0</ele>
    <name>Miejsce biwakowania "Pstrąg"</name>
    <desc>name=Miejsce biwakowania "Pstrąg"; operator=Drawieński
    Park Narodowy; tourism=camp_site; id=node/2469641015</desc>
  </wpt>
  <wpt lat="52.8861424" lon="15.9773448">
    <ele>31.0</ele>
    <name>Przystań "Pod Dębem"</name>
    <desc>name=Przystań "Pod Dębem"; tourism=camp_site;
    id=node/2469717848</desc>
  </wpt>
  <wpt lat="53.2241522" lon="15.9031887">
    <ele>96.0</ele>
    <name>Rybacka Chata</name>
    <desc>name=Rybacka Chata; operator=Nadleśnictwo Drawno;
    tourism=camp_site; id=node/2470257357</desc>
  </wpt>
  <wpt lat="53.1197133" lon="15.8381254">
    <ele>81.0</ele>
    <name>Pole biwakowe</name>
    <desc>name=Pole biwakowe; operator=Nadleśnictwo Drawno;
    tourism=camp_site; id=node/2474837412</desc>
  </wpt>
  <wpt lat="49.6982278" lon="18.9016639">
    <ele>466.0</ele>
    <name>Pole namiotowe R.Gawlas</name>
    <desc>name=Pole namiotowe R.Gawlas; tourism=camp_site;
    id=node/2488185245</desc>
  </wpt>
  <wpt lat="54.2270876" lon="17.6368563">
    <ele>126.0</ele>
    <name>Kalex</name>
    <desc>addr:housenumber=15; addr:place=Jamnowski Młyn;
    addr:postcode=77-124; capacity=25; email=landgut-kalex@web.de;
    fee=yes; name=Kalex; operator=Jolanta &amp; Franz Becker;
    phone=+48 598214637; stars=3; tourism=camp_site;
    website=http://www.kalex.parchowo.pl; id=node/2497176694</desc>
    <link href="http://www.kalex.parchowo.pl"></link>
  </wpt>
  <wpt lat="53.0165636" lon="14.2882464">
    <ele>12.0</ele>
    <name>node/2505306109</name>
    <desc>tourism=camp_site; id=node/2505306109</desc>
  </wpt>
  <wpt lat="52.2586554" lon="22.0905554">
    <ele>136.0</ele>
    <name>Pole biwakowe – Liwiec.com</name>
    <desc>email=info@liwiec.com; internet_access=no; name=Pole
    biwakowe – Liwiec.com; phone=+48 797 807 807; smoking=yes;
    tourism=camp_site; website=https://liwiec.com;
    id=node/2518412678</desc>
    <link href="https://liwiec.com"></link>
  </wpt>
  <wpt lat="53.9262432" lon="23.4356341">
    <ele>119.0</ele>
    <name>Brożane</name>
    <desc>name=Brożane; tourism=camp_site;
    id=node/2585162874</desc>
  </wpt>
  <wpt lat="54.0338558" lon="23.3729892">
    <ele>134.0</ele>
    <name>Campercamp</name>
    <desc>cabins=yes; caravans=yes; motorhome=yes; name=Campercamp;
    phone=+48 517 805 929; shower=yes; tents=yes; toilets=yes;
    tourism=camp_site; website=http://www.campercamp.pl/;
    id=node/2587589062</desc>
    <link href="http://www.campercamp.pl/"></link>
  </wpt>
  <wpt lat="52.2197254" lon="15.3786718">
    <ele>102.0</ele>
    <name>ZHP Zielona Góra</name>
    <desc>name=ZHP Zielona Góra; tourism=camp_site;
    id=node/2610031502</desc>
  </wpt>
  <wpt lat="49.7845344" lon="18.982787">
    <ele>418.0</ele>
    <name>node/2655614730</name>
    <desc>tourism=camp_site; id=node/2655614730</desc>
  </wpt>
  <wpt lat="52.90745" lon="15.2738694">
    <ele>80.0</ele>
    <name>Moczydło</name>
    <desc>name=Moczydło; operator=Lasy Państwowe;
    phone=+48957466526; tourism=camp_site;
    id=node/2687646509</desc>
  </wpt>
  <wpt lat="53.5305191" lon="16.4887457">
    <ele>139.0</ele>
    <name>miejsce biwakowania</name>
    <desc>name=miejsce biwakowania; operator=Leśnictwo Starowice;
    tourism=camp_site; id=node/2756484588</desc>
  </wpt>
  <wpt lat="53.4882364" lon="15.8643406">
    <ele>97.0</ele>
    <name>Camping Jarmak</name>
    <desc>name=Camping Jarmak; tourism=camp_site;
    id=node/2773513398</desc>
  </wpt>
  <wpt lat="53.0995478" lon="15.8372829">
    <ele>77.0</ele>
    <name>Rokiet</name>
    <desc>name=Rokiet; tourism=camp_site; id=node/2823377759</desc>
  </wpt>
  <wpt lat="49.3922433" lon="20.3925607">
    <ele>458.0</ele>
    <name>Camping Laskowscy</name>
    <desc>caravans=yes; drinking_water=yes; internet_access=wlan;
    name=Camping Laskowscy; power_supply=yes; shower=yes;
    tents=yes; toilets=yes; tourism=camp_site;
    id=node/2824859227</desc>
  </wpt>
  <wpt lat="54.608385" lon="18.8019239">
    <ele>2.0</ele>
    <name>Hel</name>
    <desc>addr:city=Hel; addr:city:simc=0934501;
    addr:postcode=84-150; addr:street=Szkolna; caravans=yes;
    description=Teren pełniący role kempingu jedynie w okresie
    wakacji letnich.; opening_hours=Jan-May, Sep-Dec off;
    tents=yes; tourism=camp_site; id=node/2847060152</desc>
  </wpt>
  <wpt lat="53.0915383" lon="15.8371568">
    <ele>83.0</ele>
    <name>Kołki</name>
    <desc>name=Kołki; tourism=camp_site; id=node/2849128988</desc>
  </wpt>
  <wpt lat="50.9395039" lon="16.5109132">
    <ele>189.0</ele>
    <name>node/2853170415</name>
    <desc>tourism=camp_site; id=node/2853170415</desc>
  </wpt>
  <wpt lat="50.9415281" lon="16.5082876">
    <ele>193.0</ele>
    <name>node/2853170423</name>
    <desc>tourism=camp_site; id=node/2853170423</desc>
  </wpt>
  <wpt lat="52.2457813" lon="15.9159066">
    <ele>61.0</ele>
    <name>node/2858510491</name>
    <desc>tourism=camp_site; id=node/2858510491</desc>
  </wpt>
  <wpt lat="53.0765512" lon="15.6976004">
    <ele>86.0</ele>
    <name>node/2858521983</name>
    <desc>tourism=camp_site; id=node/2858521983</desc>
  </wpt>
  <wpt lat="53.0923123" lon="15.6667401">
    <ele>84.0</ele>
    <name>node/2858524440</name>
    <desc>tourism=camp_site; id=node/2858524440</desc>
  </wpt>
  <wpt lat="53.0796219" lon="15.7870652">
    <ele>73.0</ele>
    <name>node/2862548849</name>
    <desc>tourism=camp_site; id=node/2862548849</desc>
  </wpt>
  <wpt lat="50.9052046" lon="15.5361794">
    <ele>468.0</ele>
    <name>Izerska Polanka</name>
    <desc>access=customers; addr:housenumber=73; addr:place=Mała
    Kamienica; addr:postcode=58-512; capacity:caravans=2;
    capacity:persons=12; email=kontakt@jozefowka.eu; name=Izerska
    Polanka; phone=+48 604 567 868;
    source:addr=starakamienica.e-mapa.net; tourism=camp_site;
    website=https://www.izerskapolanka.eu;
    id=node/2896122489</desc>
    <link href="https://www.izerskapolanka.eu"></link>
  </wpt>
  <wpt lat="50.730474" lon="19.4445831">
    <ele>274.0</ele>
    <name>Ośrodek Hufca ZHP Dąbrowa Górnicza</name>
    <desc>addr:city=Janów; addr:housenumber=1;
    addr:street=Przyrowska; name=Ośrodek Hufca ZHP Dąbrowa
    Górnicza; tourism=camp_site; id=node/2925672596</desc>
  </wpt>
  <wpt lat="53.1929253" lon="15.2874846">
    <ele>49.0</ele>
    <name>miejsce biwakowania</name>
    <desc>name=miejsce biwakowania; tourism=camp_site;
    id=node/2938718447</desc>
  </wpt>
  <wpt lat="53.069633" lon="15.7627514">
    <ele>74.0</ele>
    <name>biwak</name>
    <desc>name=biwak; tourism=camp_site; id=node/2940723806</desc>
  </wpt>
  <wpt lat="52.2187202" lon="15.395774">
    <ele>98.0</ele>
    <name>ST Miłośników Niesulic</name>
    <desc>name=ST Miłośników Niesulic; tourism=camp_site;
    id=node/2973013828</desc>
  </wpt>
  <wpt lat="54.1884173" lon="21.7440765">
    <ele>119.0</ele>
    <name>node/2981324083</name>
    <desc>tourism=camp_site; id=node/2981324083</desc>
  </wpt>
  <wpt lat="50.9674863" lon="16.6213069">
    <ele>175.0</ele>
    <name>Pole Namiotowo-Campingowe OSWiR</name>
    <desc>email=recepcja@bosw.pl; mobile=+48 512 432 430; name=Pole
    Namiotowo-Campingowe OSWiR; tourism=camp_site;
    website=https://bosw.pl/oferta/pole-namiotowo-campingowe/;
    id=node/2985799532</desc>
    <link href="https://bosw.pl/oferta/pole-namiotowo-campingowe/">
    </link>
  </wpt>
  <wpt lat="53.0842489" lon="16.0617241">
    <ele>86.0</ele>
    <name>node/2987457219</name>
    <desc>source=survey; tourism=camp_site;
    id=node/2987457219</desc>
  </wpt>
  <wpt lat="52.0622205" lon="20.0832748">
    <ele>106.0</ele>
    <name>Stacja Nieborów</name>
    <desc>name=Stacja Nieborów; tourism=camp_site;
    website=https://www.stacjanieborow.pl;
    id=node/2994445279</desc>
    <link href="https://www.stacjanieborow.pl"></link>
  </wpt>
  <wpt lat="54.7023226" lon="17.2463406">
    <ele>-1.0</ele>
    <name>Rybaczówka</name>
    <desc>email=kontakt@rybaczowka.com; name=Rybaczówka;
    phone=+48693430785; tourism=camp_site;
    website=https://www.rybaczowka.com/; id=node/2996262850</desc>
    <link href="https://www.rybaczowka.com/"></link>
  </wpt>
  <wpt lat="54.7013075" lon="17.2469235">
    <ele>-1.0</ele>
    <name>node/2996262898</name>
    <desc>tourism=camp_site; id=node/2996262898</desc>
  </wpt>
  <wpt lat="53.9800235" lon="19.6224845">
    <ele>81.0</ele>
    <name>node/2997442781</name>
    <desc>tourism=camp_site; id=node/2997442781</desc>
  </wpt>
  <wpt lat="54.5415054" lon="16.5365151">
    <ele>8.0</ele>
    <name>node/2997698551</name>
    <desc>tents=yes; tourism=camp_site; id=node/2997698551</desc>
  </wpt>
  <wpt lat="53.3716103" lon="15.5193152">
    <ele>97.0</ele>
    <name>node/3003565442</name>
    <desc>tourism=camp_site; id=node/3003565442</desc>
  </wpt>
  <wpt lat="53.443478" lon="15.9098582">
    <ele>94.0</ele>
    <name>Murzynka</name>
    <desc>backcountry=yes; fee=yes; fireplace=yes; name=Murzynka;
    phone=+48 694 937 662; toilets=yes; tourism=camp_site;
    website=http://murzynka.turio.pl/; id=node/3003565736</desc>
    <link href="http://murzynka.turio.pl/"></link>
  </wpt>
  <wpt lat="53.9758743" lon="21.8417546">
    <ele>118.0</ele>
    <name>node/3024054015</name>
    <desc>tourism=camp_site; id=node/3024054015</desc>
  </wpt>
  <wpt lat="52.06374" lon="20.0652575">
    <ele>91.0</ele>
    <name>Stacja Nieborów</name>
    <desc>addr:city=Nieborów; addr:postcode=99-416;
    addr:street=Nieborów 231a; email=info@stacjanieborow.pl;
    name=Stacja Nieborów; phone=+48468385068, +48501945960;
    tourism=camp_site; website=https://www.stacjanieborow.pl;
    id=node/3024797715</desc>
    <link href="https://www.stacjanieborow.pl"></link>
  </wpt>
  <wpt lat="54.6662112" lon="17.0583208">
    <ele>4.0</ele>
    <name>node/3027118936</name>
    <desc>tourism=camp_site; id=node/3027118936</desc>
  </wpt>
  <wpt lat="54.6583808" lon="17.0504749">
    <ele>3.0</ele>
    <name>Bryza</name>
    <desc>addr:city=Rowy; addr:country=PL; addr:housenumber=8;
    addr:postcode=76-212; addr:street=Bałtycka;
    email=ekochaniewicz@op.pl; name=Bryza; operator=Emilia
    Kochaniewicz; phone=+48 59 8141948; tents=yes;
    tourism=camp_site; website=https://www.bryzarowy.pl/;
    id=node/3027356835</desc>
    <link href="https://www.bryzarowy.pl/"></link>
  </wpt>
  <wpt lat="50.8343578" lon="15.5106507">
    <ele>706.0</ele>
    <name>Nad Rozkosznym Stawem</name>
    <desc>addr:city=Szklarska Poręba; addr:housename=6A;
    addr:street=Partyzantów; caravans=yes; email=podrozami@op.pl;
    motorhome=yes; name=Nad Rozkosznym Stawem; phone=+48 609 997
    771; shower=yes; tents=yes; toilets=yes; tourism=camp_site;
    website=https://www.nadrozkosznymstawem.pl/;
    id=node/3028731214</desc>
    <link href="https://www.nadrozkosznymstawem.pl/"></link>
  </wpt>
  <wpt lat="50.8263168" lon="15.5218163">
    <ele>639.0</ele>
    <name>Kemping Pod Mostem</name>
    <desc>internet_access=wlan; internet_access:fee=no;
    name=Kemping Pod Mostem; tourism=camp_site;
    website=http://szklarskie.info; id=node/3028744060</desc>
    <link href="http://szklarskie.info"></link>
  </wpt>
  <wpt lat="54.0947024" lon="15.1027008">
    <ele>7.0</ele>
    <name>Baza Obozowa Chorągwi Zachodniopomorskiej</name>
    <desc>addr:city=Pogorzelica; addr:housenumber=3;
    addr:postcode=72-351; addr:street=Rzeczna;
    contact:facebook=bazazhppogorzelica; group_only=yes; name=Baza
    Obozowa Chorągwi Zachodniopomorskiej; operator=Chorągiew
    Zachodniopomorska ZHP; phone=+48 603 133 603; scout=yes;
    source:name=survey; tourism=camp_site;
    website=https://zachpom.zhp.pl/pogorzelica/;
    id=node/3036122069</desc>
    <link href="https://zachpom.zhp.pl/pogorzelica/"></link>
  </wpt>
  <wpt lat="52.1249216" lon="21.5811328">
    <ele>143.0</ele>
    <name>node/3047914712</name>
    <desc>tourism=camp_site; id=node/3047914712</desc>
  </wpt>
  <wpt lat="53.2339098" lon="15.7662">
    <ele>81.0</ele>
    <name>Pole namiotowe Rozlewisko</name>
    <desc>name=Pole namiotowe Rozlewisko; operator=Jan Węgrowski;
    phone=+48 694 123 037; tourism=camp_site;
    website=http://biwakrozlewisko.w.interiowo.pl/;
    id=node/3051014591</desc>
    <link href="http://biwakrozlewisko.w.interiowo.pl/"></link>
  </wpt>
  <wpt lat="53.4411861" lon="18.7537013">
    <ele>33.0</ele>
    <name>Kemping MORIW</name>
    <desc>addr:city=Grudziądz; addr:housenumber=1;
    addr:postcode=86-300; addr:street=Zaleśna; caravans=yes;
    email=rudnik@moriw.grudziadz.pl; name=Kemping MORIW;
    official_name=Camping nr 134***; opening_hours=May-Sep;
    operator=MORIW Grudziądz; phone=+48 72 779 73 83 , +48 665 931
    919; tents=yes; tourism=camp_site;
    website=https://www.moriw.pl/obiekty-rekreacyjne/pole-namiotowo-caravaningowe;
    id=node/3053908255</desc>
    <link href="https://www.moriw.pl/obiekty-rekreacyjne/pole-namiotowo-caravaningowe">
    </link>
  </wpt>
  <wpt lat="54.0322757" lon="23.2056561">
    <ele>133.0</ele>
    <name>node/3055988936</name>
    <desc>tourism=camp_site; id=node/3055988936</desc>
  </wpt>
  <wpt lat="53.3413649" lon="19.4257856">
    <ele>77.0</ele>
    <name>node/3056047222</name>
    <desc>tourism=camp_site; id=node/3056047222</desc>
  </wpt>
  <wpt lat="51.8408618" lon="17.9395542">
    <ele>121.0</ele>
    <name>Gołuchowski Ośrodek Turystyki i Sportu</name>
    <desc>addr:city=Gołuchów; addr:housenumber=1;
    addr:postcode=63-322; addr:street=Leśna; caravans=yes;
    name=Gołuchowski Ośrodek Turystyki i Sportu;
    phone=+48627615063; tents=yes; tourism=camp_site;
    website=https://www.gotis.pl/; id=node/3057050879</desc>
    <link href="https://www.gotis.pl/"></link>
  </wpt>
  <wpt lat="52.388283" lon="18.3250847">
    <ele>88.0</ele>
    <name>Letnik Camping</name>
    <desc>addr:city=Ślesin; addr:housenumber=4;
    addr:place=Szyszyńskie Holendry; addr:postcode=62-561;
    email=letnikslesin@gmail.com; name=Letnik Camping;
    phone=+48607609385; tourism=camp_site;
    website=http://www.letnik-slesin.pl/; id=node/3057063827</desc>
    <link href="http://www.letnik-slesin.pl/"></link>
  </wpt>
  <wpt lat="52.2185299" lon="15.3823752">
    <ele>91.0</ele>
    <name>ZHP Świdnica w Niesulicach</name>
    <desc>name=ZHP Świdnica w Niesulicach; note=Harcerska Baza
    Obozowa Hufca ZHP Świdnica w Niesulicach, 66-213 Skąpe.
    Bezpośrednim organizatorem wypoczynku dla dzieci i młodzieży w
    Niesulicach jest Komenda Hufca Związku Hacerstwa Polskiego w
    Świdnicy.; operator=Harcerska Baza Obozowa Hufca ZHP Świdnica w
    Niesulicach; phone=+48748520179, +48505072404;
    tourism=camp_site; website=http://www.obozy-niesulice.pl;
    id=node/3061412403</desc>
    <link href="http://www.obozy-niesulice.pl"></link>
  </wpt>
  <wpt lat="53.4410931" lon="18.7320211">
    <ele>30.0</ele>
    <name>Dompol</name>
    <desc>name=Dompol; tourism=camp_site; id=node/3090156870</desc>
  </wpt>
  <wpt lat="51.8842743" lon="16.2389669">
    <ele>79.0</ele>
    <name>Stanica Hufca ZHP WSCHOWA w Lginiu</name>
    <desc>name=Stanica Hufca ZHP WSCHOWA w Lginiu;
    tourism=camp_site; id=node/3139373902</desc>
  </wpt>
  <wpt lat="49.3888945" lon="20.8875039">
    <ele>599.0</ele>
    <name>Rumcajsowka</name>
    <desc>addr:housenumber=73a; addr:place=Złockie; cabins=yes;
    caravans=yes; name=Rumcajsowka; phone=+48 18 471 40 38;
    shower=yes; tents=yes; toilets=yes; tourism=camp_site;
    website=http://www.rumcajsowka.pl; id=node/3174931561</desc>
    <link href="http://www.rumcajsowka.pl"></link>
  </wpt>
  <wpt lat="49.5166234" lon="21.1333443">
    <ele>406.0</ele>
    <name>Camp Oaza</name>
    <desc>addr:place=Uście Gorlickie; addr:postcode=38-315;
    name=Camp Oaza; phone=+48 509 946 010; tourism=camp_site;
    website=https://campoaza.pl; id=node/3174931562</desc>
    <link href="https://campoaza.pl"></link>
  </wpt>
  <wpt lat="54.0346566" lon="17.724594">
    <ele>156.0</ele>
    <name>node/3267982734</name>
    <desc>tourism=camp_site; id=node/3267982734</desc>
  </wpt>
  <wpt lat="53.4498948" lon="15.5571795">
    <ele>129.0</ele>
    <name>NA CYPLU Pole Namiotowo Campingowe</name>
    <desc>addr:city=Ińsko; addr:housenumber=1;
    addr:postcode=73-140; addr:street=aleja Spacerowa;
    caravans=yes; email=nacyplu@op.pl; name=NA CYPLU Pole Namiotowo
    Campingowe; phone=+48 504 082 647; tents=yes;
    tourism=camp_site; website=https://nacyplu.wixsite.com;
    id=node/3281306375</desc>
    <link href="https://nacyplu.wixsite.com"></link>
  </wpt>
  <wpt lat="53.8346207" lon="16.7193668">
    <ele>146.0</ele>
    <name>miejsce biwakowe</name>
    <desc>name=miejsce biwakowe; operator=Lasy Państwowe;
    tourism=camp_site; id=node/3283565574</desc>
  </wpt>
  <wpt lat="54.7818349" lon="18.4435644">
    <ele>1.0</ele>
    <name>Małe Morze</name>
    <desc>addr:city=Władysławowo; addr:housenumber=1;
    addr:postcode=84-120; addr:street=Droga Helska; fee=yes;
    motorhome=yes; name=Małe Morze; phone=+48 602 700 300;
    static_caravans=yes; tents=no; tourism=camp_site;
    website=https://malemorze.pl/; id=node/3332537295</desc>
    <link href="https://malemorze.pl/"></link>
  </wpt>
  <wpt lat="50.68046" lon="19.03381">
    <ele>291.0</ele>
    <name>Modrzewiowe Ranczo</name>
    <desc>addr:city:simc=0135237; addr:housenumber=280;
    addr:place=Hutki; addr:postcode=42-274; name=Modrzewiowe
    Ranczo; name:en=Larchs Rancho; note=Camp site. Wild nature,
    quiet place in forest, with huge place for your camping. Mobil
    homes, caravans or just tents owners are welcome!;
    source=Camping; source:addr=konopiska.e-mapa.net;
    tourism=camp_site; website=https://ranczo.eu/;
    id=node/3369993481</desc>
    <link href="https://ranczo.eu/"></link>
  </wpt>
  <wpt lat="53.7710449" lon="16.8238193">
    <ele>143.0</ele>
    <name>Miejsce biwakowe</name>
    <desc>name=Miejsce biwakowe; operator=Leśniczówka Drzonowo;
    tourism=camp_site; id=node/3373643896</desc>
  </wpt>
  <wpt lat="53.736136" lon="22.4064884">
    <ele>116.0</ele>
    <name>Przystanek Lipińskie</name>
    <desc>addr:city=Prostki; addr:housenumber=19;
    addr:place=Lipińskie Małe; addr:postcode=19-335;
    name=Przystanek Lipińskie; phone=+48 608 404 829;
    tourism=camp_site; website=przystaneklipinskie.pl;
    id=node/3376949263</desc>
    <link href="przystaneklipinskie.pl"></link>
  </wpt>
  <wpt lat="51.9318677" lon="15.4552304">
    <ele>144.0</ele>
    <name>node/3377549892</name>
    <desc>tourism=camp_site; id=node/3377549892</desc>
  </wpt>
  <wpt lat="54.8198375" lon="17.9522205">
    <ele>9.0</ele>
    <name>node/3431757157</name>
    <desc>tourism=camp_site; id=node/3431757157</desc>
  </wpt>
  <wpt lat="52.5146473" lon="15.7044403">
    <ele>63.0</ele>
    <name>Pole biwakowe</name>
    <desc>name=Pole biwakowe; tourism=camp_site;
    id=node/3468250614</desc>
  </wpt>
  <wpt lat="53.7245153" lon="22.635383">
    <ele>123.0</ele>
    <name>Ośrodek wypoczynkowy i kamping Łabędź</name>
    <desc>name=Ośrodek wypoczynkowy i kamping Łabędź; phone=+48 86
    272 14 86; tourism=camp_site;
    website=https://labedz-rajgrod.pl/; id=node/3584447709</desc>
    <link href="https://labedz-rajgrod.pl/"></link>
  </wpt>
  <wpt lat="53.4632189" lon="15.8890283">
    <ele>100.0</ele>
    <name>Ostry Róg</name>
    <desc>
    image=http://www.ostryrog.dormire.pl/gal/images/ostryrog/phpeqwfih.jpg;
    name=Ostry Róg; phone=+48 694 937 662; tourism=camp_site;
    website=http://drawskiebiwaki.turio.pl/;
    id=node/3586675371</desc>
    <link href="http://drawskiebiwaki.turio.pl/"></link>
  </wpt>
  <wpt lat="54.5268119" lon="16.6065867">
    <ele>-1.0</ele>
    <name>Miejsce biwakowe</name>
    <desc>name=Miejsce biwakowe; tourism=camp_site;
    id=node/3587732165</desc>
  </wpt>
  <wpt lat="50.9574385" lon="19.8438964">
    <ele>209.0</ele>
    <name>Leśna przystań</name>
    <desc>addr:city=Ciemiętniki; name=Leśna przystań;
    tourism=camp_site; id=node/3590618404</desc>
  </wpt>
  <wpt lat="50.5509389" lon="18.6426147">
    <ele>251.0</ele>
    <name>Ośrodek Harcerski w Borowianach</name>
    <desc>addr:city=Krupski Młyn; addr:postcode=42-693;
    name=Ośrodek Harcerski w Borowianach; operator=Hufiec
    tarnogórski; tourism=camp_site; id=node/3621944155</desc>
  </wpt>
  <wpt lat="50.1355489" lon="22.7631151">
    <ele>182.0</ele>
    <name>Leśna Polana</name>
    <desc>name=Leśna Polana; tourism=camp_site;
    id=node/3635458617</desc>
  </wpt>
  <wpt lat="54.0491907" lon="23.4169626">
    <ele>125.0</ele>
    <name>node/3641030020</name>
    <desc>tourism=camp_site; id=node/3641030020</desc>
  </wpt>
  <wpt lat="53.8671901" lon="23.1312633">
    <ele>123.0</ele>
    <name>Sirocco</name>
    <desc>name=Sirocco; tourism=camp_site;
    id=node/3641034191</desc>
  </wpt>
  <wpt lat="53.8622185" lon="23.0009411">
    <ele>140.0</ele>
    <name>NECKO</name>
    <desc>addr:city=Augustów; addr:housenumber=1;
    addr:street=Sportowa; name=NECKO; phone=+48603378903;
    tourism=camp_site; website=https://necko.pl/;
    id=node/3641038721</desc>
    <link href="https://necko.pl/"></link>
  </wpt>
  <wpt lat="53.9129028" lon="23.392725">
    <ele>116.0</ele>
    <name>node/3647298961</name>
    <desc>internet_access=no; tourism=camp_site; wheelchair=no;
    id=node/3647298961</desc>
  </wpt>
  <wpt lat="52.4877826" lon="15.420884">
    <ele>60.0</ele>
    <name>node/3657572851</name>
    <desc>tourism=camp_site; id=node/3657572851</desc>
  </wpt>
  <wpt lat="54.0469798" lon="16.961401">
    <ele>132.0</ele>
    <name>miejsce biwakowania</name>
    <desc>name=miejsce biwakowania; operator=Lasy Państwowe;
    tourism=camp_site; id=node/3659081143</desc>
  </wpt>
  <wpt lat="50.8062952" lon="15.7677139">
    <ele>441.0</ele>
    <name>Camping Wiśniowa Polana nr 142</name>
    <desc>addr:city:simc=0192086; addr:housenumber=260;
    addr:place=Miłków; addr:postcode=58-535; alt_name=Ośrodek
    Rekreacyjno-Wypoczynkowy Wiśniowa Polana Camping Nr 142;
    capacity=80; caravans=yes; email=wisniowapolana@gmail.com;
    fee=yes; internet_access=wlan; internet_access:fee=no;
    name=Camping Wiśniowa Polana nr 142; name:en=Camping Wisniowa
    Polana Milkow no 142; phone=+48 661 784 852, +48 504 645 926;
    power_supply=yes; tents=yes; tourism=camp_site;
    website=http://www.camping-milkow.karkonosz.pl;
    id=node/3668127730</desc>
    <link href="http://www.camping-milkow.karkonosz.pl"></link>
  </wpt>
  <wpt lat="52.2270324" lon="15.4054492">
    <ele>96.0</ele>
    <name>node/3674793066</name>
    <desc>tourism=camp_site; id=node/3674793066</desc>
  </wpt>
  <wpt lat="52.2284816" lon="15.4199119">
    <ele>86.0</ele>
    <name>pole Borów</name>
    <desc>name=pole Borów; operator=Nadleśnictwo Świebodzin;
    tourism=camp_site; id=node/3674793067</desc>
  </wpt>
  <wpt lat="52.2309216" lon="15.4112972">
    <ele>105.0</ele>
    <name>node/3674793068</name>
    <desc>tourism=camp_site; id=node/3674793068</desc>
  </wpt>
  <wpt lat="52.2343194" lon="15.3986024">
    <ele>78.0</ele>
    <name>pole POM</name>
    <desc>name=pole POM; operator=Nadleśnictwo Świebodzin;
    tourism=camp_site; id=node/3674793069</desc>
  </wpt>
  <wpt lat="52.2375394" lon="15.399375">
    <ele>91.0</ele>
    <name>pole Pod Bukami</name>
    <desc>name=pole Pod Bukami; operator=Nadleśnictwo Świebodzin;
    tourism=camp_site; id=node/3674793070</desc>
  </wpt>
  <wpt lat="52.2417772" lon="15.398346">
    <ele>89.0</ele>
    <name>node/3674793071</name>
    <desc>tourism=camp_site; id=node/3674793071</desc>
  </wpt>
  <wpt lat="52.9680804" lon="15.9117964">
    <ele>42.0</ele>
    <name>Miejsce Biwakowania Mierzęcin oddz.8a</name>
    <desc>name=Miejsce Biwakowania Mierzęcin oddz.8a;
    operator=Nadleśnictwo Smolarz; reservation=required; tents=yes;
    tourism=camp_site;
    website=https://czaswlas.pl/obiekty/?p=4&amp;id_obiekt=8542;
    id=node/3676059700</desc>
    <link href="https://czaswlas.pl/obiekty/?p=4%26id_obiekt=8542">
    </link>
  </wpt>
  <wpt lat="52.9767915" lon="16.0665319">
    <ele>51.0</ele>
    <name>Miejsce Biwakowania Radzyń</name>
    <desc>name=Miejsce Biwakowania Radzyń; operator=Nadleśnictwo
    Krzyż; tourism=camp_site;
    website=https://czaswlas.pl/obiekty/?p=4&amp;id_obiekt=1695;
    id=node/3676059701</desc>
    <link href="https://czaswlas.pl/obiekty/?p=4%26id_obiekt=1695">
    </link>
  </wpt>
  <wpt lat="53.6138334" lon="16.4492552">
    <ele>145.0</ele>
    <name>Miejsce biwakowania Jezioro Pile</name>
    <desc>name=Miejsce biwakowania Jezioro Pile;
    operator=Nadleśnictwo Czaplinek; tourism=camp_site;
    website=https://czaswlas.pl/obiekty/jezioro-pile-119;
    id=node/3676059703</desc>
    <link href="https://czaswlas.pl/obiekty/jezioro-pile-119">
    </link>
  </wpt>
  <wpt lat="53.4897695" lon="16.2669913">
    <ele>145.0</ele>
    <name>Miejsce biwakowania Psie Głowy</name>
    <desc>name=Miejsce biwakowania Psie Głowy;
    operator=Nadleśnictwo Świerczyna; tourism=camp_site;
    id=node/3676059705</desc>
  </wpt>
  <wpt lat="52.4078805" lon="17.9123912">
    <ele>107.0</ele>
    <name>node/3676114563</name>
    <desc>capacity=20; tourism=camp_site; id=node/3676114563</desc>
  </wpt>
  <wpt lat="53.088425" lon="16.066185">
    <ele>81.0</ele>
    <name>U Adama</name>
    <desc>name=U Adama; tourism=camp_site;
    id=node/3677205726</desc>
  </wpt>
  <wpt lat="53.8694937" lon="16.6428647">
    <ele>137.0</ele>
    <name>node/3679512736</name>
    <desc>tourism=camp_site; id=node/3679512736</desc>
  </wpt>
  <wpt lat="50.6105017" lon="19.5026047">
    <ele>336.0</ele>
    <name>Pod Zamkiem</name>
    <desc>name=Pod Zamkiem; tourism=camp_site;
    id=node/3679608420</desc>
  </wpt>
  <wpt lat="53.8664689" lon="23.1312418">
    <ele>125.0</ele>
    <name>PTTK Stanica Swoboda</name>
    <desc>name=PTTK Stanica Swoboda; tourism=camp_site;
    id=node/3689095062</desc>
  </wpt>
  <wpt lat="53.8668587" lon="23.1110217">
    <ele>130.0</ele>
    <name>Świniucha</name>
    <desc>name=Świniucha; name:pl=Świniucha; tourism=camp_site;
    id=node/3689100167</desc>
  </wpt>
  <wpt lat="53.8936072" lon="23.3328348">
    <ele>127.0</ele>
    <name>node/3689127560</name>
    <desc>tourism=camp_site; id=node/3689127560</desc>
  </wpt>
  <wpt lat="53.8958394" lon="23.3294262">
    <ele>142.0</ele>
    <name>node/3689127561</name>
    <desc>tourism=camp_site; id=node/3689127561</desc>
  </wpt>
  <wpt lat="53.8946301" lon="23.3426573">
    <ele>129.0</ele>
    <name>node/3689127562</name>
    <desc>tourism=camp_site; id=node/3689127562</desc>
  </wpt>
  <wpt lat="53.8942666" lon="23.3413484">
    <ele>132.0</ele>
    <name>node/3689127563</name>
    <desc>tourism=camp_site; id=node/3689127563</desc>
  </wpt>
  <wpt lat="53.8928895" lon="23.3574741">
    <ele>133.0</ele>
    <name>node/3689127564</name>
    <desc>tourism=camp_site; id=node/3689127564</desc>
  </wpt>
  <wpt lat="53.8907502" lon="23.3659284">
    <ele>120.0</ele>
    <name>node/3689127565</name>
    <desc>tourism=camp_site; id=node/3689127565</desc>
  </wpt>
  <wpt lat="53.9021113" lon="23.4055015">
    <ele>118.0</ele>
    <name>PTTK Jałowy Róg</name>
    <desc>caravans=no; drinking_water=yes; name=PTTK Jałowy Róg;
    tents=yes; tourism=camp_site; id=node/3689420388</desc>
  </wpt>
  <wpt lat="53.9384147" lon="23.3712371">
    <ele>118.0</ele>
    <name>node/3689550673</name>
    <desc>tourism=camp_site; id=node/3689550673</desc>
  </wpt>
  <wpt lat="53.9715002" lon="23.3044374">
    <ele>124.0</ele>
    <name>node/3689556430</name>
    <desc>tourism=camp_site; id=node/3689556430</desc>
  </wpt>
  <wpt lat="54.0583257" lon="23.1930755">
    <ele>132.0</ele>
    <name>node/3689575987</name>
    <desc>tourism=camp_site; id=node/3689575987</desc>
  </wpt>
  <wpt lat="54.061789" lon="23.1798792">
    <ele>139.0</ele>
    <name>Za szkołą</name>
    <desc>name=Za szkołą; operator=Wigierski Park Narodowy;
    tourism=camp_site; id=node/3689587884</desc>
  </wpt>
  <wpt lat="54.0609558" lon="23.1810339">
    <ele>130.0</ele>
    <name>node/3689587888</name>
    <desc>caravans=no; drinking_water=no; internet_access=no;
    name:signed=no; power_supply=no; shower=no; tents=yes;
    toilets=no; tourism=camp_site; id=node/3689587888</desc>
  </wpt>
  <wpt lat="54.0509424" lon="23.1715786">
    <ele>128.0</ele>
    <name>node/3689587894</name>
    <desc>tourism=camp_site; id=node/3689587894</desc>
  </wpt>
  <wpt lat="54.0550676" lon="23.1755251">
    <ele>132.0</ele>
    <name>node/3689587896</name>
    <desc>tourism=camp_site; id=node/3689587896</desc>
  </wpt>
  <wpt lat="53.9327589" lon="23.3766036">
    <ele>110.0</ele>
    <name>node/3689599628</name>
    <desc>tourism=camp_site; id=node/3689599628</desc>
  </wpt>
  <wpt lat="53.9306311" lon="23.378274">
    <ele>112.0</ele>
    <name>node/3689599629</name>
    <desc>tourism=camp_site; id=node/3689599629</desc>
  </wpt>
  <wpt lat="52.97849" lon="14.210154">
    <ele>7.0</ele>
    <name>node/3698209825</name>
    <desc>tourism=camp_site; id=node/3698209825</desc>
  </wpt>
  <wpt lat="52.2297107" lon="15.410956">
    <ele>103.0</ele>
    <name>node/3709764608</name>
    <desc>tourism=camp_site; id=node/3709764608</desc>
  </wpt>
  <wpt lat="51.9184983" lon="15.9577892">
    <ele>65.0</ele>
    <name>Józefów</name>
    <desc>name=Józefów; tourism=camp_site;
    id=node/3713659978</desc>
  </wpt>
  <wpt lat="51.8541428" lon="15.9875084">
    <ele>73.0</ele>
    <name>node/3713659985</name>
    <desc>tourism=camp_site; id=node/3713659985</desc>
  </wpt>
  <wpt lat="53.2904" lon="16.2569">
    <ele>132.0</ele>
    <name>Stanica Próchnówko</name>
    <desc>alt_name=Stanica ZHP Próchnówko,Stanica harcerska
    Próchnówko; group_only=yes; name=Stanica Próchnówko;
    operator=ZHP Piła; phone=+48 67 351 56 76; scout=yes;
    tents=yes; tourism=camp_site;
    website=http://www.pila.zhp.wlkp.pl/; id=node/3714284787</desc>
    <link href="http://www.pila.zhp.wlkp.pl/"></link>
  </wpt>
  <wpt lat="53.6441093" lon="20.8662026">
    <ele>144.0</ele>
    <name>Pole Biwakowe w Elganowie</name>
    <desc>cabins=yes; caravans=yes; drinking_water=no;
    email=pole@polebiwakowe.pl; fee=yes; internet_access=no;
    mobile=+48 604 066 512; name=Pole Biwakowe w Elganowie;
    openfire=yes; power_supply=no; reservation=no; stars=1;
    tents=yes; tourism=camp_site; website=http://polebiwakowe.pl/;
    id=node/3722016082</desc>
    <link href="http://polebiwakowe.pl/"></link>
  </wpt>
  <wpt lat="53.6901885" lon="17.8382157">
    <ele>100.0</ele>
    <name>node/3722128704</name>
    <desc>tourism=camp_site; id=node/3722128704</desc>
  </wpt>
  <wpt lat="53.8404202" lon="17.1925629">
    <ele>135.0</ele>
    <name>Stanica wodna Folbryk</name>
    <desc>backcountry=yes; name=Stanica wodna Folbryk;
    tourism=camp_site; id=node/3730486888</desc>
  </wpt>
  <wpt lat="53.9820215" lon="17.6016911">
    <ele>150.0</ele>
    <name>node/3744158235</name>
    <desc>tourism=camp_site; id=node/3744158235</desc>
  </wpt>
  <wpt lat="53.8172693" lon="17.4879726">
    <ele>127.0</ele>
    <name>Camping</name>
    <desc>name=Camping; tourism=camp_site;
    id=node/3744677222</desc>
  </wpt>
  <wpt lat="54.0696038" lon="23.0906268">
    <ele>131.0</ele>
    <name>Kapi Kajak</name>
    <desc>name=Kapi Kajak; tourism=camp_site;
    id=node/3757988625</desc>
  </wpt>
  <wpt lat="53.3524285" lon="16.249502">
    <ele>175.0</ele>
    <name>Stanica ZHP</name>
    <desc>name=Stanica ZHP; operator=ZHP Trzcianka;
    tourism=camp_site; id=node/3772195421</desc>
  </wpt>
  <wpt lat="52.942703" lon="15.252229">
    <ele>89.0</ele>
    <name>Miejsce biwakowania</name>
    <desc>name=Miejsce biwakowania; tourism=camp_site;
    id=node/3802089457</desc>
  </wpt>
  <wpt lat="49.4418762" lon="21.1377802">
    <ele>637.0</ele>
    <name>Dom pod Ostrym Wierchem</name>
    <desc>name=Dom pod Ostrym Wierchem; tourism=camp_site;
    id=node/3802784409</desc>
  </wpt>
  <wpt lat="53.1106249" lon="15.7922023">
    <ele>90.0</ele>
    <name>node/3815663651</name>
    <desc>tourism=camp_site; id=node/3815663651</desc>
  </wpt>
  <wpt lat="51.49247" lon="23.5391">
    <ele>160.0</ele>
    <name>HONORiS pole namiotowe</name>
    <desc>addr:city=Okuninka; addr:city:simc=0109777;
    addr:housenumber=226; addr:postcode=22-200;
    addr:street=Turystyczna; name=HONORiS pole namiotowe;
    source:addr=wlodawa.e-mapa.net; tourism=camp_site;
    id=node/3826282681</desc>
  </wpt>
  <wpt lat="53.962634" lon="17.1414976">
    <ele>171.0</ele>
    <name>Stanica wodna Wilkowo</name>
    <desc>internet_access=no; internet_access:fee=no; name=Stanica
    wodna Wilkowo; sanitary_dump_station=no; tourism=camp_site;
    id=node/3839572969</desc>
  </wpt>
  <wpt lat="53.8169004" lon="21.3772837">
    <ele>139.0</ele>
    <name>Cypel Pole Namiotowe</name>
    <desc>caravans=yes; drinking_water=yes; fee=yes; name=Cypel
    Pole Namiotowe; payment:cash=yes; phone=+48 89 742 43 53;
    power_supply=yes; shower=yes; tents=yes; toilets=yes;
    tourism=camp_site; website=https://mazury.info.pl/cypel/;
    id=node/3863309345</desc>
    <link href="https://mazury.info.pl/cypel/"></link>
  </wpt>
  <wpt lat="50.8300484" lon="15.9728175">
    <ele>533.0</ele>
    <name>node/3868516998</name>
    <desc>description=30 zł/namiot lub camper( bez dopłat do
    osób)--2015; fee=yes; note=Brak prądu i wody-(również w barze,
    prąd niebawem będzie ) -04.2014; tourism=camp_site;
    id=node/3868516998</desc>
  </wpt>
  <wpt lat="53.6620107" lon="21.9241869">
    <ele>134.0</ele>
    <name>Energetyk</name>
    <desc>name=Energetyk; tourism=camp_site;
    id=node/4018752111</desc>
  </wpt>
  <wpt lat="53.5284431" lon="22.8432359">
    <ele>106.0</ele>
    <name>Dolina Biebrzy</name>
    <desc>caravans=yes; name=Dolina Biebrzy; power_supply=yes;
    shower=yes; tents=yes; toilets=yes; tourism=camp_site;
    id=node/4033782937</desc>
  </wpt>
  <wpt lat="53.3176833" lon="16.6800344">
    <ele>95.0</ele>
    <name>Pole Biwakowe Wrzosy</name>
    <desc>name=Pole Biwakowe Wrzosy; operator=Lasy Państwowe;
    tents=yes; tourism=camp_site;
    website=https://plytnica.pila.lasy.gov.pl/regulamin-i-cennik-pola-biwakowego-wrzosy-;
    id=node/4085747053</desc>
    <link href="https://plytnica.pila.lasy.gov.pl/regulamin-i-cennik-pola-biwakowego-wrzosy-">
    </link>
  </wpt>
  <wpt lat="49.8612314" lon="19.6714383">
    <ele>376.0</ele>
    <name>node/4115875100</name>
    <desc>tourism=camp_site; id=node/4115875100</desc>
  </wpt>
  <wpt lat="53.3417228" lon="16.5732692">
    <ele>98.0</ele>
    <name>Biwak Biala Kładka</name>
    <desc>addr:city=Szwecja; addr:postcode=78-611;
    addr:street=Nadrzeczna 7; description=Pole biwakowe dla
    kajakarzy; name=Biwak Biala Kładka; tourism=camp_site;
    id=node/4119408839</desc>
  </wpt>
  <wpt lat="52.9271534" lon="15.9736648">
    <ele>35.0</ele>
    <name>Agro Drawa</name>
    <desc>name=Agro Drawa; tourism=camp_site;
    id=node/4119483246</desc>
  </wpt>
  <wpt lat="53.628966" lon="18.1764581">
    <ele>117.0</ele>
    <name>Pole namiotowe Trzebciny</name>
    <desc>name=Pole namiotowe Trzebciny; parking:fee=no;
    tourism=camp_site; id=node/4123673089</desc>
  </wpt>
  <wpt lat="53.9684332" lon="17.7749489">
    <ele>141.0</ele>
    <name>Fsilkowo</name>
    <desc>addr:housenumber=35; addr:place=Raduń;
    addr:postcode=83-425; name=Fsilkowo; phone=+48 58 688 11 42;
    tourism=camp_site; website=https://www.fsilkowo.pl/;
    id=node/4136032152</desc>
    <link href="https://www.fsilkowo.pl/"></link>
  </wpt>
  <wpt lat="54.0990154" lon="15.1160644">
    <ele>10.0</ele>
    <name>Star-Camp</name>
    <desc>addr:housenumber=5; addr:street=Leonida Teligi;
    email=starpredki@starsat.com.pl; name=Star-Camp;
    phone=+48914853580; tourism=camp_site;
    website=https://www.star-camp.com.pl/;
    id=node/4197697090</desc>
    <link href="https://www.star-camp.com.pl/"></link>
  </wpt>
  <wpt lat="53.7448885" lon="21.2532541">
    <ele>131.0</ele>
    <name>Camping "Wardak" POLE NAMIOTOWE</name>
    <desc>internet_access=no; name=Camping "Wardak" POLE NAMIOTOWE;
    sanitary_dump_station=no; tourism=camp_site;
    id=node/4217933275</desc>
  </wpt>
  <wpt lat="50.1048502" lon="21.6411951">
    <ele>220.0</ele>
    <name>Kompleks wypoczynkowy Żwirki</name>
    <desc>addr:city=Borek Mały; addr:country=PL;
    addr:postcode=39-120; name=Kompleks wypoczynkowy Żwirki;
    tourism=camp_site; id=node/4229756356</desc>
  </wpt>
  <wpt lat="49.4984033" lon="21.9037333">
    <ele>401.0</ele>
    <name>miejscówka grill</name>
    <desc>name=miejscówka grill; tourism=camp_site;
    id=node/4247872699</desc>
  </wpt>
  <wpt lat="53.5414618" lon="20.4202871">
    <ele>150.0</ele>
    <name>U Szwagra</name>
    <desc>caravans=yes; name=U Szwagra; tents=yes;
    tourism=camp_site; id=node/4249000895</desc>
  </wpt>
  <wpt lat="54.2895643" lon="20.1093731">
    <ele>100.0</ele>
    <name>kiersiny</name>
    <desc>name=kiersiny; tourism=camp_site;
    id=node/4265867789</desc>
  </wpt>
  <wpt lat="53.8714737" lon="21.175642">
    <ele>133.0</ele>
    <name>node/4277059791</name>
    <desc>tourism=camp_site; id=node/4277059791</desc>
  </wpt>
  <wpt lat="54.1050886" lon="17.2217495">
    <ele>204.0</ele>
    <name>node/4280383570</name>
    <desc>tourism=camp_site; id=node/4280383570</desc>
  </wpt>
  <wpt lat="53.2599901" lon="16.7819672">
    <ele>68.0</ele>
    <name>Krępsko</name>
    <desc>name=Krępsko; tourism=camp_site;
    id=node/4282314685</desc>
  </wpt>
  <wpt lat="52.4897018" lon="15.7693289">
    <ele>61.0</ele>
    <name>Relaks Pszczew</name>
    <desc>addr:housenumber=11; addr:street=Szarzecka; name=Relaks
    Pszczew; phone=+48 95 7491039; tourism=camp_site;
    website=www.cwrelaks.pl; id=node/4282385497</desc>
    <link href="www.cwrelaks.pl"></link>
  </wpt>
  <wpt lat="54.8192857" lon="18.3143496">
    <ele>23.0</ele>
    <name>Pod Lasem</name>
    <desc>name=Pod Lasem; tourism=camp_site;
    id=node/4283687216</desc>
  </wpt>
  <wpt lat="53.6512932" lon="19.570521">
    <ele>119.0</ele>
    <name>Pole namiotowe Binduga</name>
    <desc>camp_site=basic; name=Pole namiotowe Binduga;
    tourism=camp_site; id=node/4297015596</desc>
  </wpt>
  <wpt lat="51.8730763" lon="16.2317811">
    <ele>83.0</ele>
    <name>Stanica Hufca ZHP TRZEBNICA w Lginiu</name>
    <desc>name=Stanica Hufca ZHP TRZEBNICA w Lginiu;
    tourism=camp_site; id=node/4297559384</desc>
  </wpt>
  <wpt lat="50.8176633" lon="15.5396902">
    <ele>640.0</ele>
    <name>Baza Harcerska ZHP Czerwonak</name>
    <desc>addr:city=Szklarska Poręba; addr:country=PL;
    addr:housenumber=45A; addr:postcode=58-580; addr:street=Jana
    Kasprowicza; name=Baza Harcerska ZHP Czerwonak; operator=ZHP
    Hufiec Czerwonak; tourism=camp_site; id=node/4302091752</desc>
  </wpt>
  <wpt lat="54.5576349" lon="18.5518878">
    <ele>30.0</ele>
    <name>node/4305025414</name>
    <desc>tourism=camp_site; id=node/4305025414</desc>
  </wpt>
  <wpt lat="50.0466863" lon="19.9030248">
    <ele>202.0</ele>
    <name>Adam</name>
    <desc>addr:housenumber=24; addr:street=Księcia Józefa;
    name=Adam; phone=+48124299375; tourism=camp_site;
    website=http://campingadam.pl; id=node/4311556893</desc>
    <link href="http://campingadam.pl"></link>
  </wpt>
  <wpt lat="54.0537208" lon="23.1970871">
    <ele>131.0</ele>
    <name>Pod Jesionem</name>
    <desc>fee=yes; name=Pod Jesionem; tourism=camp_site;
    id=node/4322766416</desc>
  </wpt>
  <wpt lat="53.9619238" lon="23.3108157">
    <ele>117.0</ele>
    <name>Biwak</name>
    <desc>description=10zł / osoba; name=Biwak; tourism=camp_site;
    id=node/4323774446</desc>
  </wpt>
  <wpt lat="53.791768" lon="20.0272346">
    <ele>110.0</ele>
    <name>Jan-mar Markuszewo</name>
    <desc>cabins=yes; caravans=yes;
    contact:facebook=https://www.facebook.com/janmar.markuszewo.7;
    fee=yes; name=Jan-mar Markuszewo; opening_hours=May 1 - Sep 30;
    phone=+48 605 744 777, +48 728 217 978, +48 509 366 668;
    shower=yes; tents=yes; toilets=yes; tourism=camp_site;
    id=node/4326903412</desc>
  </wpt>
  <wpt lat="53.6931659" lon="15.5507971">
    <ele>51.0</ele>
    <name>node/4327228692</name>
    <desc>tourism=camp_site; id=node/4327228692</desc>
  </wpt>
  <wpt lat="51.0324871" lon="15.2927136">
    <ele>281.0</ele>
    <name>Plaża Czocha</name>
    <desc>addr:housenumber=198/7; addr:place=Sucha;
    addr:postcode=59-820; caravans=yes; drinking_water=yes;
    name=Plaża Czocha; phone=+48 601 918 797; power_supply=yes;
    sanitary_dump_station=yes; shower=yes; tents=yes; toilets=yes;
    tourism=camp_site; website=https://plaza-czocha.pl/;
    id=node/4335472153</desc>
    <link href="https://plaza-czocha.pl/"></link>
  </wpt>
  <wpt lat="54.2438464" lon="15.8854354">
    <ele>5.0</ele>
    <name>Alfa Klif</name>
    <desc>addr:city=Gąski; addr:housenumber=3;
    addr:postcode=76-034; addr:street=Marynarzy; name=Alfa Klif;
    operator=Adam Gryczman; tourism=camp_site;
    website=https://www.alfa-klif.pl/; id=node/4338119048</desc>
    <link href="https://www.alfa-klif.pl/"></link>
  </wpt>
  <wpt lat="53.956926" lon="21.738414">
    <ele>115.0</ele>
    <name>Bila</name>
    <desc>addr:housenumber=54; addr:place=Bogaczewo;
    addr:postcode=11-500; description=pole namiotowe - przystań;
    name=Bila; name:en=Camping; opening_hours=24/7;
    phone=+48669484211; tourism=camp_site;
    website=https://bila.mazury.com/; id=node/4344436290</desc>
    <link href="https://bila.mazury.com/"></link>
  </wpt>
  <wpt lat="53.8648871" lon="21.5174127">
    <ele>124.0</ele>
    <name>Kokoszka</name>
    <desc>caravans=yes; name=Kokoszka; tents=yes;
    tourism=camp_site; id=node/4350036498</desc>
  </wpt>
  <wpt lat="54.2398944" lon="21.5722642">
    <ele>88.0</ele>
    <name>Rydzowka</name>
    <desc>name=Rydzowka; tourism=camp_site;
    id=node/4355543391</desc>
  </wpt>
  <wpt lat="51.0286048" lon="15.3185575">
    <ele>286.0</ele>
    <name>Gościniec u Buckich - kemping</name>
    <desc>caravans=yes; email=camping@pnet.pl; name=Gościniec u
    Buckich - kemping; phone=+48 609 170 115;
    sanitary_dump_station=no; tents=yes; tourism=camp_site;
    website=http://www.gosciniecubuckich.pl;
    id=node/4356511258</desc>
    <link href="http://www.gosciniecubuckich.pl"></link>
  </wpt>
  <wpt lat="53.6791737" lon="21.2513179">
    <ele>142.0</ele>
    <name>PTTK</name>
    <desc>cuisine=regional; name=PTTK; tourism=camp_site;
    id=node/4357094891</desc>
  </wpt>
  <wpt lat="53.6871785" lon="21.495645">
    <ele>128.0</ele>
    <name>Pole namiotowe Słoneczny Biwak</name>
    <desc>name=Pole namiotowe Słoneczny Biwak; tourism=camp_site;
    id=node/4359755491</desc>
  </wpt>
  <wpt lat="53.6147988" lon="18.272109">
    <ele>72.0</ele>
    <name>Promyk</name>
    <desc>name=Promyk; tourism=camp_site; id=node/4360381602</desc>
  </wpt>
  <wpt lat="53.8048424" lon="17.3518583">
    <ele>122.0</ele>
    <name>node/4364353899</name>
    <desc>tourism=camp_site; id=node/4364353899</desc>
  </wpt>
  <wpt lat="53.8051666" lon="17.3501234">
    <ele>123.0</ele>
    <name>node/4364353900</name>
    <desc>tourism=camp_site; id=node/4364353900</desc>
  </wpt>
  <wpt lat="53.8140092" lon="17.4101377">
    <ele>120.0</ele>
    <name>node/4364353901</name>
    <desc>tourism=camp_site; id=node/4364353901</desc>
  </wpt>
  <wpt lat="53.216043" lon="15.7616135">
    <ele>77.0</ele>
    <name>Stanica Wodna PTTK</name>
    <desc>addr:city=Drawno; addr:country=PL; addr:housenumber=9;
    addr:postcode=73-220; addr:street=Kolejowa; alt_name=Kemping
    numer 22; email=stanica@igra.pl; internet_access=wlan;
    internet_access:fee=no; name=Stanica Wodna PTTK; phone=+48 95
    768 21 55, +48 603 630 836; tourism=camp_site;
    website=http://www.stanica.ikona.pl/; id=node/4366566972</desc>
    <link href="http://www.stanica.ikona.pl/"></link>
  </wpt>
  <wpt lat="51.0322894" lon="19.8752919">
    <ele>208.0</ele>
    <name>Stanica harcerska w Białym Brzegu</name>
    <desc>name=Stanica harcerska w Białym Brzegu; name:pl=Stanica
    harcerska w Białym Brzegu; operator=ZHP Radomsko; phone=+48 44
    683 24 66,+48 501 899 353; scout=yes; tourism=camp_site;
    website=http://www.bialybrzeg.pl/; id=node/4377702502</desc>
    <link href="http://www.bialybrzeg.pl/"></link>
  </wpt>
  <wpt lat="49.3015956" lon="19.9903412">
    <ele>847.0</ele>
    <name>Campingplatz Willa Zakopane</name>
    <desc>addr:housenumber=17a; addr:street=Mrowce;
    name=Campingplatz Willa Zakopane; tourism=camp_site;
    id=node/4383672605</desc>
  </wpt>
  <wpt lat="52.860917" lon="19.3357759">
    <ele>108.0</ele>
    <name>"Jawor" Domki letniskowe</name>
    <desc>addr:street=Dworska Góra; name="Jawor" Domki letniskowe;
    tourism=camp_site; id=node/4392327997</desc>
  </wpt>
  <wpt lat="54.0240833" lon="23.4107051">
    <ele>141.0</ele>
    <name>Pole biwakowe nad Jeziorem Zelwa</name>
    <desc>fee=yes; name=Pole biwakowe nad Jeziorem Zelwa;
    tourism=camp_site; id=node/4396579096</desc>
  </wpt>
  <wpt lat="54.0280389" lon="23.4118873">
    <ele>129.0</ele>
    <name>Pole biwakowe nad Jeziorem Pomorze</name>
    <desc>fee=yes; name=Pole biwakowe nad Jeziorem Pomorze;
    tourism=camp_site; id=node/4396579097</desc>
  </wpt>
  <wpt lat="49.2254167" lon="22.6188522">
    <ele>535.0</ele>
    <name>U Prezesa</name>
    <desc>name=U Prezesa; tourism=camp_site;
    website=https://www.koniewbieszczadach.pl/;
    id=node/4396703900</desc>
    <link href="https://www.koniewbieszczadach.pl/"></link>
  </wpt>
  <wpt lat="53.8384667" lon="17.4939278">
    <ele>129.0</ele>
    <name>Kokoszka</name>
    <desc>name=Kokoszka; tourism=camp_site;
    id=node/4408025669</desc>
  </wpt>
  <wpt lat="53.8322616" lon="17.4942302">
    <ele>120.0</ele>
    <name>node/4408027594</name>
    <desc>tourism=camp_site; id=node/4408027594</desc>
  </wpt>
  <wpt lat="54.1649409" lon="16.056149">
    <ele>28.0</ele>
    <name>node/4425354891</name>
    <desc>tourism=camp_site; id=node/4425354891</desc>
  </wpt>
  <wpt lat="54.1683939" lon="16.0501466">
    <ele>42.0</ele>
    <name>node/4425363391</name>
    <desc>tourism=camp_site; id=node/4425363391</desc>
  </wpt>
  <wpt lat="52.4392451" lon="14.8470902">
    <ele>59.0</ele>
    <name>Lasy Państwowe</name>
    <desc>operator=Lasy Państwowe; tourism=camp_site;
    id=node/4522468648</desc>
  </wpt>
  <wpt lat="54.0179421" lon="17.2979949">
    <ele>165.0</ele>
    <name>node/4594765147</name>
    <desc>tourism=camp_site; id=node/4594765147</desc>
  </wpt>
  <wpt lat="51.0014887" lon="21.037724">
    <ele>253.0</ele>
    <name>Bob</name>
    <desc>name=Bob; name:pl=Bob; tourism=camp_site;
    id=node/4643762592</desc>
  </wpt>
  <wpt lat="51.0139726" lon="21.0008807">
    <ele>292.0</ele>
    <name>node/4651277889</name>
    <desc>tourism=camp_site; id=node/4651277889</desc>
  </wpt>
  <wpt lat="54.071012" lon="16.2132848">
    <ele>58.0</ele>
    <name>Eko-Land</name>
    <desc>fee=yes; name=Eko-Land; tourism=camp_site;
    website=https://web.facebook.com/pg/Osrodek.Hajka/about/;
    id=node/4675259156</desc>
    <link href="https://web.facebook.com/pg/Osrodek.Hajka/about/">
    </link>
  </wpt>
  <wpt lat="52.2951128" lon="15.0600083">
    <ele>97.0</ele>
    <name>node/4710906106</name>
    <desc>tourism=camp_site; id=node/4710906106</desc>
  </wpt>
  <wpt lat="51.4888676" lon="23.1671436">
    <ele>169.0</ele>
    <name>pole namiotowe PPN</name>
    <desc>name=pole namiotowe PPN; operator=Poleski Park Narodowy;
    tourism=camp_site; id=node/4768188938</desc>
  </wpt>
  <wpt lat="54.3204814" lon="22.3374051">
    <ele>157.0</ele>
    <name>Camping nr 220</name>
    <desc>addr:housenumber=12; addr:postcode=19-500;
    addr:street=Stadionowa; caravans=yes; name=Camping nr 220;
    tents=no; tourism=camp_site; id=node/4790100822</desc>
  </wpt>
  <wpt lat="52.497031" lon="18.1305171">
    <ele>105.0</ele>
    <name>Mrówkoraj</name>
    <desc>name=Mrówkoraj; tourism=camp_site;
    id=node/4795340697</desc>
  </wpt>
  <wpt lat="54.1936733" lon="21.6725343">
    <ele>117.0</ele>
    <name>node/4799344623</name>
    <desc>tourism=camp_site; id=node/4799344623</desc>
  </wpt>
  <wpt lat="53.8870112" lon="23.0424236">
    <ele>131.0</ele>
    <name>node/4806232354</name>
    <desc>tourism=camp_site; id=node/4806232354</desc>
  </wpt>
  <wpt lat="53.874814" lon="22.9855394">
    <ele>129.0</ele>
    <name>node/4806261738</name>
    <desc>tourism=camp_site; id=node/4806261738</desc>
  </wpt>