<?xml version="1.0" encoding="utf-8"?>
<gpx xmlns="http://www.topografix.com/GPX/1/1"
xmlns:xsi="http://www.w3.org/2001/XMLSchema-instance"
xsi:schemaLocation="http://www.topografix.com/GPX/1/1 http://www.topografix.com/GPX/1/1/gpx.xsd"
version="1.1" creator="togpx">
  <metadata>
    <copyright>
      <license>"osm3s": { "timestamp_osm_base":
      "2025-07-07T17:47:45Z", "timestamp_areas_base":
      "2025-07-07T15:06:26Z", "copyright": "The data included in
      this document is from www.openstreetmap.org. The data is made
      available under ODbL." } // SRTM: { Elevation data missing in
      OSM was added by the NASA Shuttle Radar Topography Mission as
      public release version, if available there. } // { Check for
      latest version of this file on:
      https://github.com/GpxFeed/campgrounds }</license>
    </copyright>
  </metadata>
  <wpt lat="41.5385285" lon="-8.4219647">
    <ele>184.0</ele>
    <name>Parque de Campismo e Caravanismo Municipal de
    Braga</name>
    <desc>access=customers; addr:city=Braga;
    addr:postcode=4715-214; capacity:caravans=40;
    capacity:tents=60; caravans=yes; check_date=2023-11-27;
    contact:phone=+351 253 273 355;
    contact:website=https://www.cm-braga.pt/pt/1201/conhecer/alojamento/parque-de-campismo-e-pousada-da-juventude/item/item-1-859;
    email=parque.campismo@cm-braga.pt; fee=yes; name=Parque de
    Campismo e Caravanismo Municipal de Braga;
    opening_hours=08:00-23:00; short_name=Parque de Campismo de
    Braga; tents=yes; tourism=camp_site; id=node/26860417</desc>
    <link href="https://www.cm-braga.pt/pt/1201/conhecer/alojamento/parque-de-campismo-e-pousada-da-juventude/item/item-1-859">
    </link>
  </wpt>
  <wpt lat="39.9150028" lon="-8.7830513">
    <ele>133.0</ele>
    <name>node/26860423</name>
    <desc>tourism=camp_site; id=node/26860423</desc>
  </wpt>
  <wpt lat="40.8225609" lon="-7.6958261">
    <ele>705.0</ele>
    <name>Quinta Chave Grande</name>
    <desc>name=Quinta Chave Grande; tourism=camp_site;
    id=node/26860429</desc>
  </wpt>
  <wpt lat="38.1839011" lon="-8.1035355">
    <ele>107.0</ele>
    <name>Markadia</name>
    <desc>caravans=yes; drinking_water=yes; name=Markadia;
    power_supply=yes; sanitary_dump_station=yes; shower=yes;
    tents=yes; toilets=yes; tourism=camp_site;
    id=node/26860446</desc>
  </wpt>
  <wpt lat="41.7012588" lon="-7.5004997">
    <ele>399.0</ele>
    <name>Parque de Campismo Quinta do Rebentão</name>
    <desc>addr:city=Vila Nova de Veiga; addr:housenumber=109;
    addr:postcode=5400-756; addr:street=Rua do Freixo;
    caravans=yes; drinking_water=yes; name=Parque de Campismo
    Quinta do Rebentão; phone=+351 276 322 733; power_supply=yes;
    sanitary_dump_station=yes; shower=yes; tents=yes; toilets=yes;
    tourism=camp_site; id=node/26860469</desc>
  </wpt>
  <wpt lat="39.0511779" lon="-27.9786901">
    <ele>51.0</ele>
    <name>Pinheiro</name>
    <desc>name=Pinheiro; opening_hours=24/7; tourism=camp_site;
    id=node/872757513</desc>
  </wpt>
  <wpt lat="41.84578" lon="-6.8604629">
    <ele>796.0</ele>
    <name>Cepo Verde</name>
    <desc>caravans=yes; drinking_water=yes; name=Cepo Verde;
    power_supply=yes; shower=yes; tents=yes; toilets=yes;
    tourism=camp_site;
    website=https://www.montesinho.com/en/cepoverde-campismo;
    id=node/1091528750</desc>
    <link href="https://www.montesinho.com/en/cepoverde-campismo">
    </link>
  </wpt>
  <wpt lat="37.8401499" lon="-25.1523707">
    <ele>92.0</ele>
    <name>Parque de Campismo da Feira</name>
    <desc>addr:city=Nordeste; addr:postcode=9630-179;
    addr:street=Caminho da Feira;
    contact:facebook=https://www.facebook.com/profile.php?id=100004110192996;
    email=fairgroundcamping@outlook.com; internet_access=no;
    name=Parque de Campismo da Feira; opening_hours=24/7;
    phone=+351 910660175, +351 296 488353, +351 925094028;
    source=http://cmnordeste.pt; tourism=camp_site; wheelchair=yes;
    id=node/1377242854</desc>
    <link href="http://cmnordeste.pt"></link>
  </wpt>
  <wpt lat="40.4116479" lon="-7.4689337">
    <ele>582.0</ele>
    <name>Relva de Reboleira</name>
    <desc>name=Relva de Reboleira; stars=2; tourism=camp_site;
    id=node/1413299495</desc>
  </wpt>
  <wpt lat="38.5350174" lon="-28.3373731">
    <ele>18.0</ele>
    <name>Parque de Campismo da Furna</name>
    <desc>addr:city=Santo António; addr:street=Rua da Furna;
    name=Parque de Campismo da Furna; phone=+351 292 642 884;
    tourism=camp_site; id=node/1427596791</desc>
  </wpt>
  <wpt lat="41.4574924" lon="-7.9476106">
    <ele>219.0</ele>
    <name>node/1550951060</name>
    <desc>tourism=camp_site; id=node/1550951060</desc>
  </wpt>
  <wpt lat="41.4835695" lon="-8.3418813">
    <ele>118.0</ele>
    <name>node/1592006938</name>
    <desc>tourism=camp_site; id=node/1592006938</desc>
  </wpt>
  <wpt lat="41.9375704" lon="-6.6169962">
    <ele>731.0</ele>
    <name>Parque de Campismo</name>
    <desc>name=Parque de Campismo; tourism=camp_site;
    id=node/1683281013</desc>
  </wpt>
  <wpt lat="32.703536" lon="-16.8886848">
    <ele>1222.0</ele>
    <name>Montado do Pereiro</name>
    <desc>name=Montado do Pereiro; note=License needed before use,
    see https://simplifica.madeira.gov.pt/services/8-25-101 and
    https://www.madeiracamping.com/permission-gen/;
    reservation=required; tents=yes; toilets=yes;
    tourism=camp_site; type=multipolygon;
    website=https://www.madeiracamping.com/montado-do-pereiro/;
    id=relation/15752533; ; caravans=yes; id=node/1705366111</desc>
    <link href="https://www.madeiracamping.com/montado-do-pereiro/">
    </link>
  </wpt>
  <wpt lat="32.7020167" lon="-16.8860648">
    <ele>1195.0</ele>
    <name>node/1705366113</name>
    <desc>caravans=yes; tents=yes; tourism=camp_site;
    id=node/1705366113</desc>
  </wpt>
  <wpt lat="41.7400597" lon="-8.1581147">
    <ele>479.0</ele>
    <name>Parque de Campismo do Vidoeiro</name>
    <desc>check_date=2025-05-22;
    email=geral@geresvidoeirocamping.pt; name=Parque de Campismo do
    Vidoeiro; phone=+351 963 414 770; tourism=camp_site;
    website=https://geresvidoeirocamping.pt/;
    id=node/1712552844</desc>
    <link href="https://geresvidoeirocamping.pt/"></link>
  </wpt>
  <wpt lat="40.1318388" lon="-7.5118801">
    <ele>555.0</ele>
    <name>Parque de Campismo do Fundão</name>
    <desc>email=campismofundao@gmail.com; name=Parque de Campismo
    do Fundão; phone=+351 965 230 695; tourism=camp_site;
    website=http://campismofundao.com; id=node/1722665452</desc>
    <link href="http://campismofundao.com"></link>
  </wpt>
  <wpt lat="39.4009719" lon="-7.4864973">
    <ele>424.0</ele>
    <name>Quinta do Pomarinho</name>
    <desc>name=Quinta do Pomarinho; tourism=camp_site;
    website=https://www.pomarinho.com/; id=node/1761479037</desc>
    <link href="https://www.pomarinho.com/"></link>
  </wpt>
  <wpt lat="32.7427996" lon="-16.685876">
    <ele>2.0</ele>
    <name>Ponta de São Lourenço</name>
    <desc>caravans=no; drinking_water=no; name=Ponta de São
    Lourenço; note=License needed before use, see
    https://simplifica.madeira.gov.pt/services/8-25-101 and
    https://www.madeiracamping.com/permission-gen/;
    power_supply=no; reservation=required; shower=no; tents=yes;
    toilets=no; tourism=camp_site; wheelchair=no;
    id=node/1767751562</desc>
  </wpt>
  <wpt lat="32.7725323" lon="-17.0625078">
    <ele>1281.0</ele>
    <name>Caramujo</name>
    <desc>backcountry=yes; caravans=no; internet_access=no;
    name=Caramujo; note=License needed before use, see
    https://simplifica.madeira.gov.pt/services/8-25-101 and
    https://www.madeiracamping.com/permission-gen/;
    reservation=required; shower=no; tents=yes; toilets=no;
    tourism=camp_site;
    website=https://www.madeiracamping.com/caramujo/;
    id=node/1786830128</desc>
    <link href="https://www.madeiracamping.com/caramujo/"></link>
  </wpt>
  <wpt lat="32.722748" lon="-16.8868124">
    <ele>1244.0</ele>
    <name>Chão das Feiteiras</name>
    <desc>backcountry=yes; caravans=no; internet_access=no;
    name=Chão das Feiteiras; note=License needed before use, see
    https://simplifica.madeira.gov.pt/services/8-25-101 and
    https://www.madeiracamping.com/permission-gen/;
    reservation=required; shower=no; tents=yes; toilets=no;
    tourism=camp_site;
    website=https://www.madeiracamping.com/feiteiras/;
    id=node/1786830129</desc>
    <link href="https://www.madeiracamping.com/feiteiras/"></link>
  </wpt>
  <wpt lat="32.7598869" lon="-17.0164681">
    <ele>823.0</ele>
    <name>Chão dos Louros</name>
    <desc>backcountry=yes; caravans=no; internet_access=no;
    name=Chão dos Louros; note=License needed before use, see
    https://simplifica.madeira.gov.pt/services/8-25-101 and
    https://www.madeiracamping.com/permission-gen/;
    reservation=required; shower=no; tents=yes; toilets=no;
    tourism=camp_site;
    website=https://www.madeiracamping.com/chao-dos-louros/;
    id=node/1786830130</desc>
    <link href="https://www.madeiracamping.com/chao-dos-louros/">
    </link>
  </wpt>
  <wpt lat="32.7694915" lon="-17.0770221">
    <ele>1560.0</ele>
    <name>Estanquinhos</name>
    <desc>backcountry=yes; caravans=no; internet_access=no;
    name=Estanquinhos; note=License needed before use, see
    https://simplifica.madeira.gov.pt/services/8-25-101 and
    https://www.madeiracamping.com/permission-gen/;
    reservation=required; shower=no; tents=yes; toilets=no;
    tourism=camp_site;
    website=https://www.madeiracamping.com/estanquinhos/;
    id=node/1786830131</desc>
    <link href="https://www.madeiracamping.com/estanquinhos/">
    </link>
  </wpt>
  <wpt lat="32.8095616" lon="-17.1411193">
    <ele>1148.0</ele>
    <name>Fanal</name>
    <desc>backcountry=yes; caravans=no; drinking_water=yes;
    internet_access=no; name=Fanal; note=License needed before use,
    see https://simplifica.madeira.gov.pt/services/8-25-101 and
    https://www.madeiracamping.com/permission-gen/;
    reservation=required; shower=no; tents=yes; toilets=no;
    tourism=camp_site;
    website=https://www.madeiracamping.com/fanal/;
    id=node/1786830132</desc>
    <link href="https://www.madeiracamping.com/fanal/"></link>
  </wpt>
  <wpt lat="32.7776956" lon="-16.8966208">
    <ele>901.0</ele>
    <name>Pico das Pedras</name>
    <desc>backcountry=yes; caravans=no; internet_access=no;
    name=Pico das Pedras; note=License needed before use, see
    https://simplifica.madeira.gov.pt/services/8-25-101 and
    https://www.madeiracamping.com/permission-gen/;
    reservation=required; shower=no; tents=yes; toilets=no;
    tourism=camp_site;
    website=https://www.madeiracamping.com/pico-das-pedras/;
    id=node/1786830139</desc>
    <link href="https://www.madeiracamping.com/pico-das-pedras/">
    </link>
  </wpt>
  <wpt lat="32.7119459" lon="-16.8910073">
    <ele>1402.0</ele>
    <name>Poiso</name>
    <desc>backcountry=yes; caravans=no; internet_access=no;
    name=Poiso; note=License needed before use, see
    https://simplifica.madeira.gov.pt/services/8-25-101 and
    https://www.madeiracamping.com/permission-gen/;
    reservation=required; shower=no; tents=yes; toilets=no;
    tourism=camp_site;
    website=https://www.madeiracamping.com/poiso/;
    id=node/1786830155</desc>
    <link href="https://www.madeiracamping.com/poiso/"></link>
  </wpt>
  <wpt lat="32.7614356" lon="-17.1340773">
    <ele>1084.0</ele>
    <name>Rabaçal</name>
    <desc>backcountry=yes; caravans=no; internet_access=no;
    name=Rabaçal; note=License needed before use, see
    https://simplifica.madeira.gov.pt/services/8-25-101 and
    https://www.madeiracamping.com/permission-gen/;
    reservation=required; shower=no; tents=yes; toilets=no;
    tourism=camp_site;
    website=https://www.madeiracamping.com/rabacal/;
    id=node/1786830157</desc>
    <link href="https://www.madeiracamping.com/rabacal/"></link>
  </wpt>
  <wpt lat="38.4683932" lon="-9.1758891">
    <ele>66.0</ele>
    <name>Parque de Campismo dos Fetáis</name>
    <desc>name=Parque de Campismo dos Fetáis; tourism=camp_site;
    id=node/1787462917</desc>
  </wpt>
  <wpt lat="38.7998323" lon="-27.2540957">
    <ele>15.0</ele>
    <name>Parque de Campismo dos Biscoitos</name>
    <desc>internet_access=wlan; name=Parque de Campismo dos
    Biscoitos; name:pt=Parque de Campismo dos Biscoitos;
    opening_hours=24/7; tourism=camp_site;
    id=node/1803798140</desc>
  </wpt>
  <wpt lat="38.4943474" lon="-9.0045514">
    <ele>86.0</ele>
    <name>Parque de Campismo Picheleiros</name>
    <desc>addr:city=Picheleiros; name=Parque de Campismo
    Picheleiros; operator=Club Campismo do Barreiro;
    tourism=camp_site; id=node/1895480182</desc>
  </wpt>
  <wpt lat="39.4824332" lon="-8.0030129">
    <ele>54.0</ele>
    <name>Parque de campismo de Ortiga</name>
    <desc>name=Parque de campismo de Ortiga; tourism=camp_site;
    id=node/1899585091; ; id=way/1294821456</desc>
  </wpt>
  <wpt lat="41.7082959" lon="-8.0414773">
    <ele>353.0</ele>
    <name>Gerês Greenpark</name>
    <desc>cabins=yes; caravans=no; motorhome=yes; name=Gerês
    Greenpark; phone=+ 351 917 007 831; shower=yes; tents=yes;
    toilets=yes; tourism=camp_site;
    website=https://geresgreenpark.pt/; id=node/2060816997</desc>
    <link href="https://geresgreenpark.pt/"></link>
  </wpt>
  <wpt lat="40.5939776" lon="-8.2627469">
    <ele>494.0</ele>
    <name>Fonte Frade</name>
    <desc>name=Fonte Frade; tourism=camp_site;
    id=node/2158040907</desc>
  </wpt>
  <wpt lat="40.2363931" lon="-7.487623">
    <ele>410.0</ele>
    <name>Parque Carlos Pinto</name>
    <desc>name=Parque Carlos Pinto; tourism=camp_site;
    id=node/2235500912</desc>
  </wpt>
  <wpt lat="40.8073112" lon="-8.313054">
    <ele>532.0</ele>
    <name>node/2302751662</name>
    <desc>tourism=camp_site; id=node/2302751662</desc>
  </wpt>
  <wpt lat="38.9540373" lon="-8.1074964">
    <ele>74.0</ele>
    <name>Parque de Campismo do Gameiro</name>
    <desc>name=Parque de Campismo do Gameiro; tourism=camp_site;
    id=node/2326433081</desc>
  </wpt>
  <wpt lat="39.5486034" lon="-8.307731">
    <ele>144.0</ele>
    <name>Parque de Alverangel</name>
    <desc>caravans=yes; name=Parque de Alverangel; phone=+351 249
    371 750; shower=yes; tents=yes; toilets=yes; tourism=camp_site;
    id=node/2438128276</desc>
  </wpt>
  <wpt lat="41.0563527" lon="-8.400727">
    <ele>16.0</ele>
    <name>Moreira</name>
    <desc>name=Moreira; tourism=camp_site;
    id=node/2614919798</desc>
  </wpt>
  <wpt lat="40.3286211" lon="-7.5889198">
    <ele>1437.0</ele>
    <name>Campismo do Covão da Ametade</name>
    <desc>description=Official campsite not in use anymore. No
    services, no toilets, generally poor condition of buildings.
    Free camping allowed. Entry of vehicles not possible. In summer
    river is dry.; disused=yes; name=Campismo do Covão da Ametade;
    tourism=camp_site; id=node/2689923861</desc>
  </wpt>
  <wpt lat="40.3071455" lon="-7.8718566">
    <ele>237.0</ele>
    <name>Parque de Campismo Ponte das Três Entradas</name>
    <desc>addr:city=Ponte das Três Entradas; addr:housenumber=1;
    addr:postcode=3400-591; addr:street=Rua Principal; name=Parque
    de Campismo Ponte das Três Entradas; phone=+351-238670050;
    tourism=camp_site; website=https://www.pontedas3entradas.com/;
    id=node/2835516156</desc>
    <link href="https://www.pontedas3entradas.com/"></link>
  </wpt>
  <wpt lat="38.6252087" lon="-27.9268099">
    <ele>5.0</ele>
    <name>node/2844912326</name>
    <desc>fee=no; tourism=camp_site; id=node/2844912326</desc>
  </wpt>
  <wpt lat="38.3932423" lon="-28.2504118">
    <ele>9.0</ele>
    <name>Parque de Campismo das Lajes</name>
    <desc>addr:city=Lajes do Pico; addr:postcode=9930;
    addr:street=Rua Padre Manuel José Lopes; capacity=150;
    caravans=no; drinking_water=yes; name=Parque de Campismo das
    Lajes; operator=Municipal; phone=+351 292 679 700; shower=hot;
    tents=yes; toilets=yes; tourism=camp_site;
    website=https://www.cm-lajesdopico.pt/equipamentos/parque-municipal-de-campismo;
    id=node/2876916868</desc>
    <link href="https://www.cm-lajesdopico.pt/equipamentos/parque-municipal-de-campismo">
    </link>
  </wpt>
  <wpt lat="39.1794045" lon="-9.0487318">
    <ele>520.0</ele>
    <name>Parque de Campismo Rural da Serra do Montejunto</name>
    <desc>name=Parque de Campismo Rural da Serra do Montejunto;
    tourism=camp_site; id=node/2973390715</desc>
  </wpt>
  <wpt lat="36.9504532" lon="-25.092082">
    <ele>27.0</ele>
    <name>node/3086354287</name>
    <desc>tourism=camp_site; id=node/3086354287</desc>
  </wpt>
  <wpt lat="32.7189216" lon="-16.8672624">
    <ele>1301.0</ele>
    <name>Terreiros</name>
    <desc>name=Terreiros; tourism=camp_site;
    id=node/3255379041</desc>
  </wpt>
  <wpt lat="39.6513832" lon="-7.6728109">
    <ele>103.0</ele>
    <name>node/3370741302</name>
    <desc>tourism=camp_site; id=node/3370741302</desc>
  </wpt>
  <wpt lat="39.4136202" lon="-7.3756382">
    <ele>505.0</ele>
    <name>Quinta do Maral</name>
    <desc>addr:city=Cabeçudos; addr:country=PT; addr:housenumber=4;
    addr:place=Maral; addr:postcode=7330-205 Santo António das
    Areias; email=info@quintadomaral.com; int_name=Quinta do Maral
    Naturist Camping; name=Quinta do Maral;
    name:nl=Naturistencamping Quinta do Maral; nudism=yes;
    official_name=Quinta do Maral - Espaço de Férias Naturista;
    phone=+351 963 46 21 69; tourism=camp_site;
    website=https://www.quintadomaral.com/;
    website:en=http://www.quintadomaral.com/en/;
    website:nl=http://www.quintadomaral.com/nl;
    id=node/3847134185</desc>
    <link href="https://www.quintadomaral.com/"></link>
  </wpt>
  <wpt lat="39.0875138" lon="-27.9999181">
    <ele>3.0</ele>
    <name>node/3929262400</name>
    <desc>tourism=camp_site; id=node/3929262400</desc>
  </wpt>
  <wpt lat="41.4686092" lon="-7.9512426">
    <ele>266.0</ele>
    <name>Casa Fontelheira</name>
    <desc>addr:city=Vila Nune; addr:housenumber=58;
    addr:postcode=4860-453; addr:street=Lugar do Fontelheiro;
    email=info@casafontelheira.com; internet_access=wlan; name=Casa
    Fontelheira; opening_hours=24/7; operator=Elisa Wolters;
    phone=+351 253 768 390; tourism=camp_site;
    website=https://www.casafontelheira.com/;
    id=node/4230159616</desc>
    <link href="https://www.casafontelheira.com/"></link>
  </wpt>
  <wpt lat="40.1966989" lon="-8.674578">
    <ele>94.0</ele>
    <name>Zoo Europaradise</name>
    <desc>name=Zoo Europaradise; tourism=camp_site;
    id=node/4233320489</desc>
  </wpt>
  <wpt lat="41.1466572" lon="-7.4016839">
    <ele>609.0</ele>
    <name>São João Campsite</name>
    <desc>name=São João Campsite; tourism=camp_site;
    id=node/4289314891</desc>
  </wpt>
  <wpt lat="40.377532" lon="-7.9674564">
    <ele>278.0</ele>
    <name>Quinta da Cerca</name>
    <desc>description=Swimming pool, dinner, breakfast, bar;
    name=Quinta da Cerca; tourism=camp_site;
    id=node/4354032855</desc>
  </wpt>
  <wpt lat="39.4534348" lon="-31.2650909">
    <ele>10.0</ele>
    <name>Zona de Campismo</name>
    <desc>fee=no; internet_access=wlan; name=Zona de Campismo;
    name:de=Campingplatz; name:pt=Zona de campismo;
    tourism=camp_site; id=node/4361327191</desc>
  </wpt>
  <wpt lat="39.3794617" lon="-31.1741195">
    <ele>85.0</ele>
    <name>Parque de Campismo</name>
    <desc>fee=no; name=Parque de Campismo; name:de=Campingplatz;
    name:pt=Zona de campismo; shower=yes; tourism=camp_site;
    id=node/4361716890</desc>
  </wpt>
  <wpt lat="40.7001008" lon="-8.0780404">
    <ele>544.0</ele>
    <name>Camping Rural Naturrosa</name>
    <desc>name=Camping Rural Naturrosa; tourism=camp_site;
    id=node/4374212183</desc>
  </wpt>
  <wpt lat="38.7802669" lon="-27.3596713">
    <ele>94.0</ele>
    <name>Zona de Campismo</name>
    <desc>caravans=no; name=Zona de Campismo; name:de=Campingplatz;
    name:pt=Zona de Campismo; tents=yes; tourism=camp_site;
    id=node/4375917989</desc>
  </wpt>
  <wpt lat="37.3168907" lon="-8.2128186">
    <ele>179.0</ele>
    <name>Algarve Safari Lodge</name>
    <desc>name=Algarve Safari Lodge; name:nl=Algarve Safari Lodge;
    name:pt=Algarve Safari Lodge; tourism=camp_site;
    id=node/4391394689</desc>
  </wpt>
  <wpt lat="39.4746785" lon="-31.1491522">
    <ele>40.0</ele>
    <name>node/4400729310</name>
    <desc>fee=no; tourism=camp_site; id=node/4400729310</desc>
  </wpt>
  <wpt lat="38.5836421" lon="-27.9317756">
    <ele>13.0</ele>
    <name>node/4404851091</name>
    <desc>tourism=camp_site; id=node/4404851091</desc>
  </wpt>
  <wpt lat="38.1168627" lon="-7.6357347">
    <ele>116.0</ele>
    <name>Alqueva Camping Car Park</name>
    <desc>description=Quinta Ecológica; name=Alqueva Camping Car
    Park; phone=+351934987954; tourism=camp_site;
    website=www.dosdin.pt/camping; id=node/4414918227</desc>
    <link href="www.dosdin.pt/camping"></link>
  </wpt>
  <wpt lat="40.3410441" lon="-8.5782536">
    <ele>76.0</ele>
    <name>Campo Escola Fonte Dom Pedro</name>
    <desc>name=Campo Escola Fonte Dom Pedro; name:pt=Campo Escola
    Fonte Dom Pedro; tourism=camp_site; id=node/4486289090</desc>
  </wpt>
  <wpt lat="41.5152775" lon="-8.0748116">
    <ele>506.0</ele>
    <name>Piovacora</name>
    <desc>name=Piovacora; tourism=camp_site;
    id=node/4521376205</desc>
  </wpt>
  <wpt lat="32.7328068" lon="-16.8879343">
    <ele>925.0</ele>
    <name>Ribeiro Frio</name>
    <desc>access=permit; backcountry=yes; caravans=no; ele=925;
    fee=no; internet_access=no; name=Ribeiro Frio; note=License
    needed before use, see
    https://simplifica.madeira.gov.pt/services/8-25-101 and
    https://www.madeiracamping.com/permission-gen/; operator=IFCN;
    reservation=required; shower=no; static_caravans=no; tents=yes;
    toilets=no; tourism=camp_site; wheelchair=no;
    id=node/4758360656</desc>
  </wpt>
  <wpt lat="39.4547729" lon="-8.6736636">
    <ele>76.0</ele>
    <name>Marsipel</name>
    <desc>check_date=2025-05-10; description=Doesn’t exist 05/25;
    name=Marsipel; tourism=camp_site; id=node/4785649721</desc>
  </wpt>
  <wpt lat="39.3017684" lon="-8.6703865">
    <ele>69.0</ele>
    <name>Ebenézer - Rua Gil Conceição Escapa</name>
    <desc>addr:housenumber=5; addr:postcode=2000; addr:street=Rua
    Gil Conceição Escapa; name=Ebenézer - Rua Gil Conceição Escapa;
    phone=+351 914101912; tourism=camp_site;
    id=node/4908969521</desc>
  </wpt>
  <wpt lat="41.667818" lon="-8.6796757">
    <ele>322.0</ele>
    <name>NaturViana</name>
    <desc>addr:street=Rua do Divino Salvador; description=Naturist
    campsite; name=NaturViana; nudism=yes; phone=+49 15251691991;
    tourism=camp_site; website=https://www.naturviana.com/;
    id=node/4939783816</desc>
    <link href="https://www.naturviana.com/"></link>
  </wpt>
  <wpt lat="41.7006747" lon="-8.1282624">
    <ele>511.0</ele>
    <name>Ermida Gerês Camping</name>
    <desc>name=Ermida Gerês Camping; name:pt=Campismo Ermida Gerês;
    tourism=camp_site; id=node/5014837521</desc>
  </wpt>
  <wpt lat="42.1060113" lon="-8.2810782">
    <ele>69.0</ele>
    <name>Parque de Campismo Termas do Peso</name>
    <desc>addr:city=Melgaço; addr:country=PT; addr:place=Paderne;
    addr:postcode=4960-207; addr:street=EN202;
    email=info@campingmelgaco.com; internet_access=wlan;
    internet_access:fee=no; name=Parque de Campismo Termas do Peso;
    phone=+351 251 418 218; tourism=camp_site;
    id=node/5052438190</desc>
  </wpt>
  <wpt lat="42.0356108" lon="-8.1958193">
    <ele>880.0</ele>
    <name>Parque de Campismo Lamas de Mouro</name>
    <desc>addr:city=Lamas de Mouro; addr:postcode=4960-170;
    alt_name=Parque de Campismo de Lamas de Mouro; name=Parque de
    Campismo Lamas de Mouro; name:pt=Parque de Campismo Lamas de
    Mouro; phone=+351 251 466 041; tourism=camp_site;
    id=node/5091093931</desc>
  </wpt>
  <wpt lat="37.1035605" lon="-8.070855">
    <ele>48.0</ele>
    <name>CamperServ</name>
    <desc>name=CamperServ; phone=+351916581141; tourism=camp_site;
    website=https://camperserv.com/; id=node/5213239922</desc>
    <link href="https://camperserv.com/"></link>
  </wpt>
  <wpt lat="37.4210014" lon="-8.6844174">
    <ele>257.0</ele>
    <name>Casas Novas de Palmeira</name>
    <desc>name=Casas Novas de Palmeira; tourism=camp_site;
    website=https://www.casasnovasdapalmeira.com;
    id=node/5232285621</desc>
    <link href="https://www.casasnovasdapalmeira.com"></link>
  </wpt>
  <wpt lat="38.4954796" lon="-9.0050411">
    <ele>100.0</ele>
    <name>CEADA - Centro Escutista da Arrábida</name>
    <desc>name=CEADA - Centro Escutista da Arrábida; name:en=CEADA
    - Scout Center Arrabida; tourism=camp_site;
    website=http://ceada.cne-escutismo.pt;
    id=node/5270628421</desc>
    <link href="http://ceada.cne-escutismo.pt"></link>
  </wpt>
  <wpt lat="39.1532563" lon="-7.6769917">
    <ele>205.0</ele>
    <name>node/5360954422</name>
    <desc>tourism=camp_site; id=node/5360954422</desc>
  </wpt>
  <wpt lat="38.8132738" lon="-9.4601957">
    <ele>15.0</ele>
    <name>quinta 7 nomes</name>
    <desc>addr:housenumber=107 b; addr:postcode=2705-287;
    addr:street=Avenida do Atlântico; amenity=restaurant;
    cuisine=coffee_shop,local; diet:vegan=yes;
    diet:vegetarian=only; email=quinta7nomes@gmail.com;
    internet_access=wlan; name=quinta 7 nomes; opening_hours=We-Su
    10:00-19:00; phone=+351 21 929 1656; tourism=camp_site;
    website=http://www.quinta7nomes.com/cafe.html;
    id=node/5541296721</desc>
    <link href="http://www.quinta7nomes.com/cafe.html"></link>
  </wpt>
  <wpt lat="41.345247" lon="-8.6316495">
    <ele>35.0</ele>
    <name>Parque de Campismo do Ave</name>
    <desc>name=Parque de Campismo do Ave; phone=+351 252 657 732;
    tourism=camp_site; website=https://www.campingave.net/;
    id=node/5566492443</desc>
    <link href="https://www.campingave.net/"></link>
  </wpt>
  <wpt lat="40.7973723" lon="-8.1293786">
    <ele>518.0</ele>
    <name>Bioparque do Pisão - Carvalhais</name>
    <desc>alt_name=Parque Florestal do Pisão; name=Bioparque do
    Pisão - Carvalhais; tourism=camp_site;
    id=node/5641449515</desc>
  </wpt>
  <wpt lat="39.0774883" lon="-8.7609178">
    <ele>5.0</ele>
    <name>node/5705806821</name>
    <desc>tourism=camp_site; id=node/5705806821</desc>
  </wpt>
  <wpt lat="41.1692643" lon="-7.9038034">
    <ele>467.0</ele>
    <name>Camping Quinta das Corujeiras</name>
    <desc>addr:housenumber=230; addr:postcode=4640-231;
    addr:street=Rua das Corujeiras; name=Camping Quinta das
    Corujeiras; tourism=camp_site; id=node/5752577708</desc>
  </wpt>
  <wpt lat="41.0698223" lon="-8.4122781">
    <ele>17.0</ele>
    <name>Praia da Lomba</name>
    <desc>name=Praia da Lomba; tourism=camp_site;
    id=node/6352822385</desc>
  </wpt>
  <wpt lat="39.3094094" lon="-7.4202338">
    <ele>675.0</ele>
    <name>Portalegre</name>
    <desc>addr:city=Portalegre; addr:country=PT; note=observed,
    sign posted; tourism=camp_site; id=node/6427459702</desc>
  </wpt>
  <wpt lat="37.185257" lon="-8.4455502">
    <ele>6.0</ele>
    <name>node/6549668885</name>
    <desc>name:es=Autocaravanas; tourism=camp_site;
    id=node/6549668885</desc>
  </wpt>
  <wpt lat="37.798708" lon="-25.5903773">
    <ele>116.0</ele>
    <name>Parque de Campismo Quinta das Laranjeiras</name>
    <desc>name=Parque de Campismo Quinta das Laranjeiras;
    tourism=camp_site; id=node/6570547685</desc>
  </wpt>
  <wpt lat="37.2139751" lon="-8.3992113">
    <ele>32.0</ele>
    <name>Conde lodge</name>
    <desc>name=Conde lodge; tourism=camp_site;
    id=node/6622560788</desc>
  </wpt>
  <wpt lat="38.5328568" lon="-28.6760867">
    <ele>78.0</ele>
    <name>Azul Singular</name>
    <desc>addr:city=Feteira; addr:country=PT; addr:housenumber=61;
    addr:street=Rua da Granja; camp_site=deluxe;
    email=info@azulsingular.pt; fee=yes; name=Azul Singular;
    opening_hours=24/7; phone=+351 960 069 890; tourism=camp_site;
    website=https://azulsingular.pt; id=node/6647013995</desc>
    <link href="https://azulsingular.pt"></link>
  </wpt>
  <wpt lat="39.7683457" lon="-7.9823613">
    <ele>325.0</ele>
    <name>node/6649657422</name>
    <desc>tourism=camp_site; id=node/6649657422</desc>
  </wpt>
  <wpt lat="39.7688054" lon="-7.983807">
    <ele>325.0</ele>
    <name>node/6649672624</name>
    <desc>tourism=camp_site; id=node/6649672624</desc>
  </wpt>
  <wpt lat="38.6892869" lon="-28.217438">
    <ele>57.0</ele>
    <name>Parque de Campismo de Velas</name>
    <desc>email=gdvelense@sapo.pt; internet_access=wlan;
    name=Parque de Campismo de Velas; phone=+351 295 412 721;
    tourism=camp_site;
    website=https://parque-de-campismo-das-velas.webnode.pt/;
    id=node/6690892188</desc>
    <link href="https://parque-de-campismo-das-velas.webnode.pt/">
    </link>
  </wpt>
  <wpt lat="40.5537473" lon="-7.3180717">
    <ele>629.0</ele>
    <name>Vinha da Manta</name>
    <desc>name=Vinha da Manta; tourism=camp_site;
    website=https://www.damanta.nl/; id=node/6822156962</desc>
    <link href="https://www.damanta.nl/"></link>
  </wpt>
  <wpt lat="40.3785082" lon="-7.735594">
    <ele>325.0</ele>
    <name>Parque do Campismo Silvestre</name>
    <desc>addr:street=Ponte Romana; name=Parque do Campismo
    Silvestre; tourism=camp_site; id=node/6852718585</desc>
  </wpt>
  <wpt lat="39.6251566" lon="-8.1627902">
    <ele>150.0</ele>
    <name>node/6852718586</name>
    <desc>addr:street=Penedo Furado; tourism=camp_site;
    id=node/6852718586</desc>
  </wpt>
  <wpt lat="40.0676248" lon="-8.4604847">
    <ele>153.0</ele>
    <name>Refúgio de Peregrino Nicolau</name>
    <desc>description=Donation based campsite for pilgrims. Tents
    onsite; name=Refúgio de Peregrino Nicolau; tourism=camp_site;
    id=node/7007953776</desc>
  </wpt>
  <wpt lat="38.7560478" lon="-27.355268">
    <ele>348.0</ele>
    <name>Serreta trail to Lagointha</name>
    <desc>lwn_ref=yes; name=Serreta trail to Lagointha;
    tourism=camp_site; id=node/7271084286</desc>
  </wpt>
  <wpt lat="41.5361316" lon="-8.2450783">
    <ele>183.0</ele>
    <name>GarfePark Camping</name>
    <desc>addr:city=Garfe; addr:housenumber=164;
    addr:postcode=4830-291; addr:street=Rua de Rande; dog=yes;
    email=garfepark@gmail.com; fee=yes; name=GarfePark Camping;
    payment:cash=yes; payment:credit_cards=yes;
    payment:debit_cards=yes; payment:visa=yes; phone=+351 253 944
    116; reservation=yes; shower=yes; toilets=yes;
    tourism=camp_site; website=https://garfeparkcamping.weebly.com;
    wheelchair=yes; id=node/7761487180</desc>
    <link href="https://garfeparkcamping.weebly.com"></link>
  </wpt>
  <wpt lat="39.6832137" lon="-8.4378437">
    <ele>82.0</ele>
    <name>node/7930777493</name>
    <desc>group_only=yes; tourism=camp_site;
    id=node/7930777493</desc>
  </wpt>
  <wpt lat="39.4717669" lon="-8.0905638">
    <ele>54.0</ele>
    <name>Colinas do Tejo</name>
    <desc>name=Colinas do Tejo; tourism=camp_site;
    id=node/7973429912</desc>
  </wpt>
  <wpt lat="40.3650909" lon="-7.9218748">
    <ele>360.0</ele>
    <name>Camping Tapadinho</name>
    <desc>access=private; email=info@campingtapadinho.com;
    name=Camping Tapadinho; phone=+351-238692314;
    tourism=camp_site; website=https://www.campingtapadinho.com/;
    id=node/8142925303</desc>
    <link href="https://www.campingtapadinho.com/"></link>
  </wpt>
  <wpt lat="37.500524" lon="-8.7178362">
    <ele>191.0</ele>
    <name>Aterra Eco Camping</name>
    <desc>caravans=no; name=Aterra Eco Camping; tents=no;
    tourism=camp_site; website=https://www.aterra.pt;
    id=node/8676400756</desc>
    <link href="https://www.aterra.pt"></link>
  </wpt>
  <wpt lat="38.8300765" lon="-7.8832771">
    <ele>234.0</ele>
    <name>Bubulcus &amp; Bolotas</name>
    <desc>group_only=yes; name=Bubulcus &amp; Bolotas;
    tourism=camp_site; website=https://www.bbcamping.eu/;
    id=node/8843372508</desc>
    <link href="https://www.bbcamping.eu/"></link>
  </wpt>
  <wpt lat="40.6355728" lon="-8.5688492">
    <ele>6.0</ele>
    <name>https://escoteirosaveiro.wixsite.com/website</name>
    <desc>group_only=yes; operator=Grupo de Escoteiros de Aveiro;
    tourism=camp_site;
    website=https://escoteirosaveiro.wixsite.com/website;
    id=node/9273255017</desc>
    <link href="https://escoteirosaveiro.wixsite.com/website">
    </link>
  </wpt>
  <wpt lat="32.7567338" lon="-17.0587546">
    <ele>1556.0</ele>
    <name>Bica da Cana</name>
    <desc>backcountry=yes; caravans=no; name=Bica da Cana;
    note=License needed before use, see
    https://simplifica.madeira.gov.pt/services/8-25-101 and
    https://www.madeiracamping.com/permission-gen/;
    reservation=required; shower=no; tents=yes; toilets=no;
    tourism=camp_site;
    website=https://www.madeiracamping.com/bica-da-cana/;
    id=node/9274119142</desc>
    <link href="https://www.madeiracamping.com/bica-da-cana/">
    </link>
  </wpt>
  <wpt lat="38.4891156" lon="-9.0292002">
    <ele>115.0</ele>
    <name>YMCA Camp Alambre</name>
    <desc>internet_access=wlan; name=YMCA Camp Alambre;
    toilets=yes; tourism=camp_site;
    website=https://www.alambrebungalows.com/;
    id=node/9711566485</desc>
    <link href="https://www.alambrebungalows.com/"></link>
  </wpt>
  <wpt lat="40.3889765" lon="-7.4481868">
    <ele>539.0</ele>
    <name>Campingbeijames</name>
    <desc>addr:street=GPS: 40º 23' 21.21'' N - 7º 26' 51.74'' O;
    email=valedobeijames.agroturismo@gmail.com;
    name=Campingbeijames; tourism=camp_site;
    website=https://www.campingbeijames.com;
    id=node/9759467317</desc>
    <link href="https://www.campingbeijames.com"></link>
  </wpt>
  <wpt lat="39.0122235" lon="-27.9612386">
    <ele>34.0</ele>
    <name>parque de campismo Carapacho</name>
    <desc>name=parque de campismo Carapacho; name:en=campsite of
    Carapacho; name:fr=camping de Carapacho; tourism=camp_site;
    id=node/9906288618</desc>
  </wpt>
  <wpt lat="39.3728792" lon="-9.3177397">
    <ele>42.0</ele>
    <name>node/9932133717</name>
    <desc>name:en=Urban Art Camping; tourism=camp_site;
    id=node/9932133717</desc>
  </wpt>
  <wpt lat="38.965531" lon="-8.9873582">
    <ele>43.0</ele>
    <name>Parque de Campismo Municipal de Vila Franca de
    Xira</name>
    <desc>name=Parque de Campismo Municipal de Vila Franca de Xira;
    source=Bing; tourism=camp_site; id=node/10050357220</desc>
  </wpt>
  <wpt lat="32.809902" lon="-16.9528174">
    <ele>751.0</ele>
    <name>Boca das Voltas</name>
    <desc>backcountry=yes; caravans=no; name=Boca das Voltas;
    note=License needed before use, see
    https://simplifica.madeira.gov.pt/services/8-25-101 and
    https://www.madeiracamping.com/permission-gen/;
    reservation=required; shower=no; tents=yes; toilets=no;
    tourism=camp_site; id=node/10235833491</desc>
  </wpt>
  <wpt lat="40.0418994" lon="-7.2845315">
    <ele>364.0</ele>
    <name>Spirala EcoVillage</name>
    <desc>access=permissive; capacity:caravans=10;
    capacity:persons=50; capacity:tents=20; caravans=yes;
    internet_access=wlan; name=Spirala EcoVillage;
    phone=+351934377948; tents=yes; tourism=camp_site;
    website=https://spiralaecovillage.com/;
    id=node/10764710905</desc>
    <link href="https://spiralaecovillage.com/"></link>
  </wpt>
  <wpt lat="32.7187908" lon="-16.8679017">
    <ele>1290.0</ele>
    <name>Terreiros</name>
    <desc>access=permit; backcountry=yes; capacity:tents=30;
    caravans=no; ele=1290; fee=no; latitude=32.718814;
    longitude=-16.867898; name=Terreiros; note=Permit needed before
    use, see https://simplifica.madeira.gov.pt/services/8-25-101;
    operator=IFCN; reservation=required; shower=no;
    static_caravans=no; tents=yes; toilets=no; tourism=camp_site;
    website=https://simplifica.madeira.gov.pt/services/8-25-101;
    id=node/10831391984</desc>
    <link href="https://simplifica.madeira.gov.pt/services/8-25-101">
    </link>
  </wpt>
  <wpt lat="32.7603786" lon="-16.9437638">
    <name>Pico Ruivo</name>
    <desc>backcountry=yes; caravans=no; name=Pico Ruivo;
    note=License needed before use, see
    https://simplifica.madeira.gov.pt/services/8-25-101 and
    https://www.madeiracamping.com/permission-gen/;
    reservation=required; shower=no; tents=yes; toilets=no;
    tourism=camp_site;
    website=https://www.madeiracamping.com/pico-ruivo/;
    id=node/10831391985</desc>
    <link href="https://www.madeiracamping.com/pico-ruivo/"></link>
  </wpt>
  <wpt lat="32.7517404" lon="-17.1133988">
    <ele>1374.0</ele>
    <name>Ribeira do Alecrim</name>
    <desc>backcountry=yes; caravans=no; internet_access=no;
    name=Ribeira do Alecrim; note=License needed before use, see
    https://simplifica.madeira.gov.pt/services/8-25-101 and
    https://www.madeiracamping.com/permission-gen/;
    reservation=required; shower=no; tents=yes; toilets=no;
    tourism=camp_site;
    website=https://www.madeiracamping.com/ribeira-do-alecrim/;
    id=node/10831391986</desc>
    <link href="https://www.madeiracamping.com/ribeira-do-alecrim/">
    </link>
  </wpt>
  <wpt lat="32.7183256" lon="-16.8760245">
    <ele>1359.0</ele>
    <name>Chão do Pasto/Cruzes de Baixo</name>
    <desc>backcountry=yes; caravans=no; internet_access=no;
    name=Chão do Pasto/Cruzes de Baixo; note=License needed before
    use, see https://simplifica.madeira.gov.pt/services/8-25-101
    and https://www.madeiracamping.com/permission-gen/;
    reservation=required; shower=no; tents=yes; toilets=no;
    tourism=camp_site;
    website=https://www.madeiracamping.com/chao-do-pasto/;
    id=node/10831411267</desc>
    <link href="https://www.madeiracamping.com/chao-do-pasto/">
    </link>
  </wpt>
  <wpt lat="32.8403289" lon="-17.155328">
    <ele>576.0</ele>
    <name>node/10835647322</name>
    <desc>tourism=camp_site; id=node/10835647322</desc>
  </wpt>
  <wpt lat="37.7715839" lon="-25.1767896">
    <ele>425.0</ele>
    <name>node/11023593420</name>
    <desc>fee=no; tourism=camp_site; id=node/11023593420</desc>
  </wpt>
  <wpt lat="41.0851603" lon="-8.1229989">
    <ele>104.0</ele>
    <name>Parque de campismo de Mourilhe</name>
    <desc>name=Parque de campismo de Mourilhe; tourism=camp_site;
    id=node/11035470007</desc>
  </wpt>
  <wpt lat="39.372888" lon="-9.3173924">
    <ele>46.0</ele>
    <name>Urban art</name>
    <desc>addr:city=Ferrel; addr:street=Do Cataló; name=Urban art;
    tourism=camp_site; id=node/11097179738</desc>
  </wpt>
  <wpt lat="37.1513991" lon="-8.4635825">
    <ele>64.0</ele>
    <name>Oasis campsite</name>
    <desc>addr:street=Quinta dos Pinheiros, Caminho Vale Formoso,
    8400-423 Torrinha, Portugal; description=+4915120921075;
    name=Oasis campsite; tourism=camp_site;
    website=https://oasiscamp.de/; id=node/11364409593</desc>
    <link href="https://oasiscamp.de/"></link>
  </wpt>
  <wpt lat="32.7605701" lon="-16.9632754">
    <name>node/11743674535</name>
    <desc>access=no; description=non official campsite, illegal to
    stay here overnight; tourism=camp_site;
    id=node/11743674535</desc>
  </wpt>
  <wpt lat="32.7587735" lon="-16.9703396">
    <name>node/11844345132</name>
    <desc>access=no; description=non official campsite, illegal to
    stay here overnight; tourism=camp_site;
    id=node/11844345132</desc>
  </wpt>
  <wpt lat="38.6238343" lon="-27.9289224">
    <ele>19.0</ele>
    <name>node/11862999569</name>
    <desc>tourism=camp_site; id=node/11862999569</desc>
  </wpt>
  <wpt lat="37.5675406" lon="-8.2646334">
    <ele>184.0</ele>
    <name>Camping Serro da Bica</name>
    <desc>caravans=yes; drinking_water=yes; internet_access=wlan;
    name=Camping Serro da Bica; power_supply=yes;
    sanitary_dump_station=yes; shower=yes; tents=yes; toilets=yes;
    tourism=camp_site; website=https://www.campingserrodabica.com/;
    id=node/11884056669; ; name=Camping Serra da Bica;
    opening_hours=Mo-Su 12:00-22:00; id=way/765620066</desc>
    <link href="https://www.campingserrodabica.com/"></link>
  </wpt>
  <wpt lat="40.4069854" lon="-8.0395219">
    <ele>289.0</ele>
    <name>node/11954505269</name>
    <desc>tourism=camp_site; id=node/11954505269</desc>
  </wpt>
  <wpt lat="37.7431224" lon="-8.6128353">
    <ele>90.0</ele>
    <name>Azula Camping</name>
    <desc>name=Azula Camping; tourism=camp_site;
    id=node/12042409669</desc>
  </wpt>
  <wpt lat="41.7992959" lon="-8.741543">
    <ele>226.0</ele>
    <name>Wild Glamping Portugal</name>
    <desc>name=Wild Glamping Portugal; tourism=camp_site;
    id=node/12143683901</desc>
  </wpt>
  <wpt lat="37.1429674" lon="-7.6006575">
    <ele>19.0</ele>
    <name>Kampaoh Tavira</name>
    <desc>name=Kampaoh Tavira; tourism=camp_site;
    website=https://pt.kampaoh.com/camping-ria-formosa-tavira/;
    id=node/12165323446</desc>
    <link href="https://pt.kampaoh.com/camping-ria-formosa-tavira/">
    </link>
  </wpt>
  <wpt lat="40.3956575" lon="-8.6203444">
    <ele>61.0</ele>
    <name>Campo de Atividades e Formação Escutista</name>
    <desc>access=yes; capacity:persons=200; caravans=no;
    drinking_water=yes; group_only=yes; name=Campo de Atividades e
    Formação Escutista; operator=CNE; shower=yes; tents=yes;
    toilets=yes; tourism=camp_site; id=node/12501188445; ;
    id=way/1353128214</desc>
  </wpt>
  <wpt lat="37.1298309" lon="-8.7851289">
    <ele>73.0</ele>
    <name>State Of Being</name>
    <desc>camp_site=standard; caravans=yes; check_date=2025-02-06;
    check_date:currency:XBT=2025-02-07; currency:XBT=yes;
    dog=leashed; drinking_water=yes; email=contact@stateofbeing.nl;
    fee=yes; name=State Of Being; payment:cash=yes;
    payment:lightning=yes; payment:onchain=yes; picnic_table=yes;
    static_caravans=yes; tents=yes; tourism=camp_site;
    website=https://stateofbeing.nl/; id=node/12564120825</desc>
    <link href="https://stateofbeing.nl/"></link>
  </wpt>
  <wpt lat="38.521911" lon="-9.0706127">
    <ele>80.0</ele>
    <name>Campo Base Sesimbra Natura Park</name>
    <desc>check_date=2025-06-28; name=Campo Base Sesimbra Natura
    Park; tourism=camp_site; id=node/12959542089</desc>
  </wpt>
  <wpt lat="39.94925255" lon="-7.185165018523808">
    <ele>275.0</ele>
    <name>Parque de Campismo Municipal de Idanha-a-Nova</name>
    <desc>addr:city=Idanha-a-Nova; addr:postcode=6060-192;
    addr:street=Estrada Nacional Nº 354-1, Km 8; name=Parque de
    Campismo Municipal de Idanha-a-Nova; phone=+351 277 201 029;
    tourism=camp_site; type=multipolygon;
    id=relation/1373991</desc>
  </wpt>
  <wpt lat="40.5350488" lon="-7.276680890621939">
    <ele>1014.0</ele>
    <name>Parque de Campismo Municipal da Guarda</name>
    <desc>caravans=yes; fee=yes; internet_access=yes; name=Parque
    de Campismo Municipal da Guarda; power_supply=yes;
    sanitary_dump_station=yes; stars=2; static_caravans=no;
    tents=yes; toilets=yes; tourism=camp_site; type=multipolygon;
    id=relation/1728415</desc>
  </wpt>
  <wpt lat="37.769126799999995" lon="-25.307779566680583">
    <ele>216.0</ele>
    <name>Parque de Campismo das Furnas</name>
    <desc>name=Parque de Campismo das Furnas; phone=+351296549010;
    tourism=camp_site; type=multipolygon;
    id=relation/1746675</desc>
  </wpt>
  <wpt lat="37.852498350000005" lon="-8.787031245688015">
    <ele>37.0</ele>
    <name>Camping Porto Covo</name>
    <desc>addr:city=Porto Covo; addr:postcode=7520-437;
    addr:street=Estrada Municipal 554; bbq=yes; caravans=yes;
    drinking_water=yes; fax=+351 269905239; fee=yes;
    internet_access=wlan; internet_access:fee=yes; name=Camping
    Porto Covo; phone=+351 269905136; power_supply=yes;
    reservation=recommended; sanitary_dump_station=yes; shower=yes;
    static_caravans=yes; swimming_pool=outdoor; tents=yes;
    tourism=camp_site; type=multipolygon; washing_machine=yes;
    website=https://www.campingportocovo.pt/;
    id=relation/5656195</desc>
    <link href="https://www.campingportocovo.pt/"></link>
  </wpt>
  <wpt lat="37.8416062" lon="-8.78277123579942">
    <ele>45.0</ele>
    <name>Parque de Campismo Ilha Pessegueiro</name>
    <desc>addr:city=Porto Covo; addr:postcode=7520-421;
    addr:street=Estrada da Ilha;
    email=info@ilhadopessegueirocamping.com; fax=+351 269905067;
    internet_access=wlan; name=Parque de Campismo Ilha Pessegueiro;
    phone=+351 269905178; tourism=camp_site; type=multipolygon;
    website=http://www.ilhadopessegueirocamping.com/;
    id=relation/5656218</desc>
    <link href="http://www.ilhadopessegueirocamping.com/"></link>
  </wpt>
  <wpt lat="39.598772350000004" lon="-9.055987196261828">
    <ele>87.0</ele>
    <name>Camping Orbitur Valado</name>
    <desc>addr:city=Nazaré; addr:housenumber=r;
    addr:postcode=2450-148; addr:street=R. dos Combatentes do
    Ultramar; area=yes;
    contact:website=https://www.orbitur.pt/pt/destinos/regiao-centro/orbitur-valado;
    email=infovalado@orbitur.pt; name=Camping Orbitur Valado;
    phone=+351 262 561 111; tourism=camp_site; type=multipolygon;
    id=relation/6150334</desc>
    <link href="https://www.orbitur.pt/pt/destinos/regiao-centro/orbitur-valado">
    </link>
  </wpt>
  <wpt lat="37.1027483" lon="-8.734207383941781">
    <ele>78.0</ele>
    <name>Camping Turiscampo</name>
    <desc>addr:city=Lagos; addr:postcode=8600-109;
    addr:street=Estrada Nacional 125; caravans=yes;
    contact:website=http://www.turiscampo.com/;
    email=info@turiscampo.com; motor_vehicle=yes; name=Camping
    Turiscampo; operator=Europe Plein Air SA; phone=+351282789265;
    shower=yes; stars=4; surface=ground; tents=yes; toilets=yes;
    tourism=camp_site; type=multipolygon;
    id=relation/6841899</desc>
    <link href="http://www.turiscampo.com/"></link>
  </wpt>
  <wpt lat="39.9163876" lon="-8.94921937264975">
    <ele>26.0</ele>
    <name>Parque de Campismo da Praia do Pedrógão</name>
    <desc>caravans=yes; contact:email=pedrogaocamping@outlook.com;
    contact:phone=+351 244 695 403; internet_access=no;
    motorhome=yes; name=Parque de Campismo da Praia do Pedrógão;
    opening_hours=Jun-Sep 09:00-21:00, Oct-May 09:00-18:00;
    short_name=Praia do Pedrógão; tents=yes; tourism=camp_site;
    type=multipolygon; id=relation/9550969</desc>
  </wpt>
  <wpt lat="39.70824785" lon="-8.013460707142858">
    <ele>330.0</ele>
    <name>Junta de Freguesia de Cardigos</name>
    <desc>operator=Junta de Freguesia de Cardigos; tents=yes;
    tourism=camp_site; type=multipolygon;
    id=relation/9790427</desc>
  </wpt>
  <wpt lat="39.70911975" lon="-8.014500142677786">
    <ele>334.0</ele>
    <name>Junta de Freguesia de Cardigos</name>
    <desc>caravans=yes; operator=Junta de Freguesia de Cardigos;
    tourism=camp_site; type=multipolygon;
    id=relation/9821854</desc>
  </wpt>
  <wpt lat="41.54957695" lon="-7.81886995537427">
    <ele>456.0</ele>
    <name>Parque de Campismo de Bragadas</name>
    <desc>name=Parque de Campismo de Bragadas; tourism=camp_site;
    type=multipolygon; id=relation/14104443</desc>
  </wpt>
  <wpt lat="41.90093155" lon="-8.314855493371166">
    <ele>799.0</ele>
    <name>Parque de Campismo da Travanca</name>
    <desc>alt_name=Travanca; name=Parque de Campismo da Travanca;
    tourism=camp_site; type=multipolygon;
    id=relation/16686967</desc>
  </wpt>
  <wpt lat="41.6927419" lon="-7.659622611394804">
    <ele>530.0</ele>
    <name>Parque de Campismo Virgílio António de Miranda</name>
    <desc>access=customers; addr:postcode=5460-301;
    addr:street=Avenida Avelino Alves Miranda; backcountry=no;
    bin=yes; cabins=yes; capacity:cabins=5; caravans=yes;
    check_date=2024-04-07; contact:email=gdboticas1964@sapo.pt;
    contact:phone=+351 967 126 857, +351 965 410 142;
    contact:website=https://www.cm-boticas.pt/conteudos/default.php?id=51;
    drinking_water=yes; fee=yes; group_only=no; impromptu=no;
    internet_access=wlan; internet_access:fee=customers; lit=no;
    motorhome=yes; name=Parque de Campismo Virgílio António de
    Miranda; opening_hours=Mo-Su 10:00-12:30,14:30-19:00;
    permanent_camping=yes; power_supply=yes; reservation=yes;
    sanitary_dump_station=customers; scout=no; shower=yes;
    swimming_pool=no; tents=yes; toilets=yes; tourism=camp_site;
    type=multipolygon; washing_machine=no;
    id=relation/18148574</desc>
    <link href="https://www.cm-boticas.pt/conteudos/default.php?id=51">
    </link>
  </wpt>
  <wpt lat="32.79214435" lon="-17.181413345549302">
    <ele>1240.0</ele>
    <name>Fonte do Bispo</name>
    <desc>backcountry=yes; caravans=no; internet_access=no;
    name=Fonte do Bispo; note=License needed before use, see
    https://simplifica.madeira.gov.pt/services/8-25-101 and
    https://www.madeiracamping.com/permission-gen/;
    reservation=required; shower=no; tents=yes; toilets=no;
    tourism=camp_site; type=multipolygon;
    website=https://www.madeiracamping.com/fonte-do-bispo/;
    id=relation/18547211</desc>
    <link href="https://www.madeiracamping.com/fonte-do-bispo/">
    </link>
  </wpt>
  <wpt lat="41.5559708" lon="-7.947808603685335">
    <ele>831.0</ele>
    <name>Quinta Rural</name>
    <desc>addr:city=Cabeceiras de Basto; addr:postcode=4860-426;
    cabins=yes; caravans=no; email=info@quintarural.eu; name=Quinta
    Rural; phone=+351 927 02 44 44; shower=yes; tents=yes;
    toilets=yes; tourism=camp_site; type=multipolygon;
    website=https://www.quintarural.eu/;
    id=relation/18810876</desc>
    <link href="https://www.quintarural.eu/"></link>
  </wpt>
  <wpt lat="41.63160125" lon="-8.137177183719798">
    <ele>362.0</ele>
    <name>Parque de Campismo da Cabreira</name>
    <desc>addr:city=Vieira do Minho; addr:place=Lugar de Entre os
    Rios, Cantelães; addr:postcode=4850;
    email=pcampismocabreira@cm-vminho.pt; name=Parque de Campismo
    da Cabreira; operator=Vieira Cultura e Turismo, EM; phone=+351
    253 648 665; tourism=camp_site; type=multipolygon;
    website=https://www.cm-vminho.pt/13611; wikidata=Q90150281;
    id=relation/19057778</desc>
    <link href="https://www.cm-vminho.pt/13611"></link>
  </wpt>
  <wpt lat="41.67610765" lon="-8.184985065679658">
    <ele>186.0</ele>
    <name>Rural de Rio Caldo</name>
    <desc>caravans=yes; contact:phone=+351 960 486 464; name=Rural
    de Rio Caldo; tents=no; tourism=camp_site; type=multipolygon;
    id=relation/19117235</desc>
  </wpt>
  <wpt lat="39.1370574" lon="-9.374439892122528">
    <ele>48.0</ele>
    <name>Parque Campismo Santa Cruz</name>
    <desc>access=yes; fee=yes; name=Parque Campismo Santa Cruz;
    operator=Clube de Campismo e Caravanismo de Torres Vedras;
    tourism=camp_site; id=way/25981018</desc>
  </wpt>
  <wpt lat="38.9581266" lon="-9.351682229697396">
    <ele>197.0</ele>
    <name>Parque de Campismo e Caravanismo Estrela</name>
    <desc>name=Parque de Campismo e Caravanismo Estrela;
    tourism=camp_site; id=way/29954230</desc>
  </wpt>
  <wpt lat="39.41052705" lon="-7.340670555013549">
    <ele>485.0</ele>
    <name>Camping Asseiceira</name>
    <desc>capacity=15;
    contact:website=https://www.campingasseiceira.com/;
    internet_access=no; name=Camping Asseiceira; power_supply=yes;
    shower=yes; tents=yes; toilets=yes; tourism=camp_site;
    id=way/35775757</desc>
    <link href="https://www.campingasseiceira.com/"></link>
  </wpt>
  <wpt lat="40.18793355" lon="-8.39900392057043">
    <ele>69.0</ele>
    <name>Parque de Campismo de Coimbra</name>
    <desc>addr:street=Rua da Escola; email=geral@cacampings.com;
    landuse=recreation_ground; name=Parque de Campismo de Coimbra;
    phone=+351 239 086 902; source=bing; toilets:wheelchair=yes;
    tourism=camp_site; website=https://coimbracamping.com/;
    wheelchair=yes; id=way/57041666</desc>
    <link href="https://coimbracamping.com/"></link>
  </wpt>
  <wpt lat="38.007349149999996" lon="-7.86210763778079">
    <ele>257.0</ele>
    <name>Parque Municipal de Campismo de Beja</name>
    <desc>area=yes; campsite=basic; caravans=yes; fee=yes;
    motor_vehicle=yes; name=Parque Municipal de Campismo de Beja;
    operator=Câmara Municipal de Beja; tents=yes;
    tourism=camp_site; washing_machine=no; id=way/61571915</desc>
  </wpt>
  <wpt lat="37.05313915" lon="-7.744492739739597">
    <ele>6.0</ele>
    <name>Parque de Campismo Municipal da Fuseta</name>
    <desc>name=Parque de Campismo Municipal da Fuseta; phone=+351
    289 793459; tourism=camp_site;
    url=http://www.roteiro-campista.pt/wp/?dir-item=fuseta;
    wheelchair=yes; id=way/78565849</desc>
    <link href="http://www.roteiro-campista.pt/wp/?dir-item=fuseta">
    </link>
  </wpt>
  <wpt lat="37.11317985" lon="-7.622491703511273">
    <ele>9.0</ele>
    <name>Parque de Campismo da Ilha de Tavira</name>
    <desc>fee=yes; internet_access=yes; internet_access:fee=yes;
    name=Parque de Campismo da Ilha de Tavira; phone=+351 281
    321709; tourism=camp_site;
    website=https://cm-tavira.pt/site/parque-de-campismo/;
    id=way/78792333</desc>
    <link href="https://cm-tavira.pt/site/parque-de-campismo/">
    </link>
  </wpt>
  <wpt lat="37.1812953" lon="-7.443065362119427">
    <ele>11.0</ele>
    <name>Parque de Campismo de Monte Gordo</name>
    <desc>addr:city=Monte Gordo; addr:postcode=8900-412;
    addr:street=Estrada da Mata; caravans=yes; drinking_water=yes;
    fee=yes; name=Parque de Campismo de Monte Gordo;
    operator=Municipal; phone=+351 281 510970; power_supply=yes;
    sanitary_dump_station=yes; shower=yes; stars=1;
    static_caravans=yes; tents=yes; toilets=yes; tourism=camp_site;
    url=http://pt.camping.info/portugal/algarve/parque-de-campismo-municipal-de-monte-gordo-16424?onMap=1;
    wheelchair=yes; id=way/80652065</desc>
    <link href="http://pt.camping.info/portugal/algarve/parque-de-campismo-municipal-de-monte-gordo-16424?onMap=1">
    </link>
  </wpt>
  <wpt lat="41.292472599999996" lon="-7.171348296347954">
    <ele>612.0</ele>
    <name>Parque de Campismo de Vila Flor</name>
    <desc>description=the camping is closed until summer 2025 at
    least (renovation works); name=Parque de Campismo de Vila Flor;
    tourism=camp_site; id=way/98669182</desc>
  </wpt>
  <wpt lat="41.12458035" lon="-8.665349497063257">
    <ele>12.0</ele>
    <name>Orbitur Canidelo</name>
    <desc>addr:city=Canidelo; addr:housenumber=441;
    addr:postcode=4400-382; addr:street=Avenida da Beira Mar;
    email=infocanidelo@orbitur.pt; name=Orbitur Canidelo;
    operator=Orbitur; phone=+351 227 814 730;
    toilets:wheelchair=yes; tourism=camp_site;
    website=https://www.orbitur.pt/en/destinations/region-north/orbitur-canidelo;
    wheelchair=yes; id=way/99272541</desc>
    <link href="https://www.orbitur.pt/en/destinations/region-north/orbitur-canidelo">
    </link>
  </wpt>
  <wpt lat="40.6390217" lon="-8.743685720400439">
    <ele>10.0</ele>
    <name>Parque de Campismo da Barra</name>
    <desc>access=yes; addr:city=Gafanha da Nazaré; addr:country=PT;
    addr:housename=Camping Praia da Barra; addr:housenumber=125;
    addr:postcode=3830-772; addr:street=Rua Diogo Cão;
    capacity:cabins=yes; capacity:tents=yes; caravans=yes;
    contact:facebook=www.facebook.com/pages/Parque-De-Campismo-Da-Barra/124888537586729;
    contact:fax=+351 234 369425; contact:phone=+351 234 369425;
    contact:website=https://campingbarra.com/; fee=yes;
    internet_access=wlan; internet_access:fee=customers;
    name=Parque de Campismo da Barra; naturism=no;
    opening_hours=24/7; static_caravans=yes; tents=yes;
    tourism=camp_site; id=way/104683407</desc>
    <link href="https://campingbarra.com/"></link>
  </wpt>
  <wpt lat="40.95061565" lon="-8.651428318105964">
    <ele>13.0</ele>
    <name>Parque de Campismo de Esmoriz</name>
    <desc>addr:city=Esmoriz; addr:country=PT;
    addr:postcode=3885-529; addr:street=Rua Clube de Campismo do
    Porto; check_date=2022-12-01; contact:fax=+351 256 753 717;
    contact:phone=+351 256 752 709;
    contact:website=https://ccporto.pt/esmoriz;
    email=pesmoriz@ccporto.pt; fee=yes; internet_access=yes;
    name=Parque de Campismo de Esmoriz; operator=Clube de Campismo
    do Porto; owner=Junta de Freguesia de Esmoriz; source=Bing;
    tourism=camp_site; wheelchair=yes; id=way/108597017</desc>
    <link href="https://ccporto.pt/esmoriz"></link>
  </wpt>
  <wpt lat="37.02074245" lon="-7.805054149008365">
    <ele>4.0</ele>
    <name>Parque de Campismo Orbitur Ilha de Armona</name>
    <desc>name=Parque de Campismo Orbitur Ilha de Armona;
    operator=Orbitur; phone=+351 289 714173; tourism=camp_site;
    website=https://www.orbitur.pt/; id=way/109574565</desc>
    <link href="https://www.orbitur.pt/"></link>
  </wpt>
  <wpt lat="41.01337025" lon="-8.637537593503016">
    <ele>15.0</ele>
    <name>Parque Municipal de Campismo de Espinho</name>
    <desc>addr:city=Espinho; caravans=yes; drinking_water=yes;
    fax=+351 227 322 680; fee=yes; name=Parque Municipal de
    Campismo de Espinho; phone=+351 227 335 871; power_supply=yes;
    sanitary_dump_station=yes; source=Bing; static_caravans=no;
    tents=yes; toilets=yes; tourism=camp_site;
    id=way/109585506</desc>
  </wpt>
  <wpt lat="39.262768050000005" lon="-9.332700488929593">
    <ele>5.0</ele>
    <name>way/110151824</name>
    <desc>tents=yes; tourism=camp_site; id=way/110151824</desc>
  </wpt>
  <wpt lat="37.114410199999995" lon="-8.508441814465442">
    <ele>32.0</ele>
    <name>Parque de Campismo de Ferragudo</name>
    <desc>membership=yes; name=Parque de Campismo de Ferragudo;
    phone=+351 282 461121; tents=not allowed; tourism=camp_site;
    website=http://www.clubecampismolisboa.pt;
    id=way/115019787</desc>
    <link href="http://www.clubecampismolisboa.pt"></link>
  </wpt>
  <wpt lat="37.1207584" lon="-8.351260580888887">
    <ele>23.0</ele>
    <name>Parque de Campismo de Canelas</name>
    <desc>cabins=yes; caravans=yes; dog=yes; dryer=yes;
    email=geral@camping-canelas.com; fee=yes; internet_access=wlan;
    internet_access:fee=no; name=Parque de Campismo de Canelas;
    opening_hours=Mo-Su 08:00-21:30; payment:cash=yes;
    payment:mastercard=yes; payment:visa=yes; phone=+351 282312612;
    power_supply=yes; reservation=yes; shower=yes; stars=3;
    tents=yes; toilets=yes; tourism=camp_site; washing_machine=yes;
    website=https://camping-canelas.com; id=way/115303388</desc>
    <link href="https://camping-canelas.com"></link>
  </wpt>
  <wpt lat="37.108466899999996" lon="-8.35159848125">
    <ele>7.0</ele>
    <name>Parque de Campismo de Armação de Pera</name>
    <desc>addr:city=Armação de Pêra; addr:country=PT;
    addr:postcode=8365-184; addr:street=Rua Doutor Manuel de
    Arriaga; cabins=yes; caravans=yes; dog=yes; drinking_water=yes;
    dryer=yes; email=geral@camping-armacao-pera.com; fax=+351 282
    315 379; internet_access=wlan; internet_access:fee=no;
    name=Parque de Campismo de Armação de Pera; nohousenumber=yes;
    opening_hours=Mo-Su 08:00-20:00; payment:cash=yes;
    payment:mastercard=yes; payment:visa=yes; phone=+351 282
    312260; power_supply=yes; reservation=yes;
    sanitary_dump_station=customers; shower=yes; stars=3;
    tents=yes; toilets=yes; tourism=camp_site; washing_machine=yes;
    website=http://www.camping-armacao-pera.com/; wheelchair=yes;
    id=way/115303416</desc>
    <link href="http://www.camping-armacao-pera.com/"></link>
  </wpt>
  <wpt lat="37.10528135" lon="-8.250299575976577">
    <ele>39.0</ele>
    <name>Parque de Campismo de Albufeira</name>
    <desc>access=yes; caravans=yes; check_out=12:00;
    contact:facebook=https://www.facebook.com/camping.albufeira/;
    contact:instagram=https://www.instagram.com/camping_albufeira/;
    drinking_water=yes; email=geral@campingalbufeira.net; fee=yes;
    internet_access=wlan; internet_access:fee=customers;
    name=Parque de Campismo de Albufeira; payment:cash=yes;
    payment:credit_cards=yes; phone=+351 289 587629;
    power_supply=yes; shower=yes; static_caravans=yes;
    swimming=yes; tents=yes; toilets=yes; tourism=camp_site;
    website=https://www.campingalbufeira.pt/; wheelchair=yes;
    id=way/115303656</desc>
    <link href="https://www.campingalbufeira.pt/"></link>
  </wpt>
  <wpt lat="37.34073545" lon="-8.81361600051622">
    <ele>108.0</ele>
    <name>Parque de Campismo do Serrão</name>
    <desc>addr:city=Aljezur; addr:postcode=8670-121;
    backcountry=no; contact:website=http://campingserrao.com/;
    dog=yes; email=info@campingserrao.com; fee=yes; group_only=no;
    name=Parque de Campismo do Serrão; name:en=Camping Serrão;
    official_name=Camping Serrão; phone=+351 282 990 220;
    power_supply=yes; sanitary_dump_station=yes; shower=yes;
    toilets=yes; tourism=camp_site;
    website=https://www.campingserrao.com/; id=way/115839595</desc>
    <link href="http://campingserrao.com/"></link>
  </wpt>
  <wpt lat="40.3456731" lon="-7.810032212989204">
    <ele>283.0</ele>
    <name>Parque de Campismo de São Gião</name>
    <desc>name=Parque de Campismo de São Gião; tourism=camp_site;
    id=way/117526247</desc>
  </wpt>
  <wpt lat="41.3355739" lon="-6.717339492240135">
    <ele>705.0</ele>
    <name>Parque de Campismo de Mogadouro</name>
    <desc>addr:city=Mogadouro; barrier=fence;
    email=campismo@mogadouro.pt; fax=+351279341874; fee=yes;
    internet_access=yes; internet_access:fee=no; name=Parque de
    Campismo de Mogadouro; operator=Câmara Municipal de Mogadouro;
    phone=+351279340231; smoking=yes; tourism=camp_site;
    website=https://www.mogadouro.pt/turismo/parque-campismo-mogadouro;
    wheelchair=yes; id=way/117593434</desc>
    <link href="https://www.mogadouro.pt/turismo/parque-campismo-mogadouro">
    </link>
  </wpt>
  <wpt lat="37.8205069" lon="-25.44423375290817">
    <ele>47.0</ele>
    <name>Parque Campismo Porto Formoso</name>
    <desc>name=Parque Campismo Porto Formoso; name:pt=Parque
    Campismo Porto Formoso; tourism=camp_site;
    id=way/123529991</desc>
  </wpt>
  <wpt lat="37.0244445" lon="-8.946183425630068">
    <ele>42.0</ele>
    <name>Parque de Campismo de Sagres</name>
    <desc>caravans=yes; drinking_water=yes;
    email=infosagres@orbitur.pt; internet_access=wlan; name=Parque
    de Campismo de Sagres; operator=Orbitur; phone=+351 282 624
    371; power_supply=yes; sanitary_dump_station=yes; shower=yes;
    stars=3; tents=yes; toilets=yes; tourism=camp_site;
    website=https://www.orbitur.com/en/destinations/algarve/orbitur-sagres;
    wheelchair=yes; id=way/126785822</desc>
    <link href="https://www.orbitur.com/en/destinations/algarve/orbitur-sagres">
    </link>
  </wpt>
  <wpt lat="41.26866685" lon="-8.720043565234302">
    <ele>34.0</ele>
    <name>Orbitur Angeiras</name>
    <desc>addr:city=Matosinhos; addr:postcode=4455-039;
    addr:street=Rua de Angeiras; email=infoangeiras@orbitur.pt;
    name=Orbitur Angeiras; operator=Orbitur; phone=+351 229 270
    571; tourism=camp_site;
    website=https://www.orbitur.pt/en/destinations/region-north/orbitur-angeiras;
    id=way/132723204</desc>
    <link href="https://www.orbitur.pt/en/destinations/region-north/orbitur-angeiras">
    </link>
  </wpt>
  <wpt lat="40.93666125" lon="-8.657625015605593">
    <ele>10.0</ele>
    <name>Parque de Campismo de Cortegaça</name>
    <desc>caravans=yes; name=Parque de Campismo de Cortegaça;
    tents=yes; tourism=camp_site; id=way/137045408</desc>
  </wpt>
  <wpt lat="39.39947265" lon="-8.48569803397086">
    <ele>24.0</ele>
    <name>Parque de Campismo Municipal da Golegã</name>
    <desc>caravans=yes; name=Parque de Campismo Municipal da
    Golegã; phone=+351 249 979 003; tents=yes; tourism=camp_site;
    id=way/137266438</desc>
  </wpt>
  <wpt lat="39.35495345" lon="-9.35988567189142">
    <ele>7.0</ele>
    <name>Parque de Campismo Municipal de Peniche</name>
    <desc>barrier=fence; email=parque.campismo@cm-peniche.pt;
    name=Parque de Campismo Municipal de Peniche; note=Temporarily
    closed.; opening_hours=closed; operator=Ohai Outdoor;
    phone=+351 262 789 529;
    source_ref=https://gazetadascaldas.pt/desporto/parque-de-campismo-pode-reabrir-em-2025/;
    tourism=camp_site;
    website=https://www.cm-peniche.pt/viver/equipamentos/parque-municipal-de-campismo-e-caravanismo-de-peniche;
    id=way/138701443</desc>
    <link href="https://www.cm-peniche.pt/viver/equipamentos/parque-municipal-de-campismo-e-caravanismo-de-peniche">
    </link>
  </wpt>
  <wpt lat="39.368738949999994" lon="-9.392125962807597">
    <ele>24.0</ele>
    <name>Peniche Praia</name>
    <desc>addr:city=Peniche; addr:country=PT; addr:postcode=2520 -
    605; addr:street=Estrada Marginal Norte; cabins=yes;
    caravans=yes; dog=yes; drinking_water=yes; dryer=yes;
    email=geral@penichepraia.pt; internet_access=wlan;
    internet_access:fee=no; name=Peniche Praia;
    operator=PenichePraia – Bungalows, Campers &amp; Spa;
    payment:cash=yes; payment:mastercard=yes; payment:visa=yes;
    phone=+351 262 783 460; power_supply=yes; tents=yes;
    tourism=camp_site; washing_machine=yes;
    website=https://www.penichepraia.pt; id=way/138743727</desc>
    <link href="https://www.penichepraia.pt"></link>
  </wpt>
  <wpt lat="38.4365909" lon="-9.118059770191019">
    <ele>61.0</ele>
    <name>Parque de Campismo do Forte do Cavalo</name>
    <desc>addr:city=Sesimbra; name=Parque de Campismo do Forte do
    Cavalo; tourism=camp_site; id=way/139772266</desc>
  </wpt>
  <wpt lat="37.72999265" lon="-8.783826840399827">
    <ele>37.0</ele>
    <name>Camping Campiférias</name>
    <desc>access=yes; addr:postcode=7645-213; addr:street=Rua da
    Praça; caravans=yes; email=novaferias@sapo.pt; fee=yes;
    name=Camping Campiférias; phone=+351283996409;
    static_caravans=yes; tents=yes; tourism=camp_site;
    website=https://www.campingcampiferias.com;
    id=way/141160208</desc>
    <link href="https://www.campingcampiferias.com"></link>
  </wpt>
  <wpt lat="37.7784144" lon="-8.788593645142154">
    <ele>61.0</ele>
    <name>Sitava Camping</name>
    <desc>name=Sitava Camping; operator=Orbitur; phone=+351 283 890
    100; tourism=camp_site;
    website=https://www.orbitur.pt/pt/destinos/alentejo/orbitur-sitava-milfontes;
    id=way/141160214</desc>
    <link href="https://www.orbitur.pt/pt/destinos/alentejo/orbitur-sitava-milfontes">
    </link>
  </wpt>
  <wpt lat="37.731987000000004" lon="-8.781648871856333">
    <ele>42.0</ele>
    <name>Camping Milfontes</name>
    <desc>access=customers; caravans=yes;
    email=geral@campingmilfontes.com; fee=yes; internet_access=yes;
    motor_vehicle=yes; name=Camping Milfontes; operator=Grupo
    Turismil; payment:cash=yes; payment:credit_cards=yes;
    phone=+351 283 996 104; shower=yes; surface=ground; tents=yes;
    toilets=yes; tourism=camp_site;
    website=http://www.campingmilfontes.com;
    id=way/141160215</desc>
    <link href="http://www.campingmilfontes.com"></link>
  </wpt>
  <wpt lat="40.11781065" lon="-8.858644013276054">
    <ele>10.0</ele>
    <name>Orbitur Gala</name>
    <desc>name=Orbitur Gala; tourism=camp_site;
    id=way/141516532</desc>
  </wpt>
  <wpt lat="40.762679750000004" lon="-8.702538185215298">
    <ele>8.0</ele>
    <name>Parque de Campismo da Torreira</name>
    <desc>contact:email=torreira@arpurocampings.com;
    contact:phone=+351 234 838 397;
    contact:website=https://www.arpurocampings.com;
    internet_access=wlan; name=Parque de Campismo da Torreira;
    power_supply=yes; shower=yes; toilets=yes; tourism=camp_site;
    washing_machine=yes; id=way/141542316</desc>
    <link href="https://www.arpurocampings.com"></link>
  </wpt>
  <wpt lat="38.38003965" lon="-8.516780440262046">
    <ele>53.0</ele>
    <name>Parque de Campismo de Alcácer do Sal</name>
    <desc>camp_site=standard; caravans=yes; fee=yes;
    motor_vehicle=yes; name=Parque de Campismo de Alcácer do Sal;
    tents=yes; tourism=camp_site;
    website=https://www.cm-alcacerdosal.pt/;
    id=way/142404915</desc>
    <link href="https://www.cm-alcacerdosal.pt/"></link>
  </wpt>
  <wpt lat="37.437782549999994" lon="-8.754290559884314">
    <ele>40.0</ele>
    <name>Parque de Campismo São Miguel</name>
    <desc>name=Parque de Campismo São Miguel; tourism=camp_site;
    website=https://www.campingsaomiguel.pt;
    id=way/143604494</desc>
    <link href="https://www.campingsaomiguel.pt"></link>
  </wpt>
  <wpt lat="37.03593695" lon="-7.818084358668342">
    <ele>16.0</ele>
    <name>Parque de Campismo do Sindicato dos Bancários do Sul e
    Ilhas - Olhão</name>
    <desc>addr:city=Olhão; addr:postcode=8700-410; caravans=yes;
    drinking_water=yes; name=Parque de Campismo do Sindicato dos
    Bancários do Sul e Ilhas - Olhão; phone=+351 289 700300;
    power_supply=yes; sanitary_dump_station=yes; shower=yes;
    tents=yes; toilets=yes; tourism=camp_site;
    url=http://www.roteiro-campista.pt/Faro/olhao-moldura.htm;
    wheelchair=yes; id=way/145724574</desc>
    <link href="http://www.roteiro-campista.pt/Faro/olhao-moldura.htm">
    </link>
  </wpt>
  <wpt lat="38.55758835" lon="-7.926754767424866">
    <ele>265.0</ele>
    <name>Évora Camping</name>
    <desc>alt_name=Parque de Campismo de Évora; barrier=fence;
    caravans=yes; drinking_water=yes; internet_access=wlan;
    name=Évora Camping; operator=Orbitur; power_supply=yes;
    sanitary_dump_station=yes; shower=yes; tents=yes; toilets=yes;
    tourism=camp_site;
    website=https://www.orbitur.pt/destinos/alentejo/orbitur-evora?lang=pt;
    wheelchair=yes; id=way/147046546</desc>
    <link href="https://www.orbitur.pt/destinos/alentejo/orbitur-evora?lang=pt">
    </link>
  </wpt>
  <wpt lat="41.336663849999994" lon="-8.737725999371644">
    <ele>7.0</ele>
    <name>Parque de Campismo Árvore</name>
    <desc>access=customers; caravans=yes; drinking_water=yes;
    name=Parque de Campismo Árvore; shower=yes; tents=yes;
    tourism=camp_site; website=https://www.cnm.org.pt/campismo/;
    id=way/154917062</desc>
    <link href="https://www.cnm.org.pt/campismo/"></link>
  </wpt>
  <wpt lat="38.54880315" lon="-9.070406947096217">
    <ele>82.0</ele>
    <name>Campismo-Parque Verde</name>
    <desc>name=Campismo-Parque Verde; tourism=camp_site;
    id=way/156343481</desc>
  </wpt>
  <wpt lat="41.4855996" lon="-7.957582406549378">
    <ele>212.0</ele>
    <name>Campismo Arco</name>
    <desc>contact:email=campismoarco@hotmail.com; name=Campismo
    Arco; phone=+351968176246; source=Bing; tourism=camp_site;
    website=https://www.campismo-arco.com/index.html;
    id=way/157378994</desc>
    <link href="https://www.campismo-arco.com/index.html"></link>
  </wpt>
  <wpt lat="38.629988" lon="-9.22527285878488">
    <ele>5.0</ele>
    <name>Parque de Campismo da Costa Nova</name>
    <desc>name=Parque de Campismo da Costa Nova; tourism=camp_site;
    id=way/158830581</desc>
  </wpt>
  <wpt lat="38.627503950000005" lon="-9.223008512023396">
    <ele>4.0</ele>
    <name>Parque de Campismo Piedense</name>
    <desc>name=Parque de Campismo Piedense; phone=+351 212 918 850;
    tourism=camp_site; website=https://sfuap.pt/Inicio/campismo/;
    id=way/158830582</desc>
    <link href="https://sfuap.pt/Inicio/campismo/"></link>
  </wpt>
  <wpt lat="38.6325679" lon="-9.227113402430788">
    <ele>5.0</ele>
    <name>Clube de Campismo do Concelho de Almada</name>
    <desc>name=Clube de Campismo do Concelho de Almada;
    tourism=camp_site; id=way/158830583</desc>
  </wpt>
  <wpt lat="37.1012104" lon="-8.718735512100402">
    <ele>49.0</ele>
    <name>Parque Orbitur Valverde</name>
    <desc>addr:city=Lagos; addr:postcode=8600-148;
    addr:street=Estrada da Praia da Luz;
    contact:website=https://www.orbitur.pt/pt/destinos/algarve/orbitur-valverde;
    name=Parque Orbitur Valverde; tourism=camp_site;
    id=way/159468496</desc>
    <link href="https://www.orbitur.pt/pt/destinos/algarve/orbitur-valverde">
    </link>
  </wpt>
  <wpt lat="37.0511143" lon="-8.88492809792298">
    <ele>47.0</ele>
    <name>Parque de Campismo Rural da Ingrina</name>
    <desc>
    contact:website=http://pt.infocamping.com/campings-Vila-Do-Bispo/Praia-da-Ingrina-Vila-Do-Bispo#;
    name=Parque de Campismo Rural da Ingrina; name:en=Camping
    Ingrina; phone=+351 282 639242; tourism=camp_site;
    id=way/159468504</desc>
    <link href="http://pt.infocamping.com/campings-Vila-Do-Bispo/Praia-da-Ingrina-Vila-Do-Bispo#">
    </link>
  </wpt>
  <wpt lat="37.0723216" lon="-8.830068913790722">
    <ele>54.0</ele>
    <name>Salema Eco Camp</name>
    <desc>addr:city=Budens; addr:postcode=8650-196;
    addr:street=Praia da Salema; backcountry=no;
    email=info@salemaecocamp.com; fee=yes; group_only=no;
    name=Salema Eco Camp; phone=+351282 695 201; power_supply=yes;
    sanitary_dump_station=yes; shower=yes; toilets=yes;
    tourism=camp_site; website=https://www.salemaecocamp.com/;
    wheelchair=yes; id=way/159468532</desc>
    <link href="https://www.salemaecocamp.com/"></link>
  </wpt>
  <wpt lat="37.13444135" lon="-8.589641928737603">
    <ele>28.0</ele>
    <name>Parque de Campismo Dourada Alvor</name>
    <desc>access=yes; caravans=yes; email=info@campingalvor.com;
    fee=yes; name=Parque de Campismo Dourada Alvor; phone=+351
    282459178; shower=yes; static_caravans=yes; tents=yes;
    toilets=yes; tourism=camp_site;
    website=https://www.campingalvor.com/; id=way/159468554</desc>
    <link href="https://www.campingalvor.com/"></link>
  </wpt>
  <wpt lat="37.09388335" lon="-8.671580281236686">
    <ele>37.0</ele>
    <name>Parque de Campismo da Trindade</name>
    <desc>barrier=wall; caravans=yes; drinking_water=yes;
    name=Parque de Campismo da Trindade; power_supply=yes;
    sanitary_dump_station=yes; shower=yes; tents=yes; toilets=yes;
    tourism=camp_site; id=way/159468561</desc>
  </wpt>
  <wpt lat="37.00559165" lon="-7.99039141909226">
    <ele>5.0</ele>
    <name>Parque de Campismo da Ilha de Faro</name>
    <desc>caravans=yes; drinking_water=yes; name=Parque de Campismo
    da Ilha de Faro; phone=+351 289 817876; shower=yes; tents=yes;
    tourism=camp_site;
    url=http://www.lifecooler.com/Portugal/alojamento/ParquedeCampismodaPraiadeFaro;
    wheelchair=limited; id=way/159469682</desc>
    <link href="http://www.lifecooler.com/Portugal/alojamento/ParquedeCampismodaPraiadeFaro">
    </link>
  </wpt>
  <wpt lat="37.1436906" lon="-7.600998642576581">
    <ele>18.0</ele>
    <name>Camping Ria Formosa - Cabanas de Tavira</name>
    <desc>caravans=yes; drinking_water=yes; fee=yes;
    internet_access=wlan; name=Camping Ria Formosa - Cabanas de
    Tavira; phone=+351 281 328887; power_supply=yes;
    sanitary_dump_station=yes; shower=yes; tents=yes; toilets=yes;
    tourism=camp_site; website=https://www.campingriaformosa.com/;
    wheelchair=yes; id=way/159473604</desc>
    <link href="https://www.campingriaformosa.com/"></link>
  </wpt>
  <wpt lat="37.1864651" lon="-7.548655382411543">
    <ele>73.0</ele>
    <name>Parque de Campismo e Caravanismo O Caliço</name>
    <desc>name=Parque de Campismo e Caravanismo O Caliço;
    tourism=camp_site;
    url=http://pt.camping.info/portugal/algarve/parque-de-campismo-e-caravanismo-o-cali%C3%A7o-16433?onMap=1;
    id=way/159473935</desc>
    <link href="http://pt.camping.info/portugal/algarve/parque-de-campismo-e-caravanismo-o-cali%C3%A7o-16433?onMap=1">
    </link>
  </wpt>
  <wpt lat="40.38246785" lon="-8.3865794215851">
    <ele>186.0</ele>
    <name>Parque de Campismo de Luso</name>
    <desc>name=Parque de Campismo de Luso; tourism=camp_site;
    id=way/160370623</desc>
  </wpt>
  <wpt lat="38.464915950000005" lon="-9.188800880170152">
    <ele>55.0</ele>
    <name>Campimeco</name>
    <desc>name=Campimeco; tourism=camp_site;
    id=way/160691053</desc>
  </wpt>
  <wpt lat="37.6046575" lon="-8.733351211162994">
    <ele>60.0</ele>
    <name>Zmar (Closed)</name>
    <desc>alt_name=Zmar Ecocamping; barrier=fence; name=Zmar
    (Closed); note=closed; tourism=camp_site;
    website=https://www.zmar.eu/; id=way/162593418</desc>
    <link href="https://www.zmar.eu/"></link>
  </wpt>
  <wpt lat="38.6069026" lon="-7.347052592067435">
    <ele>160.0</ele>
    <name>Rosário Rural Campsite</name>
    <desc>caravans=yes; email=info@campingrosario.com; mobile=+351
    963 679 945; name=Rosário Rural Campsite; phone=+351 268 459
    566; shower=yes; tents=yes; toilets=yes; tourism=camp_site;
    website=https://www.campingrosario.com; id=way/163607542</desc>
    <link href="https://www.campingrosario.com"></link>
  </wpt>
  <wpt lat="37.85331215" lon="-25.792023710800002">
    <ele>277.0</ele>
    <name>Parque de Campismo das Sete Cidades</name>
    <desc>barbecue_grill=yes; capacity:tents=&gt;100;
    drinking_water=yes; fee=no; name=Parque de Campismo das Sete
    Cidades; note=Big free campsite with green terraces. may
    sometimes not being usable; shower=yes; surface=grass;
    toilets=yes; tourism=camp_site; id=way/164702306</desc>
  </wpt>
  <wpt lat="41.6309899" lon="-7.24844891806681">
    <ele>286.0</ele>
    <name>Parque de Campismo do Rabaçal</name>
    <desc>name=Parque de Campismo do Rabaçal; tourism=camp_site;
    id=way/165663368</desc>
  </wpt>
  <wpt lat="39.41254585" lon="-7.374416007166891">
    <ele>501.0</ele>
    <name>Quinta do Maral Naturist Camping</name>
    <desc>landuse=meadow; name=Quinta do Maral Naturist Camping;
    tourism=camp_site; id=way/165987080</desc>
  </wpt>
  <wpt lat="38.49279225" lon="-9.09271309422762">
    <ele>89.0</ele>
    <name>Valbom</name>
    <desc>name=Valbom; operator=Campigir; tourism=camp_site;
    website=https://www.campigir.com/pt/valbom;
    id=way/168282093</desc>
    <link href="https://www.campigir.com/pt/valbom"></link>
  </wpt>
  <wpt lat="41.2986664" lon="-8.731946211141459">
    <ele>17.0</ele>
    <name>Parque de Campismo de Vila Chã</name>
    <desc>addr:city=Vila Chã; addr:housenumber=150;
    addr:postcode=4485-722; addr:street=Rua do Sol;
    email=info@campingvilacha.pt; name=Parque de Campismo de Vila
    Chã; note=confirmar área; phone=+351 229 283 163; source=bing;
    tourism=camp_site; website=https://campingvilacha.pt/;
    id=way/169055248</desc>
    <link href="https://campingvilacha.pt/"></link>
  </wpt>
  <wpt lat="39.54029525" lon="-8.318238892525724">
    <ele>146.0</ele>
    <name>Parque de Campismo de Castelo do Bode</name>
    <desc>addr:city=Abrantes; addr:country=PT; addr:place=Castelo
    do Bode; addr:postcode=2200-638;
    email=castelo.bode@fcmportugal.com; name=Parque de Campismo de
    Castelo do Bode; phone=+351 241 849 262; tourism=camp_site;
    website=https://www.fcmportugal.com/; id=way/173267729</desc>
    <link href="https://www.fcmportugal.com/"></link>
  </wpt>
  <wpt lat="40.680695549999996" lon="-8.7200788983643">
    <ele>3.0</ele>
    <name>Parque de Campismo Municipal de São Jacinto</name>
    <desc>addr:city=São Jacinto; addr:postcode=3800-901;
    addr:street=Estrada Nacional 327;
    contact:facebook=https://www.facebook.com/Parque-de-Campismo-Municipal-de-Aveiro-S-Jacinto-151953585473433/;
    contact:phone=+351 234 331 220; name=Parque de Campismo
    Municipal de São Jacinto; tourism=camp_site;
    id=way/180987263</desc>
  </wpt>
  <wpt lat="40.269524200000006" lon="-7.898378262981749">
    <ele>293.0</ele>
    <name>Parque de Campismo da Bica</name>
    <desc>name=Parque de Campismo da Bica; tourism=camp_site;
    id=way/181093822</desc>
  </wpt>
  <wpt lat="37.09716635" lon="-8.669934567559196">
    <ele>20.0</ele>
    <name>Camping Militar</name>
    <desc>access=private; description=Camp site for military
    personnel only.; landuse=military; name=Camping Militar;
    tourism=camp_site; id=way/181434087</desc>
  </wpt>
  <wpt lat="39.577513499999995" lon="-8.863445985298798">
    <ele>214.0</ele>
    <name>Parque Campismo das Pedreiras</name>
    <desc>internet_access=no; name=Parque Campismo das Pedreiras;
    tourism=camp_site; id=way/183421717</desc>
  </wpt>
  <wpt lat="41.507184699999996" lon="-8.777809437401352">
    <ele>5.0</ele>
    <name>Parque de Campismo Fão</name>
    <desc>addr:city=Fão; addr:postcode=4740-380; addr:street=Rua S.
    João de Deus; capacity=350; caravans=yes;
    email=parque@cccbarcelos.com; name=Parque de Campismo Fão;
    phone=+351 253 981 777; tents=yes; tourism=camp_site;
    website=https://www.cccbarcelos.com/; wheelchair=limited;
    id=way/185322862</desc>
    <link href="https://www.cccbarcelos.com/"></link>
  </wpt>
  <wpt lat="38.63565525" lon="-9.227062137338754">
    <ele>5.0</ele>
    <name>way/188747765</name>
    <desc>tourism=camp_site; id=way/188747765</desc>
  </wpt>
  <wpt lat="40.873502650000006" lon="-8.291553110176434">
    <ele>900.0</ele>
    <name>Parque de Campismo do Merujal</name>
    <desc>addr:city=Urrô; addr:street=Rua do Parque de Campismo;
    capacity=200; caravans=yes; name=Parque de Campismo do Merujal;
    note=Fechado para obras
    (https://averdade.com/2337352491/arouca-investe-735-mil-euros-no-unico-parque-de-campismo-do-concelho/);
    opening_hours=closed; operator=Naturveredas; tourism=camp_site;
    website=http://naturveredas.com/; id=way/192090262</desc>
    <link href="http://naturveredas.com/"></link>
  </wpt>
  <wpt lat="38.791767899999996" lon="-27.22432353453923">
    <ele>9.0</ele>
    <name>Parque de Campismo</name>
    <desc>name=Parque de Campismo; tourism=camp_site;
    id=way/196277747</desc>
  </wpt>
  <wpt lat="38.7919815" lon="-27.224642488730055">
    <ele>9.0</ele>
    <name>Parque de Campismo</name>
    <desc>name=Parque de Campismo; tourism=camp_site;
    id=way/196277748</desc>
  </wpt>
  <wpt lat="41.12072345" lon="-8.660879427320712">
    <ele>21.0</ele>
    <name>Parque de Campismo de Salgueiros</name>
    <desc>addr:city=Canidelo; addr:housenumber=263;
    addr:postcode=4400-397; addr:street=Rua do Campismo;
    caravans=yes; contact:email=campingsalgueiros@canidelo.net;
    contact:phone=+351 227 810 500; drinking_water=yes;
    internet_access=no; minstay=2 days; name=Parque de Campismo de
    Salgueiros; power_supply=yes; shower=yes; source=Bing;
    tents=yes; toilets=yes; tourism=camp_site;
    website=http://canidelo.net/campismo.html;
    id=way/199899057</desc>
    <link href="http://canidelo.net/campismo.html"></link>
  </wpt>
  <wpt lat="41.110151200000004" lon="-8.660815127723378">
    <ele>9.0</ele>
    <name>Parque de Campismo Marisol</name>
    <desc>addr:city=Vila Nova de Gaia; addr:housenumber=82;
    addr:postcode=4400; addr:street=Rua do Alto das Chaquedas;
    name=Parque de Campismo Marisol; phone=+351 227 135 942;
    stars=2; toilets:wheelchair=yes; tourism=camp_site;
    website=https://www.marisolcamping.com; wheelchair=yes;
    wheelchair:description:de=gemütlicher, ruhiger Campingplatz,
    barrierefreier Zugang zum Meer; id=way/199901460</desc>
    <link href="https://www.marisolcamping.com"></link>
  </wpt>
  <wpt lat="38.646972250000005" lon="-27.099816201394816">
    <ele>11.0</ele>
    <name>Parque de Campismo da Salga</name>
    <desc>name=Parque de Campismo da Salga; tourism=camp_site;
    id=way/202520081</desc>
  </wpt>
  <wpt lat="39.762696000000005" lon="-9.027350397214926">
    <ele>32.0</ele>
    <name>INATEL</name>
    <desc>name=INATEL; tourism=camp_site; id=way/203469126</desc>
  </wpt>
  <wpt lat="32.85407635" lon="-17.155226968178436">
    <ele>56.0</ele>
    <name>Parque de Campismo</name>
    <desc>caravans=no; drinking_water=yes; landuse=grass;
    name=Parque de Campismo; power_supply=yes; shower=yes;
    tents=yes; tourism=camp_site; id=way/205491326</desc>
  </wpt>
  <wpt lat="38.108336449999996" lon="-8.787523761606305">
    <ele>14.0</ele>
    <name>Parque de Campismo de Santo André</name>
    <desc>addr:city=Vila Nova de Santo André; barrier=fence;
    caravans=yes; drinking_water=yes; name=Parque de Campismo de
    Santo André; operator=FCMP -- Federação de Campismo e
    Montanhismo de Portugal; power_supply=yes;
    sanitary_dump_station=yes; shower=yes; smoking=separated;
    tents=yes; toilets=yes; tourism=camp_site; wheelchair=yes;
    id=way/206516425</desc>
  </wpt>
  <wpt lat="41.676434" lon="-8.822754972628264">
    <ele>22.0</ele>
    <name>Parque de Campismo do Cabedelo (Inatel)</name>
    <desc>name=Parque de Campismo do Cabedelo (Inatel);
    operator=INATEL; tourism=camp_site; wheelchair=yes;
    id=way/210588488</desc>
  </wpt>
  <wpt lat="41.8661501" lon="-8.859896941348389">
    <ele>5.0</ele>
    <name>Parque de Campismo Orbitur Caminha</name>
    <desc>addr:city=Vilarelho; addr:housenumber=777;
    addr:street=Rua da Foz do Minho; backcountry=no; bin=yes;
    brand=Orbitur; cabins=yes; caravans=yes;
    contact:email=infocaminha@orbitur.pt; contact:phone=+351 258
    921 295;
    contact:website=https://www.orbitur.pt/destinations/region-north/orbitur-caminha;
    drinking_water=yes; fee=yes; group_only=no;
    internet_access=wlan; internet_access:fee=customers;
    name=Parque de Campismo Orbitur Caminha; operator=Orbitur;
    power_supply=yes; reservation=yes;
    sanitary_dump_station=customers; shower=yes; tents=yes;
    toilets=yes; tourism=camp_site; wikidata=Q112011337;
    id=way/212505037</desc>
    <link href="https://www.orbitur.pt/destinations/region-north/orbitur-caminha">
    </link>
  </wpt>
  <wpt lat="39.4296509" lon="-9.202440548487031">
    <ele>37.0</ele>
    <name>Camping Orbitur Foz do Arelho</name>
    <desc>name=Camping Orbitur Foz do Arelho; tourism=camp_site;
    id=way/217590880</desc>
  </wpt>
  <wpt lat="39.0553985" lon="-7.91026301323113">
    <ele>145.0</ele>
    <name>Parque de Campismo da Albufeira do Maranhão</name>
    <desc>name=Parque de Campismo da Albufeira do Maranhão;
    tourism=camp_site; id=way/217597949</desc>
  </wpt>
  <wpt lat="37.8570831" lon="-8.78490575582002">
    <ele>41.0</ele>
    <name>Costa do Vizir Beach Village</name>
    <desc>addr:city=Porto Covo; addr:postcode=7520-437;
    caravans=yes; email=info@costadovizir.com; name=Costa do Vizir
    Beach Village; phone=+351 269 959 100; place=neighbourhood;
    shower=yes; tents=yes; toilets=yes; tourism=camp_site;
    website=https://www.costadovizir.com/; id=way/222636742</desc>
    <link href="https://www.costadovizir.com/"></link>
  </wpt>
  <wpt lat="38.01720005" lon="-8.484975984360897">
    <ele>117.0</ele>
    <name>Monte Naturista O Barão</name>
    <desc>caravans=yes; name=Monte Naturista O Barão;
    nudism=obligatory; static_caravans=yes; tents=yes;
    tourism=camp_site; website=https://montenaturista.com/;
    id=way/223882496</desc>
    <link href="https://montenaturista.com/"></link>
  </wpt>
  <wpt lat="38.50080535" lon="-8.92866468277559">
    <ele>24.0</ele>
    <name>Ecoparque do Outão</name>
    <desc>addr:city=Setúbal; addr:postcode=2900-182;
    addr:street=Estrada do Outão; barrier=fence; cabins=yes;
    caravans=yes; email=ecoparque.outao@mun-setubal.pt; fee=yes;
    fence_type=chain_link; motor_vehicle=yes; name=Ecoparque do
    Outão; note=Very hard ground; phone=+351 265 423 890;
    swimming_pool=no; tents=yes; tourism=camp_site; wlan=no;
    id=way/225935564</desc>
  </wpt>
  <wpt lat="39.7598612" lon="-9.024951581856936">
    <ele>49.0</ele>
    <name>Orbitur São Pedro de Moel</name>
    <desc>barrier=fence; fence_type=chain_link; name=Orbitur São
    Pedro de Moel; tents=yes; tourism=camp_site;
    id=way/228106878</desc>
  </wpt>
  <wpt lat="39.6952763" lon="-9.047597373314773">
    <ele>65.0</ele>
    <name>Camping Paredes de Vitória</name>
    <desc>access=customers; addr:postcode=2445-130; addr:street=Rua
    Mina do Azeiche; barrier=fence; email=camping.paredes@ufpm.pt;
    fee=yes; fence_type=chain_link; name=Camping Paredes de
    Vitória; opening_hours=Sep-Jun 08:00-16:00, Jul-Aug
    08:00-23:00; operator=UPMF; phone=+351 244589520;
    start_date=1985; tourism=camp_site; id=way/228111093</desc>
  </wpt>
  <wpt lat="41.0385343" lon="-8.428287802732605">
    <ele>43.0</ele>
    <name>Campidouro</name>
    <desc>name=Campidouro; tourism=camp_site;
    id=way/229047969</desc>
  </wpt>
  <wpt lat="40.22017485" lon="-8.884352858536433">
    <ele>11.0</ele>
    <name>Parque de Campismo de Quiaios</name>
    <desc>caravans=yes; drinking_water=yes; name=Parque de Campismo
    de Quiaios; shower=yes; tents=yes; tourism=camp_site;
    id=way/231467929</desc>
  </wpt>
  <wpt lat="39.4154353" lon="-9.506754019485397">
    <ele>46.0</ele>
    <name>Parque de Campismo das Berlengas</name>
    <desc>caravans=no; drinking_water=no; name=Parque de Campismo
    das Berlengas; operator=Posto de Turismo de Peniche; phone=+351
    262 789 571; power_supply=yes; shower=no; tents=yes;
    toilets=no; tourism=camp_site;
    website=https://www.berlengas.org/alojamento/; wheelchair=no;
    id=way/233892912</desc>
    <link href="https://www.berlengas.org/alojamento/"></link>
  </wpt>
  <wpt lat="38.12499435" lon="-8.777526009602385">
    <ele>30.0</ele>
    <name>Clube de Campismo de Lisboa</name>
    <desc>name=Clube de Campismo de Lisboa; tourism=camp_site;
    id=way/235446843</desc>
  </wpt>
  <wpt lat="40.5585205" lon="-8.743140617238453">
    <ele>20.0</ele>
    <name>Parque de Campismo da Vagueira</name>
    <desc>caravans=yes; name=Parque de Campismo da Vagueira;
    tents=yes; tourism=camp_site; id=way/237264505</desc>
  </wpt>
  <wpt lat="41.600374450000004" lon="-8.800419495618552">
    <ele>10.0</ele>
    <name>Parque de Campismo de Belinho</name>
    <desc>addr:city=Belinho; addr:postcode=4740-161;
    addr:street=Rua da Painça; email=geral@belinhenses.com;
    name=Parque de Campismo de Belinho;
    operator=http://www.belinhenses.com/; phone=+351 253 872 416;
    tourism=camp_site; id=way/240850390</desc>
  </wpt>
  <wpt lat="40.44757295" lon="-8.802366907489482">
    <ele>6.0</ele>
    <name>Parque de Campismo Municipal de Mira</name>
    <desc>caravans=yes; drinking_water=yes;
    email=parque.campismo@cm-mira.pt; name=Parque de Campismo
    Municipal de Mira; power_supply=yes; sanitary_dump_station=yes;
    shower=yes; tents=yes; toilets=yes; tourism=camp_site;
    website=http://parquecampismo.cm-mira.pt/;
    id=way/245247908</desc>
    <link href="http://parquecampismo.cm-mira.pt/"></link>
  </wpt>
  <wpt lat="40.444861200000005" lon="-8.800280275411032">
    <ele>9.0</ele>
    <name>Orbitur - Parque de Campismo da Praia de Mira</name>
    <desc>caravans=yes; email=infomira@orbitur.pt; name=Orbitur -
    Parque de Campismo da Praia de Mira; operator=Orbitur;
    phone=+351 231 471 234; tents=yes; tourism=camp_site;
    website=https://www.orbitur.pt/pt/destinos/regiao-centro/orbitur-mira;
    id=way/245248768</desc>
    <link href="https://www.orbitur.pt/pt/destinos/regiao-centro/orbitur-mira">
    </link>
  </wpt>
  <wpt lat="40.44809695" lon="-8.756386733633661">
    <ele>15.0</ele>
    <name>Vila Caia Camping</name>
    <desc>name=Vila Caia Camping; tourism=camp_site;
    id=way/245790451</desc>
  </wpt>
  <wpt lat="40.878768" lon="-8.669407149278161">
    <ele>15.0</ele>
    <name>Parque de Campismo do Furadouro</name>
    <desc>addr:city=Ovar; addr:country=PT; addr:postcode=3880-366;
    addr:street=Rua das Camarinhas; barrier=fence;
    fence_type=chain_link; name=Parque de Campismo do Furadouro;
    name:en=Camping Park of Furadouro; operator=Clube de Campismo
    de São João da Madeira; tourism=camp_site;
    id=way/251704089</desc>
  </wpt>
  <wpt lat="41.428983" lon="-8.267406534224675">
    <ele>595.0</ele>
    <name>Parque de Campismo da Penha</name>
    <desc>addr:city=Guimarães; addr:postcode=4810-148;
    addr:street=Monte da Penha; name=Parque de Campismo da Penha;
    operator=Turipenha; phone=+351 253 515912; tourism=camp_site;
    website=https://turipenha.pt/; id=way/255820221</desc>
    <link href="https://turipenha.pt/"></link>
  </wpt>
  <wpt lat="37.4958254" lon="-8.786180183106831">
    <ele>49.0</ele>
    <name>Parque de Campismo Monte Carvalhal da Rocha</name>
    <desc>name=Parque de Campismo Monte Carvalhal da Rocha;
    tourism=camp_site;
    website=https://www.montecarvalhaldarocha.com/;
    id=way/259928670</desc>
    <link href="https://www.montecarvalhaldarocha.com/"></link>
  </wpt>
  <wpt lat="40.15828285" lon="-8.1979625791852">
    <ele>107.0</ele>
    <name>Parque Municipal de Campismo de Serpins</name>
    <desc>access=customers; addr:city=Serpins; addr:country=PT;
    addr:postcode=3200-358; addr:street=Largo da Senhora da Graça;
    backcountry=no; bbq=yes; cabins=yes; caravans=yes;
    check_date=2024-08-24; contact:email=geral@campismoserpins.pt;
    contact:phone=+351 914 871 330, +351 239 401 084;
    contact:website=https://www.campismoserpins.pt/; dog=yes;
    drinking_water=yes; fee=yes; group_only=no;
    internet_access=wlan; internet_access:fee=customers;
    name=Parque Municipal de Campismo de Serpins; payment:cash=yes;
    payment:credit_cards=yes; payment:debit_cards=yes;
    picnic_table=no; power_supply=yes; shower=yes;
    start_date=1995-06-03; tents=yes; toilets=yes;
    tourism=camp_site; id=way/261919707</desc>
    <link href="https://www.campismoserpins.pt/"></link>
  </wpt>
  <wpt lat="40.520157600000005" lon="-7.54202377355624">
    <ele>576.0</ele>
    <name>Quinta das Cegonhas</name>
    <desc>addr:city=Portugal; addr:street=Parque Natural da Serra
    da Estrela EM555-1 6290-335 Gouveia Portugal; name=Quinta das
    Cegonhas; toilets:wheelchair=yes; tourism=camp_site;
    wheelchair=limited; id=way/263554637</desc>
  </wpt>
  <wpt lat="41.764269" lon="-8.189482415239514">
    <ele>647.0</ele>
    <name>Parque de Campismo de Cerdeira</name>
    <desc>addr:housenumber=400; addr:street=Rua da Cerdeira;
    alt_name=Parque de Cerdeira; barrier=fence; name=Parque de
    Campismo de Cerdeira; phone=+351 253 351 005; source=bing,
    survey; stars=3; tourism=camp_site;
    website=https://parquecerdeira.com/; id=way/266865679</desc>
    <link href="https://parquecerdeira.com/"></link>
  </wpt>
  <wpt lat="37.52472145" lon="-8.77618641849519">
    <ele>48.0</ele>
    <name>Parque de Campismo Zambujeira</name>
    <desc>barrier=fence; caravans=yes; drinking_water=yes;
    mobile=+351 968 292 236; name=Parque de Campismo Zambujeira;
    phone=+351 283 958 407; power_supply=yes;
    sanitary_dump_station=yes; shower=yes; tents=yes; toilets=yes;
    toilets:wheelchair=limited; tourism=camp_site;
    website=https://www.campingzambujeira.com; wheelchair=limited;
    id=way/268131796</desc>
    <link href="https://www.campingzambujeira.com"></link>
  </wpt>
  <wpt lat="38.6510208" lon="-9.242018733261679">
    <ele>9.0</ele>
    <name>Parque Nacional de Escotismo da Caparica (PNEC)</name>
    <desc>name=Parque Nacional de Escotismo da Caparica (PNEC);
    operator=AEP - Associação dos Escoteiros de Portugal;
    short_name=PNEC; tourism=camp_site;
    website=https://centros.escoteiros.pt/pt-pt/pnec/;
    id=way/278338218</desc>
    <link href="https://centros.escoteiros.pt/pt-pt/pnec/"></link>
  </wpt>
  <wpt lat="39.7352911" lon="-9.036202366927505">
    <ele>61.0</ele>
    <name>Acampamento Baptista</name>
    <desc>access=private; capacity:persons=120; caravans=no;
    fee=yes; name=Acampamento Baptista; operator=Convenção Baptista
    Portuguesa; static_caravans=no; tents=no; tourism=camp_site;
    id=way/278520618</desc>
  </wpt>
  <wpt lat="39.13569805" lon="-9.378192443517591">
    <ele>29.0</ele>
    <name>way/280780554</name>
    <desc>tourism=camp_site; id=way/280780554</desc>
  </wpt>
  <wpt lat="38.64433365" lon="-28.12999888239645">
    <ele>22.0</ele>
    <name>Parque de Campismo da Urzelina</name>
    <desc>name=Parque de Campismo da Urzelina; tourism=camp_site;
    id=way/280971056</desc>
  </wpt>
  <wpt lat="39.42636365" lon="-7.385402639450625">
    <ele>395.0</ele>
    <name>Campscape Beira Marvao</name>
    <desc>access=customers; addr:city=Beirã-Marvão;
    addr:postcode=7330-013; addr:street=Estrada de Castelo de Vide;
    capacity:persons=0;
    contact:website=https://campscapebeiramarvao.com/;
    description=adults only (16+) – check-in before 19:00;
    minstay=2 days; name=Campscape Beira Marvao; tourism=camp_site;
    id=way/282783265</desc>
    <link href="https://campscapebeiramarvao.com/"></link>
  </wpt>
  <wpt lat="40.6240537" lon="-8.712479474431818">
    <ele>13.0</ele>
    <name>Parque de Campismo da Gafanha</name>
    <desc>name=Parque de Campismo da Gafanha; tourism=camp_site;
    id=way/286097802</desc>
  </wpt>
  <wpt lat="41.4923407" lon="-6.2848053154408365">
    <ele>655.0</ele>
    <name>Douro Camping</name>
    <desc>addr:city=Miranda do Douro; addr:postcode=5210-212;
    addr:street=Rua do Parque de Campismo; alt_name=Parque de
    Campismo Miranda do Douro,Parque de Campismo de Santa Luzia;
    caravans=yes; check_date=2024-08-02;
    contact:email=reservas.dourocamping@gmail.com;
    contact:mobile=+351 925642243; contact:phone=+351 273417172;
    drinking_water=yes; ele=655; internet_access=wlan;
    internet_access:fee=customers;
    internet_access:ssid=DouroCamping_Bar; mobile=+351925642243;
    name=Douro Camping; payment:cash=yes; payment:credit_cards=yes;
    payment:debit_cards=yes; picnic_table=yes; power_supply=yes;
    reservation=yes; shower=yes; tents=yes; toilets=yes;
    tourism=camp_site; id=way/290697177</desc>
  </wpt>
  <wpt lat="40.28737285" lon="-7.528571495707381">
    <ele>1047.0</ele>
    <name>Parque do Pião</name>
    <desc>name=Parque do Pião; source=DGT/COS2018_v1;
    source:geometry:date=2018; source:geometry:description=Parques
    de campismo; source:geometry:id=79954;
    source:geometry:ref=1.6.2.1; tourism=camp_site;
    id=way/291391731</desc>
  </wpt>
  <wpt lat="37.9102733" lon="-8.794471317142316">
    <ele>21.0</ele>
    <name>Parque de Campismo de São Torpes</name>
    <desc>barrier=fence; fence_type=chain_link; name=Parque de
    Campismo de São Torpes; tourism=camp_site;
    id=way/292110220</desc>
  </wpt>
  <wpt lat="41.5065745" lon="-7.19730617381037">
    <ele>216.0</ele>
    <name>Três Rios-Maravilha</name>
    <desc>fee=yes; name=Três Rios-Maravilha; tourism=camp_site;
    id=way/299659764</desc>
  </wpt>
  <wpt lat="39.875687" lon="-8.965495306329334">
    <ele>7.0</ele>
    <name>Parque de Campismo da Praia da Vieira</name>
    <desc>access=customers; addr:city=Praia da Vieira;
    addr:street=Rua Dom Dinis (EN 349); addr:village=Vieira de
    Leiria - Marinha Grande; fee=yes; name=Parque de Campismo da
    Praia da Vieira; phone=+351 244691659; tourism=camp_site;
    id=way/300039425</desc>
  </wpt>
  <wpt lat="40.5995791" lon="-8.752022041321347">
    <ele>2.0</ele>
    <name>Costa Nova</name>
    <desc>addr:city=Gafanha da Encarnação; addr:housenumber=592;
    addr:street=Avenida José Estevão; capacity=450; caravans=yes;
    dog=yes; drinking_water=yes; email=info@campingcostanova.com;
    fee=yes; name=Costa Nova; phone=+351 234 393 220;
    power_supply=yes; sanitary_dump_station=yes; shower=yes;
    stars=3; static_caravans=no; tents=yes; toilets=yes;
    tourism=camp_site; website=https://campingcostanova.com/;
    id=way/301852970</desc>
    <link href="https://campingcostanova.com/"></link>
  </wpt>
  <wpt lat="40.9695626" lon="-7.259384654738373">
    <ele>715.0</ele>
    <name>Parque Municipal de Campismo</name>
    <desc>name=Parque Municipal de Campismo; operator=Câmara
    Municipal de Mêda; tourism=camp_site; id=way/302555172</desc>
  </wpt>
  <wpt lat="39.8168643" lon="-8.38204906253988">
    <ele>315.0</ele>
    <name>Parque de Campismo e Caravanismo de Alvaiázere</name>
    <desc>addr:housenumber=39; addr:postcode=3250-108;
    addr:street=Rua Doutor Filipe Antunes dos Santos; caravans=yes;
    email=parquecampismoalvaiazere@gmail.com; fee=yes; name=Parque
    de Campismo e Caravanismo de Alvaiázere; opening_hours=24/7;
    phone=+351 918 662 285, +351 915 947 081; tourism=camp_site;
    id=way/303076072</desc>
  </wpt>