<?xml version="1.0" encoding="utf-8"?>
<gpx xmlns="http://www.topografix.com/GPX/1/1"
xmlns:xsi="http://www.w3.org/2001/XMLSchema-instance"
xsi:schemaLocation="http://www.topografix.com/GPX/1/1 http://www.topografix.com/GPX/1/1/gpx.xsd"
version="1.1" creator="togpx">
  <metadata>
    <copyright>
      <license>"osm3s": { "timestamp_osm_base":
      "2025-08-01T10:02:59Z", "timestamp_areas_base":
      "2025-08-01T08:00:16Z", "copyright": "The data included in
      this document is from www.openstreetmap.org. The data is made
      available under ODbL." } // SRTM: { Elevation data missing in
      OSM was added by the NASA Shuttle Radar Topography Mission as
      public release version, if available there. } // { Check for
      latest version of this file on:
      https://github.com/GpxFeed/campgrounds }</license>
    </copyright>
  </metadata>
  <wpt lat="44.0951204" lon="22.0096387">
    <ele>450.0</ele>
    <name>Борско језеро</name>
    <desc>name=Борско језеро; name:en=Borsko jezero; name:sr=Борско
    језеро; name:sr-Latn=Borsko jezero; tourism=camp_site;
    id=node/389946763</desc>
  </wpt>
  <wpt lat="44.4845406" lon="22.4572049">
    <ele>45.0</ele>
    <name>Камп „Мирочка вода“</name>
    <desc>int_name=Kamp „Mirocka voda“; name=Камп „Мирочка вода“;
    name:sr=Камп „Мирочка вода“; name:sr-Latn=Kamp „Miročka voda“;
    phone=+381 19 801290; tourism=camp_site;
    website=https://www.camping.rs/en/c/campsite-mirocka-voda-serbia/;
    id=node/827013217</desc>
    <link href="https://www.camping.rs/en/c/campsite-mirocka-voda-serbia/">
    </link>
  </wpt>
  <wpt lat="45.717314" lon="18.9190132">
    <ele>81.0</ele>
    <name>Буџак</name>
    <desc>email=info@camping-apatin.net; fax=+386 45 768 850;
    int_name=Budzak; internet_access=no; name=Буџак; name:sr=Буџак;
    name:sr-Latn=Budžak; phone=+386 45 741 563; tourism=camp_site;
    website=http://www.camping-apatin.net;
    id=node/1303292298</desc>
    <link href="http://www.camping-apatin.net"></link>
  </wpt>
  <wpt lat="44.6481492" lon="21.8363317">
    <ele>66.0</ele>
    <name>Adventure Hub Camp</name>
    <desc>abandoned=yes; access=yes; capacity=100; dog=yes;
    fee=yes; name=Adventure Hub Camp; payment:cash=yes;
    tourism=camp_site; id=node/1361065781</desc>
  </wpt>
  <wpt lat="44.0443503" lon="20.0628618">
    <ele>548.0</ele>
    <name>Ранч „Орлово гнездо“</name>
    <desc>abandoned:building=restaurant; access=no; int_name=Ranc
    „Orlovo gnezdo“; name=Ранч „Орлово гнездо“; name:sr=Ранч
    „Орлово гнездо“; name:sr-Latn=Ranč „Orlovo gnezdo“;
    tourism=camp_site; id=node/1395135568</desc>
  </wpt>
  <wpt lat="45.797162" lon="20.1445417">
    <ele>76.0</ele>
    <name>node/1434095620</name>
    <desc>tourism=camp_site; id=node/1434095620</desc>
  </wpt>
  <wpt lat="42.0457899" lon="20.70131">
    <ele>1488.0</ele>
    <name>Camping Silojca</name>
    <desc>name=Camping Silojca; tourism=camp_site;
    id=node/1908452351</desc>
  </wpt>
  <wpt lat="44.745056" lon="21.1135383">
    <ele>69.0</ele>
    <name>Camping Raj</name>
    <desc>name=Camping Raj; tourism=camp_site;
    id=node/1918797057</desc>
  </wpt>
  <wpt lat="43.0735949" lon="22.8407278">
    <ele>703.0</ele>
    <name>node/2276769087</name>
    <desc>tourism=camp_site; id=node/2276769087</desc>
  </wpt>
  <wpt lat="43.0722234" lon="22.8430452">
    <ele>705.0</ele>
    <name>node/2276769089</name>
    <desc>tourism=camp_site; id=node/2276769089</desc>
  </wpt>
  <wpt lat="43.0707186" lon="22.8462853">
    <ele>704.0</ele>
    <name>node/2276769090</name>
    <desc>tourism=camp_site; id=node/2276769090</desc>
  </wpt>
  <wpt lat="43.7234634" lon="19.8032663">
    <ele>917.0</ele>
    <name>Iva camp</name>
    <desc>name=Iva camp; operator=Ратко Радибратович;
    phone=+381643055510; tourism=camp_site;
    id=node/2306126162</desc>
  </wpt>
  <wpt lat="43.9995211" lon="19.585315">
    <ele>225.0</ele>
    <name>Jovanović</name>
    <desc>maxtents=10; name=Jovanović; tourism=camp_site;
    website=https://www.camping.rs/en/c/crvica/;
    id=node/2485115313</desc>
    <link href="https://www.camping.rs/en/c/crvica/"></link>
  </wpt>
  <wpt lat="44.6804222" lon="22.403187">
    <ele>63.0</ele>
    <name>node/2493609315</name>
    <desc>fee=no; tourism=camp_site; id=node/2493609315</desc>
  </wpt>
  <wpt lat="43.5237157" lon="19.7431368">
    <ele>825.0</ele>
    <name>node/2826108039</name>
    <desc>tourism=camp_site; id=node/2826108039</desc>
  </wpt>
  <wpt lat="43.52279" lon="19.7409491">
    <ele>812.0</ele>
    <name>node/2826108040</name>
    <desc>tourism=camp_site; id=node/2826108040</desc>
  </wpt>
  <wpt lat="42.2065274" lon="20.7523874">
    <ele>452.0</ele>
    <name>Camp Prizren</name>
    <desc>name=Camp Prizren; note=Open during the DokuFest and the
    summer.; phone=+38344360000; tourism=camp_site;
    website=https://www.facebook.com/CampPrizren;
    id=node/3065611122</desc>
    <link href="https://www.facebook.com/CampPrizren"></link>
  </wpt>
  <wpt lat="44.219879" lon="19.8578725">
    <ele>258.0</ele>
    <name>Шарено Платно</name>
    <desc>int_name=Sareno Platno; name=Шарено Платно;
    name:sr=Шарено Платно; name:sr-Latn=Šareno Platno;
    tourism=camp_site; id=node/3190051867</desc>
  </wpt>
  <wpt lat="42.519782" lon="20.1728722">
    <ele>1715.0</ele>
    <name>Bjeshket e Junikut</name>
    <desc>name=Bjeshket e Junikut; tourism=camp_site;
    id=node/3209653992</desc>
  </wpt>
  <wpt lat="43.4060818" lon="19.9053579">
    <ele>1070.0</ele>
    <name>Auto kamp Luković</name>
    <desc>name=Auto kamp Luković; name:sr=Ауто камп Луковић;
    tourism=camp_site; id=node/3547896797</desc>
  </wpt>
  <wpt lat="43.9591428" lon="21.2653241">
    <ele>213.0</ele>
    <name>Ruza vetrova</name>
    <desc>caravans=yes; drinking_water=no; name=Ruza vetrova;
    power_supply=yes; shower=yes; tents=yes; toilets=yes;
    tourism=camp_site; id=node/3627101847</desc>
  </wpt>
  <wpt lat="45.7671976" lon="19.1069362">
    <ele>88.0</ele>
    <name>Long Tour Bike Camp</name>
    <desc>fee=yes; name=Long Tour Bike Camp; phone=+38166437172;
    tourism=camp_site; website=www.longtour.org;
    id=node/3702853134</desc>
    <link href="www.longtour.org"></link>
  </wpt>
  <wpt lat="42.1990806" lon="20.8456005">
    <ele>1290.0</ele>
    <name>Kopanavoda</name>
    <desc>name=Kopanavoda; tourism=camp_site;
    id=node/4304685690</desc>
  </wpt>
  <wpt lat="42.5073574" lon="21.9046807">
    <ele>380.0</ele>
    <name>Enigma camping</name>
    <desc>caravans=yes; name=Enigma camping; name:cs=Enigma camp;
    tents=yes; tourism=camp_site;
    website=https://www.enigmacamping.com/;
    id=node/4385143889</desc>
    <link href="https://www.enigmacamping.com/"></link>
  </wpt>
  <wpt lat="41.9419132" lon="20.6810282">
    <ele>1542.0</ele>
    <name>node/4407818208</name>
    <desc>tourism=camp_site; id=node/4407818208</desc>
  </wpt>
  <wpt lat="42.6184336" lon="20.1266533">
    <ele>1883.0</ele>
    <name>node/4512104337</name>
    <desc>tourism=camp_site; id=node/4512104337</desc>
  </wpt>
  <wpt lat="44.7265343" lon="21.5542896">
    <ele>86.0</ele>
    <name>Пескови (стрелиште)</name>
    <desc>int_name=Peskovi (streliste); name=Пескови (стрелиште);
    name:sr=Пескови (стрелиште); name:sr-Latn=Peskovi (strelište);
    tourism=camp_site; id=node/4764295921</desc>
  </wpt>
  <wpt lat="42.7248359" lon="21.4785774">
    <ele>736.0</ele>
    <name>node/4836727021</name>
    <desc>tourism=camp_site; id=node/4836727021</desc>
  </wpt>
  <wpt lat="42.3904985" lon="20.4023884">
    <ele>404.0</ele>
    <name>Perrallafest</name>
    <desc>email=ingo@perrallafest.org; name=Perrallafest;
    name:en=PerrallaFest; name:sq=PerrallaFest;
    name:sr=Perrallafest; tourism=camp_site;
    website=http://perrallafest.org; id=node/4893594921</desc>
    <link href="http://perrallafest.org"></link>
  </wpt>
  <wpt lat="44.9608485" lon="19.5230645">
    <ele>77.0</ele>
    <name>Засавица</name>
    <desc>int_name=Zasavica; internet_access=wlan; name=Засавица;
    name:sr=Засавица; name:sr-Latn=Zasavica; tourism=camp_site;
    website=http://www.zasavica.org.rs/en/camping-zasavica-auto-camp/;
    id=node/4907872713</desc>
    <link href="http://www.zasavica.org.rs/en/camping-zasavica-auto-camp/">
    </link>
  </wpt>
  <wpt lat="43.3490159" lon="22.2025034">
    <ele>1086.0</ele>
    <name>node/4908145323</name>
    <desc>tourism=camp_site; id=node/4908145323</desc>
  </wpt>
  <wpt lat="43.3637154" lon="22.0831727">
    <ele>803.0</ele>
    <name>node/4908155422</name>
    <desc>tourism=camp_site; id=node/4908155422</desc>
  </wpt>
  <wpt lat="44.8329007" lon="20.4256445">
    <ele>71.0</ele>
    <name>node/4935420393</name>
    <desc>tourism=camp_site; id=node/4935420393</desc>
  </wpt>
  <wpt lat="42.688952" lon="20.1742349">
    <ele>865.0</ele>
    <name>plazhi</name>
    <desc>name=plazhi; name:sq=plazhi; tourism=camp_site;
    id=node/4942458223</desc>
  </wpt>
  <wpt lat="42.5507448" lon="20.2547966">
    <ele>678.0</ele>
    <name>node/4960587157</name>
    <desc>backcountry=yes; caravans=no; description=the restaurant
    let people camp for free in a field. no shower. electricity,
    wifi, toilet, water in the restaurant.; fee=no;
    internet_access=wlan; internet_access:fee=no;
    sanitary_dump_station=no; tents=yes; tourism=camp_site;
    wheelchair=no; id=node/4960587157</desc>
  </wpt>
  <wpt lat="44.3247392" lon="22.5363916">
    <ele>52.0</ele>
    <name>St. Mokranjac</name>
    <desc>name=St. Mokranjac; phone=+381 64 2020180;
    tourism=camp_site; website=https://stmokranjac.com/;
    id=node/4966096821</desc>
    <link href="https://stmokranjac.com/"></link>
  </wpt>
  <wpt lat="43.8723496" lon="19.8822914">
    <ele>670.0</ele>
    <name>Kamping odmorište Tatinac</name>
    <desc>caravans=yes; int_name=Kamping odmoriste Tatinac;
    name=Kamping odmorište Tatinac; name:en=Camping Tatinac;
    name:sr=Камп Татинац; name:sr-Latn=Kamping odmorište Tatinac;
    phone=+381 64 121 98 02; tourism=camp_site;
    website=https://www.facebook.com/odmor.tatinac;
    id=node/4969864291</desc>
    <link href="https://www.facebook.com/odmor.tatinac"></link>
  </wpt>
  <wpt lat="43.7977118" lon="19.940663">
    <ele>399.0</ele>
    <name>Camping Potpece</name>
    <desc>fixme=exact location; name=Camping Potpece;
    tourism=camp_site; id=node/4969876186</desc>
  </wpt>
  <wpt lat="43.7503078" lon="20.0715145">
    <ele>347.0</ele>
    <name>Zuta Stena</name>
    <desc>fixme=exact location; name=Zuta Stena; tourism=camp_site;
    id=node/4969885605</desc>
  </wpt>
  <wpt lat="43.7207243" lon="20.154258">
    <ele>476.0</ele>
    <name>Camping Sljivik</name>
    <desc>fixme=exact location; name=Camping Sljivik;
    tourism=camp_site; id=node/4969888797</desc>
  </wpt>
  <wpt lat="43.2572819" lon="19.573136">
    <ele>1309.0</ele>
    <name>Camping Grlica</name>
    <desc>description=The camp does not work. There is place for
    tents.; name=Camping Grlica; tourism=camp_site;
    id=node/4969909715</desc>
  </wpt>
  <wpt lat="43.2833328" lon="19.565261">
    <ele>1261.0</ele>
    <name>Camping Bor</name>
    <desc>fixme=exact location; name=Camping Bor;
    tourism=camp_site; id=node/4969911740</desc>
  </wpt>
  <wpt lat="43.4167442" lon="19.8480678">
    <ele>1145.0</ele>
    <name>Camping Zlatar</name>
    <desc>fixme=exact location; name=Camping Zlatar;
    tourism=camp_site; id=node/4969916283</desc>
  </wpt>
  <wpt lat="43.6742215" lon="19.6395743">
    <ele>1099.0</ele>
    <name>Camping Ribnica</name>
    <desc>fixme=exact location; name=Camping Ribnica;
    tourism=camp_site; id=node/4969920878</desc>
  </wpt>
  <wpt lat="43.7347301" lon="19.7701912">
    <ele>882.0</ele>
    <name>Camping Golovo</name>
    <desc>fixme=exact location; name=Camping Golovo;
    tourism=camp_site; id=node/4969946405</desc>
  </wpt>
  <wpt lat="43.9702757" lon="19.5411855">
    <ele>224.0</ele>
    <name>Camping Drina</name>
    <desc>fee=yes; name=Camping Drina; tourism=camp_site;
    id=node/4970022209</desc>
  </wpt>
  <wpt lat="45.2235298" lon="19.6034804">
    <ele>76.0</ele>
    <name>node/4982759621</name>
    <desc>tourism=camp_site; id=node/4982759621</desc>
  </wpt>
  <wpt lat="44.7181411" lon="21.5353079">
    <ele>74.0</ele>
    <name>Пескови Сас Стрелиште</name>
    <desc>int_name=Peskovi Sas Streliste; name=Пескови Сас
    Стрелиште; name:sr=Пескови Сас Стрелиште; name:sr-Latn=Peskovi
    Sas Strelište; tourism=camp_site; id=node/4987485221</desc>
  </wpt>
  <wpt lat="43.9580986" lon="19.4266293">
    <ele>233.0</ele>
    <name>Камп (не ради)</name>
    <desc>fixme=I am not sure how to designate that camp is out of
    order. It is there but does not accept guests.; int_name=Kamp
    (ne radi); name=Камп (не ради); name:en=Camp (Out of order);
    operational_status=out_of_order; tourism=camp_site;
    id=node/5018402323</desc>
  </wpt>
  <wpt lat="43.4187181" lon="20.4758362">
    <ele>1059.0</ele>
    <name>Бревина</name>
    <desc>int_name=Brevina; name=Бревина; name:sr=Бревина;
    name:sr-Latn=Brevina; tourism=camp_site;
    id=node/5035660856</desc>
  </wpt>
  <wpt lat="42.7051853" lon="20.0484543">
    <ele>1302.0</ele>
    <name>Haxhaj - Lagjja e Ahmet KURTIT</name>
    <desc>addr:postcode=30000; addr:street=Rrugicat e Haxhajve;
    name=Haxhaj - Lagjja e Ahmet KURTIT; name:en=Ahmet KURTI
    Street- Haxhaj; name:sq=Haxhaj - Lagjja e Ahmet KURTIT;
    operator=KURTAJ; tourism=camp_site; id=node/5037783921</desc>
  </wpt>
  <wpt lat="42.4850373" lon="20.2060333">
    <ele>1587.0</ele>
    <name>Stani i Ali Avdiu</name>
    <desc>name=Stani i Ali Avdiu; name:sq=Stani i Ali Avdiu;
    tourism=camp_site; id=node/5039981622</desc>
  </wpt>
  <wpt lat="42.3715346" lon="20.9901492">
    <ele>1183.0</ele>
    <name>Livadhet e kishës</name>
    <desc>name=Livadhet e kishës; tourism=camp_site;
    id=node/5111145921</desc>
  </wpt>
  <wpt lat="42.7797136" lon="20.5371081">
    <ele>518.0</ele>
    <name>node/5124250621</name>
    <desc>tourism=camp_site; id=node/5124250621</desc>
  </wpt>
  <wpt lat="43.069876" lon="22.6732018">
    <ele>420.0</ele>
    <name>node/5126789125</name>
    <desc>tourism=camp_site; id=node/5126789125</desc>
  </wpt>
  <wpt lat="45.0419452" lon="19.262234">
    <ele>75.0</ele>
    <name>node/5145926530</name>
    <desc>tourism=camp_site; id=node/5145926530</desc>
  </wpt>
  <wpt lat="45.2059601" lon="19.940202">
    <ele>72.0</ele>
    <name>node/5158297422</name>
    <desc>tourism=camp_site; id=node/5158297422</desc>
  </wpt>
  <wpt lat="42.619141" lon="20.6188235">
    <ele>415.0</ele>
    <name>Kanjoni i Pograxhës</name>
    <desc>name=Kanjoni i Pograxhës; tourism=camp_site;
    id=node/5243965842</desc>
  </wpt>
  <wpt lat="45.1559771" lon="19.9895398">
    <ele>209.0</ele>
    <name>Žuta kuća</name>
    <desc>name=Žuta kuća; tourism=camp_site;
    id=node/5365677031</desc>
  </wpt>
  <wpt lat="44.7050691" lon="21.1641787">
    <ele>80.0</ele>
    <name>Keti</name>
    <desc>addr:street=Sutjeska 4; name=Keti; tourism=camp_site;
    id=node/5526531821</desc>
  </wpt>
  <wpt lat="43.7215134" lon="19.7084492">
    <ele>988.0</ele>
    <name>node/5577651601</name>
    <desc>tourism=camp_site; id=node/5577651601</desc>
  </wpt>
  <wpt lat="44.6410681" lon="21.8393054">
    <ele>109.0</ele>
    <name>Camping Asin</name>
    <desc>addr:city=Dobra; addr:country=RS; addr:postcode=12224;
    addr:street=Cezava; internet_access=wlan; name=Camping Asin;
    name:en=Camping Asin; phone=+381 62 8089 246;
    tourism=camp_site; website=https://camping-asin.com/;
    id=node/5609213946</desc>
    <link href="https://camping-asin.com/"></link>
  </wpt>
  <wpt lat="43.93751" lon="21.3675296">
    <ele>120.0</ele>
    <name>node/5612317522</name>
    <desc>tourism=camp_site; id=node/5612317522</desc>
  </wpt>
  <wpt lat="44.2370746" lon="21.1168307">
    <ele>101.0</ele>
    <name>node/5612317523</name>
    <desc>tourism=camp_site; id=node/5612317523</desc>
  </wpt>
  <wpt lat="43.1847429" lon="22.4088889">
    <ele>661.0</ele>
    <name>Natural Camp Area - No facilities available</name>
    <desc>description=Natural camp area. ; name=Natural Camp Area -
    No facilities available; tourism=camp_site;
    id=node/5623272638</desc>
  </wpt>
  <wpt lat="44.7638453" lon="20.8971156">
    <ele>74.0</ele>
    <name>Hostel &amp; Kamp za bicikliste</name>
    <desc>addr:city=Skorenovac; addr:housenumber=35;
    addr:postcode=26228; addr:street=Петефи Шандора;
    email=edukativ.salas@gmail.com,dani.elizabeta@gmail.com;
    internet_access=wlan; internet_access:fee=no; name=Hostel &amp;
    Kamp za bicikliste; name:en=Hostel &amp; Cyclo Camp;
    name:hu=Hostel &amp; Bicikli kemping; opening_hours=24/7;
    operator=Vamos Elizabeta; phone=+381 64 4913367;
    ref:RS:kucni_broj=6244587; tents=yes; tourism=camp_site;
    website=http://www.szekelytur.com; id=node/5651107522</desc>
    <link href="http://www.szekelytur.com"></link>
  </wpt>
  <wpt lat="44.7659414" lon="21.3952041">
    <ele>67.0</ele>
    <name>Кампинг одмориште Калиновац</name>
    <desc>int_name=Kamping odmoriste Kalinovac; name=Кампинг
    одмориште Калиновац; name:en=Kalinovac Camping; name:sr=Кампинг
    одмориште Калиновац; tourism=camp_site;
    id=node/5715098330</desc>
  </wpt>
  <wpt lat="44.790833" lon="21.2252115">
    <ele>69.0</ele>
    <name>Camping S.R. Marina</name>
    <desc>internet_access=wlan; name=Camping S.R. Marina;
    name:en=Camping Dragan; operator=Dragan; tourism=camp_site;
    id=node/5747671021</desc>
  </wpt>
  <wpt lat="45.241221" lon="20.0255093">
    <ele>78.0</ele>
    <name>Coffeecamp-Kovilj</name>
    <desc>addr:city=Kovilj; addr:housenumber=60;
    addr:postcode=21243; addr:street=Бранка Бајића;
    internet_access=wlan; name=Coffeecamp-Kovilj; phone=+381 65
    2090807; ref:RS:kucni_broj=5517277; tourism=camp_site;
    website=https://www.coffeecamp-kovilj.com/;
    id=node/5782151095</desc>
    <link href="https://www.coffeecamp-kovilj.com/"></link>
  </wpt>
  <wpt lat="42.9620646" lon="22.5970572">
    <ele>859.0</ele>
    <name>Локација бр 2</name>
    <desc>int_name=Lokacija br 2; name=Локација бр 2;
    tourism=camp_site; id=node/5791744554</desc>
  </wpt>
  <wpt lat="45.3888148" lon="19.8196585">
    <ele>77.0</ele>
    <name>Фарма 47</name>
    <desc>int_name=Farma 47; name=Фарма 47; name:sr=Фарма 47;
    name:sr-Latn=Farma 47; tourism=camp_site;
    website=https://www.agrotourism-novisad.com/;
    id=node/5862086290</desc>
    <link href="https://www.agrotourism-novisad.com/"></link>
  </wpt>
  <wpt lat="44.618549" lon="20.5551694">
    <ele>281.0</ele>
    <name>Camping Belgrade Avala</name>
    <desc>access=customers; capacity=30; currency:EUR=yes; fee=yes;
    internet_access=wlan; internet_access:fee=no; name=Camping
    Belgrade Avala; operator=Camping Belgrade Avala;
    payment:cash=yes; phone=+381695551227; tourism=camp_site;
    website=www.campingbelgradeavala.com; id=node/5901385006</desc>
    <link href="www.campingbelgradeavala.com"></link>
  </wpt>
  <wpt lat="43.6980535" lon="21.9852918">
    <ele>599.0</ele>
    <name>Sesalačka Pećina</name>
    <desc>name=Sesalačka Pećina; tourism=camp_site;
    id=node/6336525315</desc>
  </wpt>
  <wpt lat="45.1441181" lon="19.9626354">
    <ele>206.0</ele>
    <name>SunnySide Kamp</name>
    <desc>internet_access=wlan; name=SunnySide Kamp;
    name:de=SonnenSeite Camping; name:en=SunnySide Camping;
    tourism=camp_site; website=https://sunnyside.rs/;
    id=node/6366302685</desc>
    <link href="https://sunnyside.rs/"></link>
  </wpt>
  <wpt lat="42.5263049" lon="20.16768">
    <ele>1879.0</ele>
    <name>Lugu i Gjatë</name>
    <desc>name=Lugu i Gjatë; name:en=Long Valley;
    tourism=camp_site; id=node/6420151187</desc>
  </wpt>
  <wpt lat="44.1416135" lon="19.7122795">
    <ele>1151.0</ele>
    <name>node/6586832443</name>
    <desc>tourism=camp_site; id=node/6586832443</desc>
  </wpt>
  <wpt lat="44.7884739" lon="21.2087046">
    <ele>66.0</ele>
    <name>node/6674244985</name>
    <desc>name:en=Banatomia1086; tourism=camp_site;
    id=node/6674244985</desc>
  </wpt>
  <wpt lat="45.7520062" lon="19.1017538">
    <ele>82.0</ele>
    <name>Sosul</name>
    <desc>addr:housenumber=9a; addr:postcode=25000;
    addr:street=Венац Петрове горе; bicycle=yes; cabins=yes;
    caravans=yes; drinking_water=yes;
    email=office@campingsosul.com; internet_access=wlan;
    motor_vehicle=yes; name=Sosul; opening_hours=Mo-Su 08:00-22:00;
    phone=+38125426274; ref:RS:kucni_broj=5170432; shower=yes;
    tents=yes; tourism=camp_site;
    website=http://www.campingsosul.com; id=node/6679787528</desc>
    <link href="http://www.campingsosul.com"></link>
  </wpt>
  <wpt lat="44.4216216" lon="19.1493435">
    <ele>134.0</ele>
    <name>Drinski Vajati</name>
    <desc>name=Drinski Vajati; tourism=camp_site;
    id=node/6793942685</desc>
  </wpt>
  <wpt lat="45.6581653" lon="19.7079198">
    <ele>83.0</ele>
    <name>node/7196083085</name>
    <desc>name:en=Camping Villa Pipacs; tourism=camp_site;
    id=node/7196083085</desc>
  </wpt>
  <wpt lat="42.1204971" lon="20.7894046">
    <ele>1610.0</ele>
    <name>node/7551266085</name>
    <desc>tourism=camp_site; id=node/7551266085</desc>
  </wpt>
  <wpt lat="44.0135399" lon="21.9239057">
    <ele>750.0</ele>
    <name>Kamp</name>
    <desc>name=Kamp; tourism=camp_site; id=node/7783742885</desc>
  </wpt>
  <wpt lat="43.2516689" lon="22.6427238">
    <ele>615.0</ele>
    <name>Буљарице</name>
    <desc>name=Буљарице; name:en=Buljarice; tourism=camp_site;
    id=node/7847343288</desc>
  </wpt>
  <wpt lat="44.3326092" lon="21.0554254">
    <ele>128.0</ele>
    <name>Tocak</name>
    <desc>name=Tocak; tourism=camp_site; id=node/7884461066</desc>
  </wpt>
  <wpt lat="43.3270997" lon="20.399144">
    <ele>1471.0</ele>
    <name>Дуги лаз</name>
    <desc>int_name=Dugi laz; name=Дуги лаз; name:sr=Дуги лаз;
    name:sr-Latn=Dugi laz; tourism=camp_site;
    id=node/8122114983</desc>
  </wpt>
  <wpt lat="45.7718114" lon="19.0739311">
    <ele>91.0</ele>
    <name>node/8260322943</name>
    <desc>tourism=camp_site; id=node/8260322943</desc>
  </wpt>
  <wpt lat="43.5223912" lon="19.8700404">
    <ele>1160.0</ele>
    <name>Филипов брег</name>
    <desc>int_name=Filipov breg; name=Филипов брег; name:sr=Филипов
    брег; name:sr-Latn=Filipov breg; phone=+381 62 15 35 088;
    tourism=camp_site; website=https://www.filipovbreg.com;
    id=node/8963008929</desc>
    <link href="https://www.filipovbreg.com"></link>
  </wpt>
  <wpt lat="43.2590984" lon="19.5528289">
    <ele>1245.0</ele>
    <name>Камп Ковчица</name>
    <desc>int_name=Kamp Kovcica; name=Камп Ковчица; name:sr=Камп
    Ковчица; name:sr-Latn=Kamp Kovčica; operator=Etno selo Kamena
    gora; tourism=camp_site; id=node/9022858017</desc>
  </wpt>
  <wpt lat="44.4031096" lon="22.4940642">
    <ele>64.0</ele>
    <name>Тихая полянка у дороги</name>
    <desc>name=Тихая полянка у дороги; name:en=Wild Camping no
    service; tourism=camp_site; id=node/9246341949</desc>
  </wpt>
  <wpt lat="45.0188108" lon="19.2269516">
    <ele>81.0</ele>
    <name>Camping Morovic</name>
    <desc>name=Camping Morovic; phone=+381637711060;
    tourism=camp_site; website=http://www.campingmorovic.com;
    id=node/9893901621</desc>
    <link href="http://www.campingmorovic.com"></link>
  </wpt>
  <wpt lat="45.1727619" lon="19.9291378">
    <ele>163.0</ele>
    <name>Eko resort</name>
    <desc>addr:housenumber=1; addr:postcode=21205;
    addr:street=Beleševo; email=campingfruskagora@gmail.com;
    internet_access=wlan; name=Eko resort; phone=+381602201234;
    tourism=camp_site; website=http://campingfruskagora.com;
    id=node/9922104918</desc>
    <link href="http://campingfruskagora.com"></link>
  </wpt>
  <wpt lat="45.1727615" lon="19.9291837">
    <ele>155.0</ele>
    <name>Eko kamp Fruška Gora</name>
    <desc>addr:postcode=21205; addr:street=Belesevo 1;
    email=campingfruskagora@gmail.com; internet_access=wlan;
    name=Eko kamp Fruška Gora; name:en=Eco camp Fruska Gora;
    opening_hours=Mo-Su 07:00-21:00; phone=+381602201234;
    tourism=camp_site; website=http://campingfruskagora.com;
    id=node/9922104919</desc>
    <link href="http://campingfruskagora.com"></link>
  </wpt>
  <wpt lat="45.2381389" lon="19.3818037">
    <ele>81.0</ele>
    <name>Campingplatz</name>
    <desc>caravans=no; drinking_water=yes; name=Campingplatz;
    note=Ask guards for the electricity power.; power_supply=yes;
    shower=no; tents=yes; tourism=camp_site;
    id=node/9938657186</desc>
  </wpt>
  <wpt lat="42.4882352" lon="20.3981286">
    <ele>489.0</ele>
    <name>Mali te jardani</name>
    <desc>name=Mali te jardani; tourism=camp_site;
    id=node/9993095119</desc>
  </wpt>
  <wpt lat="45.1541483" lon="20.1833376">
    <ele>151.0</ele>
    <name>Cyclo Camp Vinograd</name>
    <desc>access=yes; bbq=yes; capacity:persons=10;
    capacity:tents=10; caravans=no;
    contact:instagram=cyclocampvinograd; drinking_water=yes;
    fee=yes; internet_access=yes; kitchen=yes; name=Cyclo Camp
    Vinograd; name:sr=Цикло камп Виноград; name:sr-Latn=Ciklo kamp
    Vinograd; opening_hours=Mo-Su 00:00-24:00; phone=+381 64
    8951330; shower=yes; static_caravans=no; tents=yes;
    toilets=yes; tourism=camp_site; id=node/10004601793</desc>
  </wpt>
  <wpt lat="45.1263183" lon="21.3600469">
    <ele>278.0</ele>
    <name>node/10054491947</name>
    <desc>tourism=camp_site; id=node/10054491947</desc>
  </wpt>
  <wpt lat="45.3049445" lon="19.2593222">
    <ele>83.0</ele>
    <name>Kuća za Odmor S</name>
    <desc>addr:city=Младеново; check_date=2024-06-24; name=Kuća za
    Odmor S; tourism=camp_site; id=node/10184045062</desc>
  </wpt>
  <wpt lat="45.3913317" lon="20.2069681">
    <ele>76.0</ele>
    <name>Kamp</name>
    <desc>addr:street=Tisa Aradac; name=Kamp; name:en=Camping;
    tourism=camp_site; id=node/10742713505</desc>
  </wpt>
  <wpt lat="42.6380827" lon="21.1640526">
    <ele>606.0</ele>
    <name>Camping</name>
    <desc>addr:housenumber=7; addr:postcode=1000;
    addr:street=Korabi; name=Camping; phone=+38349323222;
    tourism=camp_site; website=http://www.jk mm;
    id=node/10797339005</desc>
  </wpt>
  <wpt lat="44.1874114" lon="19.5372454">
    <ele>665.0</ele>
    <name>node/10830878765</name>
    <desc>tents=yes; tourism=camp_site; id=node/10830878765</desc>
  </wpt>
  <wpt lat="45.1395621" lon="19.8010935">
    <ele>331.0</ele>
    <name>Kamp-us Fruška gora</name>
    <desc>contact:instagram=kampus.fruskagora; description=Kamp
    naselje sa šatorima za iznajmljivanje i bioskopom pod otvorenim
    nebom; name=Kamp-us Fruška gora; tents=yes; tourism=camp_site;
    id=node/10959674589</desc>
  </wpt>
  <wpt lat="42.1632741" lon="20.9506173">
    <ele>1608.0</ele>
    <name>node/11012609251</name>
    <desc>description=A path junction and clearing, right outside
    the national park. It should be possible to find flat ground
    here. Otherwise try at the end of the track and beginning of
    the trail further south.; tourism=camp_site;
    id=node/11012609251</desc>
  </wpt>
  <wpt lat="42.3194648" lon="20.449098">
    <ele>475.0</ele>
    <name>node/11014041964</name>
    <desc>tourism=camp_site; id=node/11014041964</desc>
  </wpt>
  <wpt lat="42.1293388" lon="20.9262899">
    <ele>2355.0</ele>
    <name>node/11014980931</name>
    <desc>description=A nice valley, right before the climb to the
    ridge.; tourism=camp_site; id=node/11014980931</desc>
  </wpt>
  <wpt lat="42.1435908" lon="20.9624005">
    <ele>2159.0</ele>
    <name>node/11015006365</name>
    <desc>description=This valley seems particularly flat. Many
    options to camp here exist.; tourism=camp_site;
    id=node/11015006365</desc>
  </wpt>
  <wpt lat="42.1734043" lon="20.9419181">
    <ele>1318.0</ele>
    <name>node/11015008497</name>
    <desc>description=Flat (high grass) area due to the trail.;
    tourism=camp_site; id=node/11015008497</desc>
  </wpt>
  <wpt lat="42.1475423" lon="20.9349967">
    <ele>1913.0</ele>
    <name>node/11015019914</name>
    <desc>description=Locals seem to come up here for camping.;
    tourism=camp_site; id=node/11015019914</desc>
  </wpt>
  <wpt lat="42.1628814" lon="20.9157618">
    <ele>1437.0</ele>
    <name>node/11015033954</name>
    <desc>description=Extension of an old track, pretty flat.;
    tourism=camp_site; id=node/11015033954</desc>
  </wpt>
  <wpt lat="45.346419" lon="20.680591">
    <ele>69.0</ele>
    <name>Kanu Avantura</name>
    <desc>contact:instagram=kanuavantura; group_only=yes; name=Kanu
    Avantura; opening_hours="reservation by phone"; phone=+381 60
    0304757; reservation=yes; toilets=no; tourism=camp_site;
    wheelchair=limited; id=node/11073083621</desc>
  </wpt>
  <wpt lat="44.74073" lon="19.7866303">
    <ele>76.0</ele>
    <name>Camping Perića Avlija</name>
    <desc>name=Camping Perića Avlija; phone=+381 60 6800960;
    tourism=camp_site; id=node/11117729747</desc>
  </wpt>
  <wpt lat="43.3942572" lon="22.6766467">
    <ele>2127.0</ele>
    <name>node/11134844775</name>
    <desc>access=yes; backcountry=yes; description=Good flat
    campground for 3-6 tents; drinking_water=no; fee=no; tents=yes;
    tourism=camp_site; id=node/11134844775</desc>
  </wpt>
  <wpt lat="46.076967" lon="19.667848">
    <ele>108.0</ele>
    <name>Yugoland</name>
    <desc>access=yes; addr:city=Subotica; addr:housenumber=20;
    addr:postcode=24000; addr:street=Отмара Мајера;
    camp_site=serviced; capacity:caravans=10; capacity:persons=200;
    capacity:tents=20; caravans=yes; charge=20; dog=yes;
    drinking_water=yes; fee=yes; mobile=+381652006687;
    name=Yugoland; operator=Mini Jugoslavia; payment:cash=yes;
    ref:RS:kucni_broj=5455217; static_caravans=yes; tents=yes;
    tourism=camp_site; id=node/11150500434</desc>
  </wpt>
  <wpt lat="42.3513203" lon="20.5418877">
    <ele>317.0</ele>
    <name>node/11188979737</name>
    <desc>tourism=camp_site; id=node/11188979737</desc>
  </wpt>
  <wpt lat="43.9365374" lon="19.3442524">
    <ele>748.0</ele>
    <name>Kamp KAZALO</name>
    <desc>email=kampzalogorovanje@gmail.com; name=Kamp KAZALO;
    phone=+381 643311223; tourism=camp_site;
    website=https://www.kampkazalo.rs/; id=node/11202169308</desc>
    <link href="https://www.kampkazalo.rs/"></link>
  </wpt>
  <wpt lat="42.6090409" lon="21.3515417">
    <ele>1023.0</ele>
    <name>node/11250794641</name>
    <desc>tourism=camp_site; id=node/11250794641</desc>
  </wpt>
  <wpt lat="42.6217173" lon="21.3598648">
    <ele>860.0</ele>
    <name>node/11250829737</name>
    <desc>tourism=camp_site; id=node/11250829737</desc>
  </wpt>
  <wpt lat="42.3324527" lon="21.2467498">
    <ele>512.0</ele>
    <name>node/11261330538</name>
    <desc>tourism=camp_site; id=node/11261330538</desc>
  </wpt>
  <wpt lat="42.5886864" lon="20.1763955">
    <ele>1026.0</ele>
    <name>Camping “Perroi Shqiptar”</name>
    <desc>name=Camping “Perroi Shqiptar”; tourism=camp_site;
    id=node/11264395069</desc>
  </wpt>
  <wpt lat="42.5884801" lon="20.1771099">
    <ele>1006.0</ele>
    <name>Camping “Perroi Shqiptar”</name>
    <desc>addr:street=Demë Ali Pozhari; internet_access=wlan;
    name=Camping “Perroi Shqiptar”; opening_hours=24/7;
    tourism=camp_site; id=node/11264395070</desc>
  </wpt>
  <wpt lat="42.1764669" lon="20.9571192">
    <ele>1418.0</ele>
    <name>node/11638301869</name>
    <desc>tourism=camp_site; id=node/11638301869</desc>
  </wpt>
  <wpt lat="43.7230621" lon="21.9292886">
    <ele>725.0</ele>
    <name>Камп Колиба</name>
    <desc>int_name=Kamp Koliba; name=Камп Колиба; name:sr=Камп
    Колиба; name:sr-Latn=Kamp Koliba; tourism=camp_site;
    id=node/11901244893</desc>
  </wpt>
  <wpt lat="43.3215737" lon="20.7617654">
    <ele>1420.0</ele>
    <name>node/12051668239</name>
    <desc>tourism=camp_site; id=node/12051668239</desc>
  </wpt>
  <wpt lat="44.9400723" lon="21.2919133">
    <ele>76.0</ele>
    <name>Камп Гат</name>
    <desc>caravans=yes; int_name=Kamp Gat; name=Камп Гат;
    tents=yes; tourism=camp_site; id=node/12104955061</desc>
  </wpt>
  <wpt lat="42.190501" lon="21.0722392">
    <ele>2214.0</ele>
    <name>node/12151695257</name>
    <desc>backcountry=yes; fee=no; tents=yes; tourism=camp_site;
    id=node/12151695257</desc>
  </wpt>
  <wpt lat="42.4732614" lon="20.272263">
    <ele>570.0</ele>
    <name>Junik Camping</name>
    <desc>contact:email=junikcamping@hotmail.com; name=Junik
    Camping; tourism=camp_site;
    website=https://www.junikcamping.com/;
    id=node/12241185043</desc>
    <link href="https://www.junikcamping.com/"></link>
  </wpt>
  <wpt lat="45.1512048" lon="19.940815">
    <ele>264.0</ele>
    <name>node/12536446105</name>
    <desc>name:en=Camp na Fruškoj Gori - Vidmar; tourism=camp_site;
    id=node/12536446105</desc>
  </wpt>
  <wpt lat="43.3047467" lon="22.7842421">
    <ele>1248.0</ele>
    <name>node/12829066388</name>
    <desc>capacity:tents=2; tourism=camp_site;
    id=node/12829066388</desc>
  </wpt>
  <wpt lat="43.3314873" lon="22.7976578">
    <ele>1644.0</ele>
    <name>node/12829142184</name>
    <desc>capacity:tents=4; description=there was water in 29 of
    April in creek; tourism=camp_site; water_characteristic=creek;
    id=node/12829142184</desc>
  </wpt>
  <wpt lat="43.4164847" lon="21.8396507">
    <ele>214.0</ele>
    <name>Popoland Camp</name>
    <desc>addr:street=Царице Милице; email=popoladcamp@gmail.com;
    internet_access=wlan; name=Popoland Camp; opening_hours=24/7;
    phone=+381658004373; tourism=camp_site;
    website=http://popoland.rs; id=node/12850571601</desc>
    <link href="http://popoland.rs"></link>
  </wpt>
  <wpt lat="44.0471834" lon="20.7204681">
    <ele>384.0</ele>
    <name>Edem</name>
    <desc>name=Edem; tourism=camp_site; id=node/12963821900</desc>
  </wpt>
  <wpt lat="44.3140169" lon="22.5487902">
    <ele>49.0</ele>
    <name>node/12971733698</name>
    <desc>description=Wild camp; tourism=camp_site;
    id=node/12971733698</desc>
  </wpt>
  <wpt lat="42.35239545" lon="21.72759312618691">
    <ele>431.0</ele>
    <name>Camping Plac</name>
    <desc>name=Camping Plac; tourism=camp_site;
    id=way/99411380</desc>
  </wpt>
  <wpt lat="44.7609466" lon="21.47544832252958">
    <ele>74.0</ele>
    <name>Сребрно језеро</name>
    <desc>int_name=Srebrno jezero; name=Сребрно језеро;
    name:sr=Сребрно језеро; name:sr-Latn=Srebrno jezero;
    tourism=camp_site; id=way/127877378</desc>
  </wpt>
  <wpt lat="44.671445399999996" lon="20.7873746614777">
    <ele>70.0</ele>
    <name>Камп „Јабуков цвет“</name>
    <desc>alt_name=Камп Јабуков цвет; alt_name:sr=Камп Јабуков
    цвет; alt_name:sr-Latn=Kamp Jabukov cvet; int_name=Kamp
    „Jabukov cvet“; name=Камп „Јабуков цвет“; name:sr=Камп „Јабуков
    цвет“; name:sr-Latn=Kamp „Jabukov cvet“; tourism=camp_site;
    website=http://www.kampjabukovcvet.com; id=way/174644479</desc>
    <link href="http://www.kampjabukovcvet.com"></link>
  </wpt>
  <wpt lat="44.88923245" lon="21.387435526293764">
    <ele>75.0</ele>
    <name>Оаза</name>
    <desc>caravans=yes; fee=yes; int_name=Oaza; name=Оаза;
    name:sr=Оаза; name:sr-Latn=Oaza; tents=yes; tourism=camp_site;
    website=https://www.camping-oaza.com/en/;
    id=way/220736335</desc>
    <link href="https://www.camping-oaza.com/en/"></link>
  </wpt>
  <wpt lat="45.35466955" lon="19.01105859555977">
    <ele>81.0</ele>
    <name>way/234148095</name>
    <desc>tourism=camp_site; id=way/234148095</desc>
  </wpt>
  <wpt lat="43.785644" lon="19.49128205899624">
    <ele>574.0</ele>
    <name>Etno kuća Cerova kosa</name>
    <desc>name=Etno kuća Cerova kosa; tourism=camp_site;
    id=way/290525749</desc>
  </wpt>
  <wpt lat="43.8452085" lon="19.573879805702532">
    <ele>755.0</ele>
    <name>Мини камп Виљамовка – Кремна</name>
    <desc>fee=yes; int_name=Mini kamp Viljamovka – Kremna;
    name=Мини камп Виљамовка – Кремна; name:sr=Мини камп Виљамовка
    – Кремна; name:sr-Latn=Mini kamp Viljamovka – Kremna;
    tourism=camp_site; website=http://viljamovka.weebly.com/;
    id=way/432074635</desc>
    <link href="http://viljamovka.weebly.com/"></link>
  </wpt>
  <wpt lat="45.174949749999996" lon="19.930361493038156">
    <ele>151.0</ele>
    <name>Екокампинг Фрушка гора</name>
    <desc>barrier=fence; fee=yes; int_name=Ekokamping Fruska gora;
    name=Екокампинг Фрушка гора; name:sr=Екокампинг Фрушка гора;
    name:sr-Latn=Ecocamping Fruška gora; tourism=camp_site;
    website=http://campingfruskagora.com; id=way/432635318</desc>
    <link href="http://campingfruskagora.com"></link>
  </wpt>
  <wpt lat="44.577568400000004" lon="20.3871751446488">
    <ele>180.0</ele>
    <name>Zornica kuca</name>
    <desc>int_name=Zornica kuca; name:sr=Зорнића кућа;
    tourism=camp_site;
    website=https://www.zornicakuca.rs/zornica-prica/kampovanje/;
    id=way/436528604</desc>
    <link href="https://www.zornicakuca.rs/zornica-prica/kampovanje/">
    </link>
  </wpt>
  <wpt lat="44.79511305" lon="19.331732233421718">
    <ele>84.0</ele>
    <name>Jočkov Ribarski Kamp</name>
    <desc>name=Jočkov Ribarski Kamp; tourism=camp_site;
    id=way/474474481</desc>
  </wpt>
  <wpt lat="44.89268215" lon="21.40533785200531">
    <ele>86.0</ele>
    <name>Kamp Bela Crkva</name>
    <desc>internet_access=no; name=Kamp Bela Crkva;
    tourism=camp_site; id=way/501601770</desc>
  </wpt>
  <wpt lat="46.10525065" lon="19.7361149">
    <ele>104.0</ele>
    <name>De Tour</name>
    <desc>abandoned=yes; disused=yes; internet_access=wlan; name=De
    Tour; source=survey; tourism=camp_site; id=way/508280201</desc>
  </wpt>
  <wpt lat="44.87790605" lon="20.35604010062162">
    <ele>85.0</ele>
    <name>Камп Дунав</name>
    <desc>addr:city=Београд; addr:housenumber=12;
    addr:street=Батајнички друм 7. део; int_name=Kamp Dunav;
    name=Камп Дунав; name:en=Camping Dunav; name:sr=Камп Дунав;
    name:sr-Latn=Kamp Dunav; phone=+381 11 2199072;
    ref:RS:kucni_broj=3693912; tourism=camp_site;
    website=https://www.campdunav.com/; id=way/532336249</desc>
    <link href="https://www.campdunav.com/"></link>
  </wpt>
  <wpt lat="45.53363435" lon="19.09628325509496">
    <ele>81.0</ele>
    <name>Камп Штранд</name>
    <desc>addr:city=Bogojevo; email=kamp.strand.bg@gmail.com;
    int_name=Kamp Strand; name=Камп Штранд; phone=+381 64 80 37
    525; tourism=camp_site;
    website=https://www.facebook.com/autokamp.bogojevo;
    id=way/543230171</desc>
    <link href="https://www.facebook.com/autokamp.bogojevo"></link>
  </wpt>
  <wpt lat="43.85031335" lon="19.58171898978795">
    <ele>729.0</ele>
    <name>Camping Zip</name>
    <desc>access=customers; fee=yes; internet_access=wlan;
    internet_access:fee=no; name=Camping Zip; payment:cash=yes;
    phone=+381 65 3 808 630; tourism=camp_site;
    website=https://camping-zip.com/; id=way/634035239</desc>
    <link href="https://camping-zip.com/"></link>
  </wpt>
  <wpt lat="45.16726855" lon="20.02130450216802">
    <ele>94.0</ele>
    <name>way/642768669</name>
    <desc>camp_site=basic; tents=yes; tourism=camp_site;
    id=way/642768669</desc>
  </wpt>
  <wpt lat="43.8992367" lon="20.865062217034804">
    <ele>553.0</ele>
    <name>way/642768691</name>
    <desc>tourism=camp_site; id=way/642768691</desc>
  </wpt>
  <wpt lat="45.8021864" lon="19.09596412035124">
    <ele>82.0</ele>
    <name>Sombor</name>
    <desc>access=yes; addr:city=Sombor; addr:street=Гаковачки пут;
    capacity=2; tourism=camp_site; id=way/677776758</desc>
  </wpt>
  <wpt lat="45.79648445" lon="20.146788354138998">
    <ele>83.0</ele>
    <name>way/742334802</name>
    <desc>tourism=camp_site; id=way/742334802</desc>
  </wpt>
  <wpt lat="43.25902915" lon="19.553708572569086">
    <ele>1238.0</ele>
    <name>Камп Ковчица</name>
    <desc>int_name=Kamp Kovcica; name=Камп Ковчица; name:sr=Камп
    Ковчица; name:sr-Latn=Kamp Kovčica; operator=Etno selo Kamena
    gora; tourism=camp_site; id=way/974379155</desc>
  </wpt>
  <wpt lat="44.3825822" lon="22.342311339478627">
    <ele>172.0</ele>
    <name>way/1076365888</name>
    <desc>tourism=camp_site; id=way/1076365888</desc>
  </wpt>
  <wpt lat="43.2787133" lon="22.57005468204092">
    <ele>414.0</ele>
    <name>way/1289405548</name>
    <desc>backcountry=yes; camp_site=basic; tourism=camp_site;
    id=way/1289405548</desc>
  </wpt>
  <wpt lat="43.26342475" lon="22.551133706557827">
    <ele>391.0</ele>
    <name>way/1289405553</name>
    <desc>backcountry=yes; camp_site=basic; tourism=camp_site;
    id=way/1289405553</desc>
  </wpt>
  <wpt lat="43.175073100000006" lon="22.774641062470607">
    <ele>670.0</ele>
    <name>way/1290972687</name>
    <desc>backcountry=yes; camp_site=basic; tourism=camp_site;
    id=way/1290972687</desc>
  </wpt>
  <wpt lat="46.0678891" lon="20.06773481766917">
    <ele>79.0</ele>
    <name>Grad kanjiža</name>
    <desc>internet_access=wlan; operator=Grad kanjiža;
    tourism=camp_site; id=way/1307204241</desc>
  </wpt>
</gpx>
