<?xml version="1.0" encoding="utf-8"?>
<gpx xmlns="http://www.topografix.com/GPX/1/1"
xmlns:xsi="http://www.w3.org/2001/XMLSchema-instance"
xsi:schemaLocation="http://www.topografix.com/GPX/1/1 http://www.topografix.com/GPX/1/1/gpx.xsd"
version="1.1" creator="togpx">
  <metadata>
    <copyright>
      <license>"osm3s": { "timestamp_osm_base":
      "2025-09-09T08:21:45Z", "timestamp_areas_base":
      "2025-09-09T06:27:01Z", "copyright": "The data included in
      this document is from www.openstreetmap.org. The data is made
      available under ODbL." } // SRTM: { Elevation data missing in
      OSM was added by the NASA Shuttle Radar Topography Mission as
      public release version, if available there. } // { Check for
      latest version of this file on:
      https://github.com/GpxFeed/campgrounds }</license>
    </copyright>
  </metadata>
  <wpt lat="42.3730906" lon="1.3578384">
    <ele>799.0</ele>
    <name>Buchaca</name>
    <desc>caravans=yes; drinking_water=yes; name=Buchaca; phone=+34
    973 352 155; sanitary_dump_station=no; shower=yes; tents=yes;
    toilets=yes; tourism=camp_site; id=node/26860899</desc>
  </wpt>
  <wpt lat="37.1408285" lon="-1.8591751">
    <ele>76.0</ele>
    <name>El Quinto</name>
    <desc>created_by=Potlatch 0.5d; name=El Quinto;
    tourism=camp_site; id=node/26860947</desc>
  </wpt>
  <wpt lat="37.1844686" lon="-1.9240222">
    <ele>106.0</ele>
    <name>Los Gallardos</name>
    <desc>addr:city=Los Gallardos; addr:country=ES; addr:place=Exit
    525 A7-Autovia; addr:postcode=04288;
    contact:facebook=mirafloresclg;
    email=reception@campinglosgallardos.com; fax=+34 950 469 596;
    image=http://campinglosgallardos.com/wp-content/uploads/2015/04/IMG_0935.jpg;
    internet_access=wlan; internet_access:fee=yes; name=Los
    Gallardos; operator=Antjony &amp; Shirley Jackson; phone=+34
    950 528 324; sanitary_dump_station=yes; smoking=outside;
    stars=2; tourism=camp_site;
    website=https://campinglosgallardos.com/;
    id=node/26860966</desc>
    <link href="https://campinglosgallardos.com/"></link>
  </wpt>
  <wpt lat="37.1599465" lon="-3.4537551">
    <ele>1094.0</ele>
    <name>Las Lomas</name>
    <desc>addr:city=Güéjar Sierra; addr:milestone=km. 6;
    addr:postcode=18160; addr:street=GR-3200; fee=yes; name=Las
    Lomas; operator=CampingRed; phone=+34 958 48 47 42;
    tourism=camp_site; website=https://www.campinglaslomas.com/;
    id=node/26861001</desc>
    <link href="https://www.campinglaslomas.com/"></link>
  </wpt>
  <wpt lat="42.373056" lon="2.913056">
    <ele>140.0</ele>
    <name>L'Albera</name>
    <desc>addr:postcode=17750; addr:street=Carrer Ventador;
    name=L'Albera; name:ca=L'Albera; name:en=Camping L’Albera;
    phone=+34 972 54 91 92; tourism=camp_site;
    id=node/26861007</desc>
  </wpt>
  <wpt lat="39.7197732" lon="-0.1928002">
    <ele>2.0</ele>
    <name>Camping Malvarrosa de Corinto</name>
    <desc>addr:city=Puerto de Sagunto; addr:postcode=46520;
    addr:street=Carrer del Cigne; drinking_water=yes; name=Camping
    Malvarrosa de Corinto; nohousenumber=yes; phone=+34 962608906;
    power_supply=yes; tourism=camp_site;
    website=https://www.malvacorinto.com/; wheelchair=yes;
    id=node/26861016</desc>
    <link href="https://www.malvacorinto.com/"></link>
  </wpt>
  <wpt lat="43.3483377" lon="-8.3365953">
    <ele>23.0</ele>
    <name>Los Manzanos</name>
    <desc>email=informacion@campinglosmanzanos.com; name=Los
    Manzanos; phone=+34 981 614825; tourism=camp_site;
    website=http://www.campinglosmanzanos.com/; wheelchair=yes;
    id=node/26861018</desc>
    <link href="http://www.campinglosmanzanos.com/"></link>
  </wpt>
  <wpt lat="42.434722" lon="-0.135">
    <ele>1394.0</ele>
    <name>Montanesa</name>
    <desc>created_by=JOSM; name=Montanesa; tourism=camp_site;
    id=node/26861031</desc>
  </wpt>
  <wpt lat="36.587488" lon="-6.2407701">
    <ele>14.0</ele>
    <name>Dunas de San Anton</name>
    <desc>camp_site=reception; capacity=490; caravans=yes;
    name=Dunas de San Anton; tents=yes; tourism=camp_site;
    id=node/26861091</desc>
  </wpt>
  <wpt lat="43.3097905" lon="-8.2443221">
    <ele>67.0</ele>
    <name>Santa Marta</name>
    <desc>addr:city=Bergondo; addr:housenumber=23;
    addr:postcode=15165; addr:street=Babio; name=Santa Marta;
    tourism=camp_site; id=node/26861099</desc>
  </wpt>
  <wpt lat="36.2520811" lon="-5.9384584">
    <ele>63.0</ele>
    <name>Vejer</name>
    <desc>name=Vejer; tourism=camp_site; id=node/26861132</desc>
  </wpt>
  <wpt lat="40.4931603" lon="0.4842663">
    <ele>18.0</ele>
    <name>Camping Vinaròs</name>
    <desc>name=Camping Vinaròs; tourism=camp_site;
    id=node/26861137</desc>
  </wpt>
  <wpt lat="42.2799671" lon="0.1966433">
    <ele>454.0</ele>
    <name>Meson de Ligüerre</name>
    <desc>created_by=JOSM; name=Meson de Ligüerre;
    tourism=camp_site; id=node/287651337</desc>
  </wpt>
  <wpt lat="37.1717789" lon="-3.5085617">
    <ele>793.0</ele>
    <name>node/311883890</name>
    <desc>tourism=camp_site; id=node/311883890</desc>
  </wpt>
  <wpt lat="40.3645369" lon="-4.3251726">
    <ele>566.0</ele>
    <name>Camping La Enfermería</name>
    <desc>created_by=Potlatch 0.10f; name=Camping La Enfermería;
    tourism=camp_site; id=node/330984913</desc>
  </wpt>
  <wpt lat="39.8470635" lon="-0.515836">
    <ele>411.0</ele>
    <name>Camping municipal d'Altura</name>
    <desc>name=Camping municipal d'Altura; tourism=camp_site;
    id=node/336783197</desc>
  </wpt>
  <wpt lat="43.5211323" lon="-8.1104981">
    <ele>28.0</ele>
    <name>Pedroso</name>
    <desc>created_by=Potlatch 0.10f; name=Pedroso;
    tourism=camp_site; id=node/357996998</desc>
  </wpt>
  <wpt lat="42.1257557" lon="-2.1130463">
    <ele>799.0</ele>
    <name>La Estanca</name>
    <desc>name=La Estanca; tourism=camp_site;
    id=node/438208072</desc>
  </wpt>
  <wpt lat="36.395191" lon="-6.1570721">
    <ele>8.0</ele>
    <name>La Rana Verde</name>
    <desc>name=La Rana Verde; tourism=camp_site;
    id=node/470366042</desc>
  </wpt>
  <wpt lat="40.6735883" lon="0.2305561">
    <ele>504.0</ele>
    <name>node/482849459</name>
    <desc>description=free campsite, no infrastructure;
    tourism=camp_site; id=node/482849459</desc>
  </wpt>
  <wpt lat="28.8086046" lon="-17.802115">
    <ele>737.0</ele>
    <name>Embalse de la Laguna</name>
    <desc>contact:email=parquelalaguna@barlovento.es; name=Embalse
    de la Laguna; opening_hours=Mo-Su 09:00-13:00, 15:00-19:00;
    phone=+34639837936; tourism=camp_site;
    website=https://barlovento.es/reservas-camping-parque-recreativa-laguna-barlovento/;
    id=node/583214040</desc>
    <link href="https://barlovento.es/reservas-camping-parque-recreativa-laguna-barlovento/">
    </link>
  </wpt>
  <wpt lat="42.6417156" lon="0.5661937">
    <ele>1370.0</ele>
    <name>Area de acampada la Senarta</name>
    <desc>addr:city=Huesca; addr:country=ES; addr:place=Senarta;
    addr:province=Aragón; description=Regulado por el Ayuntamiento
    de Benasque.; ele=1370; email=ayto@benasque.es;
    internet_access=no; name=Area de acampada la Senarta;
    operator=Ayuntamiento de Benasque; phone=+34 974 551 001;
    tents=yes; tourism=camp_site; wheelchair=no;
    id=node/623513755</desc>
  </wpt>
  <wpt lat="42.2288465" lon="0.0480664">
    <ele>650.0</ele>
    <name>Camping Lecina</name>
    <desc>addr:city=Lecina (Huesca); addr:postcode=22148;
    addr:street=Carretera Lecina s/n; contact:phone=+34974318386;
    ele=650; name=Camping Lecina; tourism=camp_site;
    website=https://campinglecina.com/; wpt_symbol=Campground;
    id=node/659540175</desc>
    <link href="https://campinglecina.com/"></link>
  </wpt>
  <wpt lat="42.2455956" lon="-0.0696425">
    <ele>760.0</ele>
    <name>Camping Expediciones (empresa de canyoning, camping
    cerrado)</name>
    <desc>ele=760; name=Camping Expediciones (empresa de canyoning,
    camping cerrado); tourism=camp_site; wpt_symbol=Campground;
    id=node/659540176</desc>
  </wpt>
  <wpt lat="40.4749505" lon="-5.9985571">
    <ele>645.0</ele>
    <name>El Burro Blanco</name>
    <desc>addr:city=Miranda del Castañar; addr:country=ES;
    addr:postcode=37660; addr:province=Salamanca; addr:street=Calle
    Perdiza; name=El Burro Blanco; phone=+34 626 227 646;
    tourism=camp_site; website=http://www.elburroblanco.net;
    id=node/728750626</desc>
    <link href="http://www.elburroblanco.net"></link>
  </wpt>
  <wpt lat="40.16885" lon="-5.84463">
    <ele>443.0</ele>
    <name>Camp. Bungalows Rio Jerte</name>
    <desc>name=Camp. Bungalows Rio Jerte; tourism=camp_site;
    id=node/728750648</desc>
  </wpt>
  <wpt lat="42.18179" lon="2.79492">
    <ele>112.0</ele>
    <name>Esponella</name>
    <desc>name=Esponella; tourism=camp_site;
    id=node/728750809</desc>
  </wpt>
  <wpt lat="39.32318" lon="-4.65011">
    <ele>629.0</ele>
    <name>El Mirador de Cabaneros</name>
    <desc>name=El Mirador de Cabaneros; tourism=camp_site;
    id=node/728750873</desc>
  </wpt>
  <wpt lat="41.0270611" lon="-5.6732987">
    <ele>819.0</ele>
    <name>La Capea</name>
    <desc>name=La Capea; tourism=camp_site;
    id=node/728750877</desc>
  </wpt>
  <wpt lat="40.23109" lon="-5.03368">
    <ele>505.0</ele>
    <name>Prados Abiertos</name>
    <desc>name=Prados Abiertos; tourism=camp_site;
    id=node/728750936</desc>
  </wpt>
  <wpt lat="41.46407" lon="-5.7215">
    <ele>651.0</ele>
    <name>Ciudad de Zamora</name>
    <desc>name=Ciudad de Zamora; tourism=camp_site;
    id=node/728751001</desc>
  </wpt>
  <wpt lat="42.620934" lon="-8.9865014">
    <ele>105.0</ele>
    <name>Camping Rural Ria de Arosa 2</name>
    <desc>name=Camping Rural Ria de Arosa 2; phone=+34 981 865 911;
    survey:date=2024-08-03; tourism=camp_site;
    website=https://rural.campingriadearousa.com;
    id=node/728751055</desc>
    <link href="https://rural.campingriadearousa.com"></link>
  </wpt>
  <wpt lat="42.13009" lon="0.31002">
    <ele>453.0</ele>
    <name>Bellavista &amp; Subenuix</name>
    <desc>name=Bellavista &amp; Subenuix; tourism=camp_site;
    id=node/728751138</desc>
  </wpt>
  <wpt lat="37.62315" lon="-4.85859">
    <ele>274.0</ele>
    <name>La Campina</name>
    <desc>name=La Campina; tourism=camp_site;
    id=node/728825710</desc>
  </wpt>
  <wpt lat="36.8736696" lon="-4.185142">
    <ele>250.0</ele>
    <name>Presa La Vinuela</name>
    <desc>designation=Camping; name=Presa La Vinuela; source=Local
    knowledge; tourism=camp_site; id=node/728825754</desc>
  </wpt>
  <wpt lat="36.9039224" lon="-3.4387486">
    <ele>527.0</ele>
    <name>Puerta de la Alpujarra</name>
    <desc>name=Puerta de la Alpujarra; tourism=camp_site;
    id=node/728825763</desc>
  </wpt>
  <wpt lat="36.78265" lon="-5.11712">
    <ele>763.0</ele>
    <name>El Cortijo</name>
    <desc>name=El Cortijo; tourism=camp_site;
    id=node/728825790</desc>
  </wpt>
  <wpt lat="37.9537" lon="-4.55422">
    <ele>126.0</ele>
    <name>La Albolafia</name>
    <desc>name=La Albolafia; tourism=camp_site;
    id=node/728825836</desc>
  </wpt>
  <wpt lat="40.4869199" lon="-5.5215938">
    <ele>932.0</ele>
    <name>node/762066969</name>
    <desc>tourism=camp_site; id=node/762066969</desc>
  </wpt>
  <wpt lat="42.4345387" lon="-5.8750751">
    <ele>809.0</ele>
    <name>Camping de Veguellina</name>
    <desc>name=Camping de Veguellina; tourism=camp_site;
    id=node/764401347</desc>
  </wpt>
  <wpt lat="42.5875689" lon="-5.8207739">
    <ele>873.0</ele>
    <name>Camping de Carrizo de la Ribera</name>
    <desc>name=Camping de Carrizo de la Ribera; tourism=camp_site;
    id=node/764673778</desc>
  </wpt>
  <wpt lat="40.2305496" lon="-5.1602638">
    <ele>1042.0</ele>
    <name>Campamento Luis Manuel López</name>
    <desc>name=Campamento Luis Manuel López; tourism=camp_site;
    id=node/835929572</desc>
  </wpt>
  <wpt lat="40.2390592" lon="-5.1313421">
    <ele>973.0</ele>
    <name>La Casilla</name>
    <desc>name=La Casilla; place=locality; tourism=camp_site;
    id=node/836083686</desc>
  </wpt>
  <wpt lat="28.6145832" lon="-17.8373245">
    <ele>1460.0</ele>
    <name>node/844506029</name>
    <desc>tourism=camp_site; id=node/844506029</desc>
  </wpt>
  <wpt lat="40.3374951" lon="-5.1781106">
    <ele>1383.0</ele>
    <name>node/864642472</name>
    <desc>tourism=camp_site; id=node/864642472</desc>
  </wpt>
  <wpt lat="40.323012" lon="-5.1787887">
    <ele>1414.0</ele>
    <name>Campamento Cruz de Borgoña</name>
    <desc>name=Campamento Cruz de Borgoña; tourism=camp_site;
    id=node/864642872</desc>
  </wpt>
  <wpt lat="40.3411845" lon="-5.1639017">
    <ele>1395.0</ele>
    <name>Campamento Huerto del Rey</name>
    <desc>name=Campamento Huerto del Rey; tourism=camp_site;
    id=node/864643494</desc>
  </wpt>
  <wpt lat="28.7712211" lon="-17.9680625">
    <ele>827.0</ele>
    <name>Centro de la Naturaleza La Rosa</name>
    <desc>fee=yes; name=Centro de la Naturaleza La Rosa;
    tourism=camp_site; id=node/870933178</desc>
  </wpt>
  <wpt lat="36.770022" lon="-5.4583861">
    <ele>479.0</ele>
    <name>Camping Los Linares</name>
    <desc>contact:facebook=Campingloslinares; name=Camping Los
    Linares; phone=+34661704680; tourism=camp_site;
    id=node/965215557</desc>
  </wpt>
  <wpt lat="36.5668326" lon="-5.2470862">
    <ele>239.0</ele>
    <name>Camping El Genal</name>
    <desc>name=Camping El Genal; tourism=camp_site;
    id=node/968777080</desc>
  </wpt>
  <wpt lat="36.5663944" lon="-5.2451201">
    <ele>231.0</ele>
    <name>Camping San Juan</name>
    <desc>name=Camping San Juan; tourism=camp_site;
    id=node/968777288</desc>
  </wpt>
  <wpt lat="37.9044367" lon="-3.0136218">
    <ele>819.0</ele>
    <name>Camping Cortijo San Isicio</name>
    <desc>addr:city=Cazorla; addr:postcode=23470;
    addr:street=Camino San Isicio; caravans=yes;
    drinking_water=yes; email=info@campingcortijo.com;
    image=https://campingcortijo.com/wp-content/uploads/2022/04/logo-camping-cortijo.jpg;
    internet_access=wlan; name=Camping Cortijo San Isicio;
    nohousenumber=yes; phone=+34 953 721 280; power_supply=yes;
    sanitary_dump_station=yes; shower=yes; tents=yes; toilets=yes;
    tourism=camp_site; website=https://www.campingcortijo.com/;
    wheelchair=no; id=node/1050148757</desc>
    <link href="https://www.campingcortijo.com/"></link>
  </wpt>
  <wpt lat="39.6497327" lon="-0.483885">
    <ele>209.0</ele>
    <name>node/1239884306</name>
    <desc>tourism=camp_site; id=node/1239884306</desc>
  </wpt>
  <wpt lat="36.6144619" lon="-5.3422287">
    <ele>628.0</ele>
    <name>Camping Municipal Las Camaretas</name>
    <desc>name=Camping Municipal Las Camaretas; tourism=camp_site;
    id=node/1258766357</desc>
  </wpt>
  <wpt lat="28.3204315" lon="-13.8970183">
    <ele>8.0</ele>
    <name>node/1268539585</name>
    <desc>description=The campsite is not active anymore, only
    abandoned buildings.; disused:tourism=yes; tourism=camp_site;
    id=node/1268539585</desc>
  </wpt>
  <wpt lat="37.9932811" lon="-5.6710771">
    <ele>549.0</ele>
    <name>Camping El Martinete</name>
    <desc>fixme=El camping cerró, ahora hay un área recreativa y la
    entrada del camping es un parking de pago.; ; Camping is
    closed, now the camping entrance is a paid parking.;
    name=Camping El Martinete; source=PNOA; source:date=2009;
    tourism=camp_site; id=node/1285628523</desc>
  </wpt>
  <wpt lat="28.3435471" lon="-16.5846144">
    <ele>1178.0</ele>
    <name>Área Recreativa y Acampada de Chanajiga (Los
    Realejos)</name>
    <desc>name=Área Recreativa y Acampada de Chanajiga (Los
    Realejos); tourism=camp_site;
    website=https://centralreservas.tenerife.es/actividad/31;
    id=node/1287724061</desc>
    <link href="https://centralreservas.tenerife.es/actividad/31">
    </link>
  </wpt>
  <wpt lat="42.5844267" lon="0.1701355">
    <ele>1093.0</ele>
    <name>node/1336146682</name>
    <desc>tourism=camp_site; id=node/1336146682</desc>
  </wpt>
  <wpt lat="41.9628228" lon="-7.9832667">
    <ele>544.0</ele>
    <name>O Corgo - Muiños</name>
    <desc>internet_access=wlan; name=O Corgo - Muiños;
    tourism=camp_site; wheelchair=yes; id=node/1480012460</desc>
  </wpt>
  <wpt lat="37.1382866" lon="-3.4920713">
    <ele>1430.0</ele>
    <name>Camping El Purche</name>
    <desc>name=Camping El Purche; tourism=camp_site;
    website=https://www.campingrutadelpurche.es/;
    id=node/1540290366</desc>
    <link href="https://www.campingrutadelpurche.es/"></link>
  </wpt>
  <wpt lat="39.2744782" lon="-0.2777912">
    <ele>1.0</ele>
    <name>San Pascual</name>
    <desc>drinking_water=yes; name=San Pascual; power_supply=yes;
    tourism=camp_site; wheelchair=yes; id=node/1644978664</desc>
  </wpt>
  <wpt lat="39.2525781" lon="-0.266226">
    <ele>1.0</ele>
    <name>Les Palmeres</name>
    <desc>drinking_water=yes; name=Les Palmeres; name:ca=Les
    Palmeres; power_supply=yes; tourism=camp_site; wheelchair=yes;
    id=node/1644979063</desc>
  </wpt>
  <wpt lat="39.2419151" lon="-0.2637348">
    <ele>1.0</ele>
    <name>Camping Barraquetes</name>
    <desc>drinking_water=yes; name=Camping Barraquetes;
    power_supply=yes; toilets=yes; tourism=camp_site;
    wheelchair=yes; id=node/1649071282</desc>
  </wpt>
  <wpt lat="37.6430775" lon="-1.948046">
    <ele>906.0</ele>
    <name>El Zorro</name>
    <desc>email=info@campingelzorro.info; internet_access=wlan;
    internet_access:fee=no; mobile=+34 666295544; name=El Zorro;
    nudism=yes; phone=+34 968959268; smoking=separated; stars=4;
    tourism=camp_site; website=https://campingelzorro.com/;
    id=node/1652907052</desc>
    <link href="https://campingelzorro.com/"></link>
  </wpt>
  <wpt lat="40.8318427" lon="-0.8812225">
    <ele>956.0</ele>
    <name>Camping "Las Cabañas"</name>
    <desc>name=Camping "Las Cabañas"; tourism=camp_site;
    id=node/1672154797</desc>
  </wpt>
  <wpt lat="38.8810622" lon="-3.6957884">
    <ele>645.0</ele>
    <name>Los Arenales</name>
    <desc>name=Los Arenales; tourism=camp_site;
    id=node/1818955547</desc>
  </wpt>
  <wpt lat="41.1304758" lon="1.3035907">
    <ele>4.0</ele>
    <name>Camping Las Palmeras</name>
    <desc>caravans=yes; name=Camping Las Palmeras; tents=yes;
    tourism=camp_site; id=node/1854100731</desc>
  </wpt>
  <wpt lat="42.9217384" lon="-5.961397">
    <ele>1109.0</ele>
    <name>Camping Rio Luna</name>
    <desc>addr:city=Sena de Luna; addr:street=LE-3416 acceso a
    Abelgas; internet_access=wlan; name=Camping Rio Luna; phone=+34
    987 597717; tourism=camp_site; id=node/1876615703</desc>
  </wpt>
  <wpt lat="36.9199834" lon="-4.8042406">
    <ele>368.0</ele>
    <name>Parque Ardales Zona 1</name>
    <desc>caravans=yes; drinking_water=yes; internet_access=wlan;
    name=Parque Ardales Zona 1; power_supply=yes; shower=yes;
    tents=yes; toilets=yes; toilets:wheelchair=yes;
    tourism=camp_site;
    website=http://www.parqueardales.com/camping/;
    wheelchair=limited; id=node/1886917209</desc>
    <link href="http://www.parqueardales.com/camping/"></link>
  </wpt>
  <wpt lat="40.3792316" lon="0.3885074">
    <ele>28.0</ele>
    <name>Los Pinos</name>
    <desc>access=customers; addr:city=Peníscola / Peñíscola;
    addr:housenumber=2; addr:postcode=12598; addr:street=Camí dels
    Abellers; cabins=yes; caravans=yes;
    email=campinglospinos@hotmail.com; fax=+34 964489016; fee=yes;
    name=Los Pinos; phone=+34 964480379,+34 629459947;
    power_supply=yes; stars=4; swimming_pool=yes; tents=yes;
    tourism=camp_site; website=http://www.campinglospinos.com/;
    id=node/1976946565</desc>
    <link href="http://www.campinglospinos.com/"></link>
  </wpt>
  <wpt lat="37.9048653" lon="-6.6727701">
    <ele>724.0</ele>
    <name>El Madroñal</name>
    <desc>caravans=yes; drinking_water=yes; name=El Madroñal;
    power_supply=yes; shower=yes; tents=yes; toilets=yes;
    tourism=camp_site; website=https://www.campingelmadronal.com/;
    id=node/1990288200</desc>
    <link href="https://www.campingelmadronal.com/"></link>
  </wpt>
  <wpt lat="28.3351192" lon="-16.6767328">
    <ele>1023.0</ele>
    <name>Zona de Acampada de Las Hayas</name>
    <desc>backcountry=yes; capacity=50; capacity:caravans=2;
    caravans=yes; fee=no; name=Zona de Acampada de Las Hayas;
    openfire=no; operator=Cabildo Insular de Tenerife; phone=+34
    922239199; tents=yes; tourism=camp_site;
    website=https://centralreservas.tenerife.es/actividad/17;
    id=node/2001290656</desc>
    <link href="https://centralreservas.tenerife.es/actividad/17">
    </link>
  </wpt>
  <wpt lat="28.3520285" lon="-16.6300605">
    <ele>1084.0</ele>
    <name>Zona de Acampada de La Tahona</name>
    <desc>backcountry=yes; capacity=10; caravans=no; fee=no;
    name=Zona de Acampada de La Tahona; openfire=no;
    operator=Cabildo Insular de Tenerife; phone=+34 922239199;
    tents=yes; tourism=camp_site;
    website=https://centralreservas.tenerife.es/actividad/15;
    id=node/2001290658</desc>
    <link href="https://centralreservas.tenerife.es/actividad/15">
    </link>
  </wpt>
  <wpt lat="40.7063057" lon="-6.3348019">
    <ele>759.0</ele>
    <name>node/2015298714</name>
    <desc>tourism=camp_site; id=node/2015298714</desc>
  </wpt>
  <wpt lat="39.4198548" lon="-0.6003524">
    <ele>178.0</ele>
    <name>La Pirámide</name>
    <desc>name=La Pirámide; tourism=camp_site;
    id=node/2268303228</desc>
  </wpt>
  <wpt lat="37.9384499" lon="-5.683815">
    <ele>429.0</ele>
    <name>Camping La Fundicion</name>
    <desc>caravans=yes; drinking_water=yes; name=Camping La
    Fundicion; tents=yes; tourism=camp_site;
    id=node/2284964876</desc>
  </wpt>
  <wpt lat="40.8160691" lon="-0.6432229">
    <ele>940.0</ele>
    <name>node/2310872021</name>
    <desc>tourism=camp_site; id=node/2310872021</desc>
  </wpt>
  <wpt lat="43.3902519" lon="-4.5785194">
    <ele>9.0</ele>
    <name>Camping Playa de la Franca</name>
    <desc>name=Camping Playa de la Franca; tourism=camp_site;
    id=node/2424512494</desc>
  </wpt>
  <wpt lat="42.3751417" lon="1.0757671">
    <ele>1000.0</ele>
    <name>Borda Castell</name>
    <desc>addr:city=Escos (Lleida); addr:housename=Borda Castell;
    addr:postcode=25593; ele=1000; name=Borda Castell; note=Borda
    Castell is a small campsite (15 spots) with basic facilities
    for those who like to camp in the middle of nature with
    excellent views. Access is via dirt road, suitable for normal
    cars; phone=+34 636542286; tourism=camp_site;
    website=http://www.bordacastell.com/; id=node/2505065758</desc>
    <link href="http://www.bordacastell.com/"></link>
  </wpt>
  <wpt lat="27.7566211" lon="-15.6792771">
    <ele>5.0</ele>
    <name>node/2604959878</name>
    <desc>tourism=camp_site; id=node/2604959878</desc>
  </wpt>
  <wpt lat="27.9292369" lon="-15.665202">
    <ele>936.0</ele>
    <name>Presa de Las Niñas</name>
    <desc>backcountry=yes; bar=no; capacity=180; caravans=yes;
    drinking_water=yes; internet_access=no; name=Presa de Las
    Niñas; nudism=no; official_name=Zona de Acampada Presa de Las
    Niñas; opening_hours=24/7; reservation=yes;
    sanitary_dump_station=no; swimming_pool=no; tents=yes;
    toilets=yes; tourism=camp_site;
    website=https://cabildo.grancanaria.com/w/zona-de-acampada-de-la-presa-de-las-ni%C3%B1as;
    id=node/2608504736</desc>
    <link href="https://cabildo.grancanaria.com/w/zona-de-acampada-de-la-presa-de-las-ni%C3%B1as">
    </link>
  </wpt>
  <wpt lat="36.9275782" lon="-3.4680986">
    <ele>1011.0</ele>
    <name>King of the Mountain</name>
    <desc>email=info@lemondrops.mobi; name=King of the Mountain;
    source=https://www.gocampr.com/places/5b0037983345069246a1c7c8;
    tourism=camp_site; id=node/2618606361</desc>
    <link href="https://www.gocampr.com/places/5b0037983345069246a1c7c8">
    </link>
  </wpt>
  <wpt lat="38.5254946" lon="-0.6727571">
    <ele>1008.0</ele>
    <name>node/2658571609</name>
    <desc>tourism=camp_site; id=node/2658571609</desc>
  </wpt>
  <wpt lat="36.9952856" lon="-2.7851978">
    <ele>800.0</ele>
    <name>Camping Almócita</name>
    <desc>addr:city=Almócita; addr:postcode=04458; addr:street=Los
    Majuelos; ele=800; name=Camping Almócita; tourism=camp_site;
    id=node/2746184562</desc>
  </wpt>
  <wpt lat="40.4440154" lon="-6.4464361">
    <ele>794.0</ele>
    <name>Camping “La Dehesa”</name>
    <desc>access=yes; addr:city=Agallas; bbq=yes; caravans=yes;
    fee=yes; hot_water=yes; name=Camping “La Dehesa”; phone=+34 923
    490 301; phone:mobile=+34 686 299216; power_supply=yes;
    reservation=recommended; shower=yes; tents=yes; toilets=yes;
    tourism=camp_site;
    website=https://aytoagallas.es/oferta-camping-la-dehesa-de-agallas;
    id=node/2757766445</desc>
    <link href="https://aytoagallas.es/oferta-camping-la-dehesa-de-agallas">
    </link>
  </wpt>
  <wpt lat="40.0302335" lon="-1.143982">
    <ele>1144.0</ele>
    <name>Don Guillen</name>
    <desc>name=Don Guillen; operator=Puebla de San Miguel;
    tourism=camp_site; id=node/3049082009</desc>
  </wpt>
  <wpt lat="42.3898086" lon="-7.5890007">
    <ele>624.0</ele>
    <name>Canón do Sil</name>
    <desc>caravans=yes; email=info@canondosilcamping.com;
    name=Canón do Sil; phone=+34 608 537 017; tents=yes;
    tourism=camp_site; website=https://www.canondosilcamping.com/;
    id=node/3181898861</desc>
    <link href="https://www.canondosilcamping.com/"></link>
  </wpt>
  <wpt lat="40.4130076" lon="-2.0650337">
    <ele>1026.0</ele>
    <name>Camping Serranía</name>
    <desc>email=info@campingserrania.com; name=Camping Serranía;
    phone=+34 969 314 000; tourism=camp_site;
    website=https://campingserrania.es/index.html;
    id=node/3190858626</desc>
    <link href="https://campingserrania.es/index.html"></link>
  </wpt>
  <wpt lat="42.4239469" lon="-8.0975495">
    <ele>362.0</ele>
    <name>Camping e Pallozas do Arenteiro</name>
    <desc>cabins=yes; caravans=yes; email=camping@carballino.org;
    fee=yes; name=Camping e Pallozas do Arenteiro; phone=+34 988 27
    38 09; tents=yes; tourism=camp_site; id=node/3204524928</desc>
  </wpt>
  <wpt lat="40.4359867" lon="-6.4800828">
    <ele>836.0</ele>
    <name>node/3301448594</name>
    <desc>tourism=camp_site; id=node/3301448594</desc>
  </wpt>
  <wpt lat="43.5527259" lon="-6.1961706">
    <ele>20.0</ele>
    <name>node/3322098313</name>
    <desc>tourism=camp_site; id=node/3322098313</desc>
  </wpt>
  <wpt lat="38.2676731" lon="-0.6823294">
    <ele>81.0</ele>
    <name>Hort de Montenegro</name>
    <desc>leisure=playground; name=Hort de Montenegro; name:ca=Hort
    de Montenegro; tourism=camp_site; wheelchair=limited;
    id=node/3398803993</desc>
  </wpt>
  <wpt lat="38.4805333" lon="-0.699792">
    <ele>600.0</ele>
    <name>node/3399041726</name>
    <desc>tourism=camp_site; id=node/3399041726</desc>
  </wpt>
  <wpt lat="42.188836" lon="2.5854949">
    <ele>381.0</ele>
    <name>Càmping Cugulera</name>
    <desc>name=Càmping Cugulera; name:ca=Càmping Cugulera;
    tourism=camp_site; id=node/3489826493</desc>
  </wpt>
  <wpt lat="29.126409" lon="-13.4684175">
    <ele>23.0</ele>
    <name>Finca de Arrieta</name>
    <desc>name=Finca de Arrieta; tourism=camp_site;
    id=node/3491851665</desc>
  </wpt>
  <wpt lat="37.7329356" lon="-5.2898397">
    <ele>129.0</ele>
    <name>Campamento-Albergue Juvenil "Los Cabezos"</name>
    <desc>building=yes; name=Campamento-Albergue Juvenil "Los
    Cabezos"; tourism=camp_site; id=node/3596126165</desc>
  </wpt>
  <wpt lat="41.9117159" lon="2.3845145">
    <ele>544.0</ele>
    <name>Càmping Molí de Bojons</name>
    <desc>name=Càmping Molí de Bojons; name:ca=Càmping Molí de
    Bojons; tourism=camp_site; id=node/3636729025</desc>
  </wpt>
  <wpt lat="40.90658" lon="0.0626397">
    <ele>565.0</ele>
    <name>La Fresneda</name>
    <desc>addr:city=La Fresneda; addr:postcode=44596; capacity=25;
    ele=565; internet_access=wlan; name=La Fresneda; phone=+34 978
    85 40 85; tourism=camp_site;
    website=https://www.campinglafresneda.com/; wheelchair=yes;
    id=node/3708308452</desc>
    <link href="https://www.campinglafresneda.com/"></link>
  </wpt>
  <wpt lat="38.3252917" lon="-2.5745831">
    <ele>1292.0</ele>
    <name>Zona de Acampada las Acebeas</name>
    <desc>name=Zona de Acampada las Acebeas; tourism=camp_site;
    id=node/3709131509</desc>
  </wpt>
  <wpt lat="38.2520633" lon="-2.6838459">
    <ele>951.0</ele>
    <name>Camping El Robledo</name>
    <desc>name=Camping El Robledo; tourism=camp_site;
    id=node/3709441610</desc>
  </wpt>
  <wpt lat="42.7561067" lon="0.6945849">
    <ele>768.0</ele>
    <name>Càmping Era Lana</name>
    <desc>name=Càmping Era Lana; tourism=camp_site;
    id=node/3723667244</desc>
  </wpt>
  <wpt lat="38.4823861" lon="-2.4476351">
    <ele>1096.0</ele>
    <name>Campamento Juvenil San Juan</name>
    <desc>name=Campamento Juvenil San Juan; phone=+34 630 483 028;
    tourism=camp_site; website=https://www.campamentosanjuan.com/;
    id=node/3894322899</desc>
    <link href="https://www.campamentosanjuan.com/"></link>
  </wpt>
  <wpt lat="38.6396442" lon="-0.7475525">
    <ele>785.0</ele>
    <name>Àrea d'acampanda de la Partida Campaneta (Nom turístic
    inventat: Lomas de Jara)</name>
    <desc>access=permissive; capacity:persons=120; fee=no;
    name=Àrea d'acampanda de la Partida Campaneta (Nom turístic
    inventat: Lomas de Jara); tourism=camp_site;
    id=node/3928171295</desc>
  </wpt>
  <wpt lat="36.7847189" lon="-4.1745508">
    <ele>230.0</ele>
    <name>Camping Iznate</name>
    <desc>name=Camping Iznate; tourism=camp_site;
    id=node/3960195108</desc>
  </wpt>
  <wpt lat="36.5025505" lon="-4.8044683">
    <ele>43.0</ele>
    <name>Camping Buganvilla</name>
    <desc>addr:city=Marbella; addr:milestone=Km. 188.8;
    addr:postcode=29600; addr:street=N-340; name=Camping
    Buganvilla; phone=+34 952 83 19 73; tourism=camp_site;
    website=https://www.campingbuganvilla.es/;
    id=node/3987035353</desc>
    <link href="https://www.campingbuganvilla.es/"></link>
  </wpt>
  <wpt lat="36.9350458" lon="-4.0746986">
    <ele>1042.0</ele>
    <name>La Alcausa</name>
    <desc>name=La Alcausa; operator=Sierras de Tejeda;
    tourism=camp_site; id=node/4086974852</desc>
  </wpt>
  <wpt lat="36.9170593" lon="-4.1201868">
    <ele>408.0</ele>
    <name>node/4087053470</name>
    <desc>description=Acampada con permiso; tourism=camp_site;
    id=node/4087053470</desc>
  </wpt>
  <wpt lat="36.6554538" lon="-5.2886056">
    <ele>421.0</ele>
    <name>Camping Cabañas Jimena de Liber</name>
    <desc>name=Camping Cabañas Jimena de Liber; tourism=camp_site;
    id=node/4106317920</desc>
  </wpt>
  <wpt lat="43.5430554" lon="-5.5294544">
    <ele>16.0</ele>
    <name>Camping Playa España</name>
    <desc>name=Camping Playa España; tourism=camp_site;
    website=http://www.campingplayaespaña.com/;
    id=node/4230886113</desc>
    <link href="http://www.campingplayaespaña.com/"></link>
  </wpt>
  <wpt lat="40.3972477" lon="-4.7875024">
    <ele>890.0</ele>
    <name>Campamento Santa María del Monte</name>
    <desc>name=Campamento Santa María del Monte; tourism=camp_site;
    id=node/4235278972</desc>
  </wpt>
  <wpt lat="39.0640553" lon="-0.4440171">
    <ele>45.0</ele>
    <name>Casa</name>
    <desc>name=Casa; name:ca=Casa; tourism=camp_site;
    id=node/4284776489</desc>
  </wpt>
  <wpt lat="41.528324" lon="1.2329533">
    <ele>639.0</ele>
    <name>node/4301770029</name>
    <desc>nudism=obligatory; tourism=camp_site;
    id=node/4301770029</desc>
  </wpt>
  <wpt lat="40.5453297" lon="-1.0021005">
    <ele>1070.0</ele>
    <name>Santa pola</name>
    <desc>internet_access=wlan; name=Santa pola; tourism=camp_site;
    id=node/4327166102</desc>
  </wpt>
  <wpt lat="37.4537712" lon="-3.9299211">
    <ele>900.0</ele>
    <name>polideportivo</name>
    <desc>name=polideportivo; tourism=camp_site;
    id=node/4330025889</desc>
  </wpt>
  <wpt lat="40.3979191" lon="0.4030676">
    <ele>11.0</ele>
    <name>la Volta</name>
    <desc>access=customers; addr:housenumber=20;
    addr:postcode=12598; addr:street=Camino de La Volta;
    caravans=yes; email=info@campinglavolta.com; fee=yes;
    internet_access=wlan; name=la Volta; name:ca=la Volta; stars=3;
    tourism=camp_site; id=node/4333720391</desc>
  </wpt>
  <wpt lat="39.0425776" lon="-0.2290479">
    <ele>27.0</ele>
    <name>node/4335619447</name>
    <desc>tourism=camp_site; id=node/4335619447</desc>
  </wpt>
  <wpt lat="42.1818528" lon="3.1039991">
    <ele>3.0</ele>
    <name>l' Amfora</name>
    <desc>name=l' Amfora; tourism=camp_site;
    id=node/4353698501</desc>
  </wpt>
  <wpt lat="36.5970096" lon="-4.5106938">
    <ele>7.0</ele>
    <name>Costasol cruseros</name>
    <desc>name=Costasol cruseros; name:es=Costasol cruseros;
    tourism=camp_site; id=node/4382793089</desc>
  </wpt>
  <wpt lat="36.7380926" lon="-3.6779705">
    <ele>29.0</ele>
    <name>Camping Tropical Almuñécar</name>
    <desc>addr:city=Almuñécar; addr:milestone=km. 315.4;
    addr:postcode=18690; addr:street=N-340;
    email=info@campingtropical.es;
    image=http://campingtropical.es/wp-content/uploads/2014/03/logo.jpg;
    name=Camping Tropical Almuñécar; operator=Henning Maetz;
    phone=+34 958 63 03 22; tourism=camp_site;
    website=https://campingtropical.es/; id=node/4396040492</desc>
    <link href="https://campingtropical.es/"></link>
  </wpt>
  <wpt lat="38.6579371" lon="-0.2418778">
    <ele>1033.0</ele>
    <name>node/4401467293</name>
    <desc>tourism=camp_site; id=node/4401467293</desc>
  </wpt>
  <wpt lat="42.1114285" lon="2.6866738">
    <ele>272.0</ele>
    <name>Fang Aventura</name>
    <desc>addr:street=carretera a Falgons s/n;
    internet_access=wlan; name=Fang Aventura; name:ca=Fang
    Aventura; name:es=Fang Aventrua; tourism=camp_site;
    website=https://www.fangaventura.com/;
    id=node/4408365689</desc>
    <link href="https://www.fangaventura.com/"></link>
  </wpt>
  <wpt lat="40.3027154" lon="-4.7626634">
    <ele>698.0</ele>
    <name>Camping Fuente Helecha</name>
    <desc>name=Camping Fuente Helecha; phone=+34 918678487;
    tourism=camp_site; id=node/4411219806</desc>
  </wpt>
  <wpt lat="42.6581855" lon="-8.8845344">
    <ele>95.0</ele>
    <name>Boiro</name>
    <desc>addr:city=Boiro; tourism=camp_site;
    id=node/4417977856</desc>
  </wpt>
  <wpt lat="42.4070208" lon="-0.6468327">
    <ele>583.0</ele>
    <name>Moto Cámping Anzánigo</name>
    <desc>addr:city=Anzánigo; addr:postcode=22830;
    addr:street=Carretera A-1205; email=info@anzanigo.es;
    internet_access=wlan; motorcycle=designated;
    motorcycle_friendly=yes; name=Moto Cámping Anzánigo;
    name:es=Moto Cámping Anzánigo; phone=+34 974348040, +34 976 291
    469; shower=yes; tents=yes; tourism=camp_site;
    website=https://www.anzanigo.es; id=node/4425059903</desc>
    <link href="https://www.anzanigo.es"></link>
  </wpt>
  <wpt lat="36.871456" lon="-5.0466459">
    <ele>741.0</ele>
    <name>node/4441216904</name>
    <desc>tourism=camp_site; id=node/4441216904</desc>
  </wpt>
  <wpt lat="43.0719816" lon="-6.2017728">
    <ele>1211.0</ele>
    <name>Camping Lagos de Somiedo</name>
    <desc>addr:city=Valle de Lago; addr:postcode=33840;
    caravans=yes; drinking_water=yes; name=Camping Lagos de
    Somiedo; phone=+34 985 76 37 76; power_supply=yes; shower=yes;
    tents=yes; toilets=yes; tourism=camp_site;
    website=https://www.campinglagosdesomiedo.com/;
    id=node/4441605629</desc>
    <link href="https://www.campinglagosdesomiedo.com/"></link>
  </wpt>
  <wpt lat="39.6212403" lon="-4.4883555">
    <ele>833.0</ele>
    <name>Camping Los Galindos</name>
    <desc>addr:city=Navahermosa; addr:postcode=45150;
    addr:province=Toledo; addr:street=Camino rural a Hontanar;
    name=Camping Los Galindos; name:en=Camping Los Galindos;
    name:es=Camping Los Galindos; nohousenumber=yes;
    tourism=camp_site; id=node/4451369691</desc>
  </wpt>
  <wpt lat="38.5705961" lon="-0.1817892">
    <ele>299.0</ele>
    <name>Càmping Puig Campana</name>
    <desc>name=Càmping Puig Campana; tourism=camp_site;
    website=http://www.puigcampanacamping.com;
    id=node/4467103875</desc>
    <link href="http://www.puigcampanacamping.com"></link>
  </wpt>
  <wpt lat="42.3968691" lon="2.8811316">
    <ele>89.0</ele>
    <name>Parking</name>
    <desc>name=Parking; name:es=Parking; operator=La jonquera;
    tourism=camp_site; id=node/4511717890</desc>
  </wpt>
  <wpt lat="37.9621094" lon="-4.8106796">
    <ele>597.0</ele>
    <name>Area de acampada Los Villares</name>
    <desc>name=Area de acampada Los Villares; tourism=camp_site;
    id=node/4574580707</desc>
  </wpt>
  <wpt lat="39.8749237" lon="-0.5106134">
    <ele>406.0</ele>
    <name>Alto Mira</name>
    <desc>caravans=yes; drinking_water=yes; name=Alto Mira;
    power_supply=yes; shower=yes; tents=yes; toilets=yes;
    tourism=camp_site; id=node/4608456262</desc>
  </wpt>
  <wpt lat="36.8367493" lon="-4.7140754">
    <ele>291.0</ele>
    <name>Hidden Valley Andalucia</name>
    <desc>name=Hidden Valley Andalucia; operator=Glamping;
    tourism=camp_site; id=node/4641524767</desc>
  </wpt>
  <wpt lat="36.9054307" lon="-4.7486051">
    <ele>295.0</ele>
    <name>Finca La Campana El Chorro</name>
    <desc>addr:city=,Alo; addr:postcode=29500; name=Finca La
    Campana El Chorro; phone=+34 626 963 942; tourism=camp_site;
    website=https://www.fincalacampana.com/;
    id=node/4664321030</desc>
    <link href="https://www.fincalacampana.com/"></link>
  </wpt>
  <wpt lat="36.9070627" lon="-4.7522258">
    <ele>332.0</ele>
    <name>Olive Branch</name>
    <desc>addr:city=Álora / El Chorro; addr:postcode=29500;
    addr:street=LOS ROMERALES;
    email=info@olivebranchelchorro.co.uk; internet_access=yes;
    name=Olive Branch; phone=+34 686669359; tourism=camp_site;
    website=https://www.olivebranchelchorro.co.uk/;
    id=node/4664356280</desc>
    <link href="https://www.olivebranchelchorro.co.uk/"></link>
  </wpt>
  <wpt lat="39.8655767" lon="-2.5709817">
    <ele>823.0</ele>
    <name>Apartamentos Era 124</name>
    <desc>backcountry=yes; drinking_water=no; name=Apartamentos Era
    124; name:es=Apartamentos Era 124; tourism=camp_site;
    id=node/4705260493</desc>
  </wpt>
  <wpt lat="39.7646356" lon="3.3771177">
    <ele>17.0</ele>
    <name>Zona d'acampada s'Arenalet</name>
    <desc>name=Zona d'acampada s'Arenalet; tourism=camp_site;
    id=node/4744756001</desc>
  </wpt>
  <wpt lat="37.8828594" lon="-0.8224374">
    <ele>76.0</ele>
    <name>node/4753066822</name>
    <desc>name:sv=la romers golfclub; tourism=camp_site;
    id=node/4753066822</desc>
  </wpt>
  <wpt lat="38.6863497" lon="0.1192292">
    <ele>53.0</ele>
    <name>Camping Moraira</name>
    <desc>addr:city=Teulada; addr:housenumber=50;
    addr:postcode=03724; addr:street=Camino del Paellero; dog=yes;
    internet_access=wlan; name=Camping Moraira; name:ca=Camping
    Moraira; name:en=Camping Moraira; phone=+34 965 745249;
    tourism=camp_site; website=http://campingmoraira.com;
    id=node/4763602622</desc>
    <link href="http://campingmoraira.com"></link>
  </wpt>
  <wpt lat="38.18646" lon="-2.772948">
    <ele>775.0</ele>
    <name>Camping Montillana</name>
    <desc>addr:city=Hornos de Segura; addr:milestone=Km. 78.5;
    addr:postcode=23292; addr:street=Carretera Hornos-Tranco;
    name=Camping Montillana; tourism=camp_site;
    website=https://www.clubrural.com/cabana/jaen/hornos/camping-montillana_134745;
    id=node/4785680925</desc>
    <link href="https://www.clubrural.com/cabana/jaen/hornos/camping-montillana_134745">
    </link>
  </wpt>
  <wpt lat="40.2067013" lon="-5.1226376">
    <ele>564.0</ele>
    <name>Tierra de Gredos</name>
    <desc>
    contact:facebook=https://www.facebook.com/LaTierradeGredos;
    name=Tierra de Gredos; phone=+34 625 16 14 15;
    tourism=camp_site; id=node/4792254953</desc>
  </wpt>
  <wpt lat="42.3845498" lon="0.2033827">
    <ele>750.0</ele>
    <name>Griebal</name>
    <desc>name=Griebal; name:es=Griebal; tourism=camp_site;
    id=node/4799859521</desc>
  </wpt>
  <wpt lat="41.0981289" lon="0.8897438">
    <ele>414.0</ele>
    <name>Zona de Lleure L'Acampada</name>
    <desc>drinking_water=yes; fee=no; name=Zona de Lleure
    L'Acampada; operator=Ajuntament de Colldejou; shower=cold;
    tourism=camp_site; id=node/4847679659</desc>
  </wpt>
  <wpt lat="41.0415795" lon="0.7382778">
    <ele>307.0</ele>
    <name>Camping-Alberg Tivissa</name>
    <desc>name=Camping-Alberg Tivissa; tourism=camp_site;
    id=node/4847681811</desc>
  </wpt>
  <wpt lat="41.2125057" lon="1.4384361">
    <ele>145.0</ele>
    <name>node/4856627921</name>
    <desc>tourism=camp_site; id=node/4856627921</desc>
  </wpt>
  <wpt lat="42.2563754" lon="-8.8333158">
    <ele>6.0</ele>
    <name>Camping Nerga</name>
    <desc>name=Camping Nerga; tourism=camp_site;
    id=node/4903624547</desc>
  </wpt>
  <wpt lat="42.1704093" lon="-8.801272">
    <ele>98.0</ele>
    <name>English in Summer</name>
    <desc>name=English in Summer; tourism=camp_site;
    id=node/4908897980</desc>
  </wpt>
  <wpt lat="28.1549211" lon="-16.4360226">
    <ele>12.0</ele>
    <name>node/4978166523</name>
    <desc>tourism=camp_site; id=node/4978166523</desc>
  </wpt>
  <wpt lat="38.9083867" lon="-5.426645">
    <ele>320.0</ele>
    <name>node/5039780523</name>
    <desc>tourism=camp_site; id=node/5039780523</desc>
  </wpt>
  <wpt lat="38.6484" lon="0.0592221">
    <ele>25.0</ele>
    <name>node/5046611822</name>
    <desc>internet_access=wlan; name:en=sol Calpe;
    tourism=camp_site; id=node/5046611822</desc>
  </wpt>
  <wpt lat="39.5353432" lon="3.189931">
    <ele>107.0</ele>
    <name>Campnatur</name>
    <desc>addr:city=Son Macià; addr:postcode=07509;
    internet_access=wlan; internet_access:fee=no; name=Campnatur;
    operator=campnatur.es; tourism=camp_site;
    id=node/5112623717</desc>
  </wpt>
  <wpt lat="42.5911659" lon="-1.2016681">
    <ele>450.0</ele>
    <name>node/5139654323</name>
    <desc>tourism=camp_site; id=node/5139654323</desc>
  </wpt>
  <wpt lat="39.540865" lon="-1.5086278">
    <ele>641.0</ele>
    <name>Venta de Contreras</name>
    <desc>addr:city=Minglanilla; addr:full=Ctra. Puerto de
    Contreras, Km. 2,5 (Hoces del Cabriel); addr:postcode=16260;
    addr:street=CV-4661; cabins=yes; caravans=yes;
    email=campingventacontreras@gmail.com; fee=yes; name=Venta de
    Contreras; opening_hours=Mo-Su 10:00-20:00;
    phone=+34962186170,+34606874206; tents=yes; tourism=camp_site;
    website=https://laventadecontreras.com;
    id=node/5147105024</desc>
    <link href="https://laventadecontreras.com"></link>
  </wpt>
  <wpt lat="38.6292574" lon="-2.3920575">
    <ele>1263.0</ele>
    <name>Fuente de la Peña</name>
    <desc>name=Fuente de la Peña; tourism=camp_site;
    id=node/5166014942</desc>
  </wpt>
  <wpt lat="38.6405986" lon="-2.3782468">
    <ele>1270.0</ele>
    <name>El Mal Paso</name>
    <desc>name=El Mal Paso; tourism=camp_site;
    id=node/5166014943</desc>
  </wpt>
  <wpt lat="38.7645891" lon="-1.0266477">
    <ele>776.0</ele>
    <name>Zona de Acampada controlada "Fuente de Olula"</name>
    <desc>name=Zona de Acampada controlada "Fuente de Olula";
    tourism=camp_site; id=node/5182179996</desc>
  </wpt>
  <wpt lat="36.7889036" lon="-5.0480052">
    <ele>1072.0</ele>
    <name>Bivouac possible</name>
    <desc>name=Bivouac possible; tourism=camp_site;
    id=node/5239601522</desc>
  </wpt>
  <wpt lat="41.0823702" lon="-3.4948804">
    <ele>1295.0</ele>
    <name>Camping La Dehesilla</name>
    <desc>addr:city=Montejo de la Sierra; addr:postcode=28190;
    addr:street=Montejo-Cardoso; addr:unit=Ctra.; name=Camping La
    Dehesilla; phone=+34 91 869 71 28; tourism=camp_site;
    id=node/5269984578</desc>
  </wpt>
  <wpt lat="40.0522615" lon="-1.1961851">
    <ele>934.0</ele>
    <name>node/5291776829</name>
    <desc>backcountry=yes; caravans=yes; fee=no; tents=yes;
    tourism=camp_site; id=node/5291776829</desc>
  </wpt>
  <wpt lat="37.258749" lon="-1.8653063">
    <ele>115.0</ele>
    <name>Camping VerdeVeras</name>
    <desc>addr:postcode=04620; addr:street=San Anton Viejo;
    name=Camping VerdeVeras; tourism=camp_site;
    id=node/5299657222</desc>
  </wpt>
  <wpt lat="28.0088835" lon="-16.664644">
    <ele>4.0</ele>
    <name>node/5392817929</name>
    <desc>tourism=camp_site; id=node/5392817929</desc>
  </wpt>
  <wpt lat="28.1961732" lon="-16.6027923">
    <ele>2083.0</ele>
    <name>Campsite bivouac</name>
    <desc>access=yes; camp_site=basic; capacity:persons=8;
    caravans=no; fee=no; name=Campsite bivouac; static_caravans=no;
    tents=no; tourism=camp_site; id=node/5405639421</desc>
  </wpt>
  <wpt lat="41.2434" lon="-6.52623">
    <ele>681.0</ele>
    <name>El Balcón de las Arribes</name>
    <desc>addr:housenumber=1; addr:postcode=37175;
    addr:street=Calle Peredo Bemposta;
    email=campingelbalcondelasarribes@gmail.com; name=El Balcón de
    las Arribes; phone=+34923089908; tourism=camp_site;
    website=http://campingelbalcondelasarribes.com.es;
    id=node/5416317721</desc>
    <link href="http://campingelbalcondelasarribes.com.es"></link>
  </wpt>
  <wpt lat="40.3804153" lon="0.385716">
    <ele>35.0</ele>
    <name>Sol d'Or</name>
    <desc>access=customers; addr:city=Peníscola / Peñíscola;
    addr:housenumber=137; addr:postcode=12598; addr:street=Avenida
    de la Estación; cabins=yes; caravans=yes;
    email=info@campingsoldor.com; fax=+34 964467583; fee=yes;
    internet_access=wlan; name=Sol d'Or; name:ca=Sol d'Or;
    phone=+34 964480653; power_supply=yes; stars=3;
    swimming_pool=yes; tents=yes; tourism=camp_site;
    website=https://www.campingsoldor.com/;
    id=node/5427247188</desc>
    <link href="https://www.campingsoldor.com/"></link>
  </wpt>
  <wpt lat="42.5517699" lon="-8.8338742">
    <ele>8.0</ele>
    <name>Playa Paisaxe I</name>
    <desc>name=Playa Paisaxe I; tourism=camp_site;
    id=node/5437116993</desc>
  </wpt>
  <wpt lat="37.8185363" lon="-0.7572485">
    <ele>-3.0</ele>
    <name>San Pedro Del Pinatar</name>
    <desc>addr:street=Calle de Puerto; name=San Pedro Del Pinatar;
    opening_hours=24/7; tourism=camp_site;
    id=node/5439772122</desc>
  </wpt>
  <wpt lat="38.2159812" lon="-0.5082584">
    <ele>4.0</ele>
    <name>Handy For Airport ?</name>
    <desc>name=Handy For Airport ?; tourism=camp_site;
    id=node/5461484534</desc>
  </wpt>
  <wpt lat="27.9297868" lon="-15.6261322">
    <ele>1206.0</ele>
    <name>Morro de Santiago</name>
    <desc>backcountry=yes; bar=no; capacity=10; caravans=no;
    drinking_water=no; internet_access=no; name=Morro de Santiago;
    name:en=Camping Site Morro de Santiago; nudism=no;
    official_name=Zona de Acampada Morro de Santiago;
    opening_hours=24/7; reservation=yes; sanitary_dump_station=no;
    swimming_pool=no; tents=yes; toilets=no; tourism=camp_site;
    website=https://cabildo.grancanaria.com/w/zona-de-acampada-de-morro-de-santiago;
    id=node/5464271621</desc>
    <link href="https://cabildo.grancanaria.com/w/zona-de-acampada-de-morro-de-santiago">
    </link>
  </wpt>
  <wpt lat="42.3449737" lon="-7.2632128">
    <ele>781.0</ele>
    <name>Camping da Masía</name>
    <desc>fixme=closed?; name=Camping da Masía; tourism=camp_site;
    id=node/5620577777</desc>
  </wpt>
  <wpt lat="42.6148524" lon="-0.3282501">
    <ele>857.0</ele>
    <name>Antiguo Camping Las Nieves</name>
    <desc>abandoned=yes; access=no; addr:postcode=22600;
    addr:street=Carretera N-260a; name=Antiguo Camping Las Nieves;
    tourism=camp_site; wikipedia=es:Riada del camping de Biescas;
    id=node/5635003248</desc>
  </wpt>
  <wpt lat="38.6578782" lon="0.0776201">
    <ele>38.0</ele>
    <name>Estrella Polar</name>
    <desc>addr:housenumber=1J; addr:postcode=03710;
    addr:street=Partida Los Pinos; internet_access=wlan;
    name=Estrella Polar; name:es=Calpe camping estrella polar;
    opening_hours=Mo-Su 09:00-21:00; tourism=camp_site;
    id=node/5663817522</desc>
  </wpt>
  <wpt lat="38.35248" lon="-0.7502931">
    <ele>211.0</ele>
    <name>Casa tonymar</name>
    <desc>internet_access=wlan; name=Casa tonymar; phone=+34
    658719426; tourism=camp_site;
    website=http://www.casatonymar.nl; id=node/5663851121</desc>
    <link href="http://www.casatonymar.nl"></link>
  </wpt>
  <wpt lat="39.0600162" lon="-0.7758549">
    <ele>489.0</ele>
    <name>Zona de acampada Ceja del rio Grande</name>
    <desc>addr:street=Camino de la Ceja del rio Grande;
    camp_site=standard; name=Zona de acampada Ceja del rio Grande;
    tourism=camp_site; id=node/5682621521</desc>
  </wpt>
  <wpt lat="40.8433856" lon="-3.7517191">
    <ele>1137.0</ele>
    <name>Camping</name>
    <desc>name=Camping; tourism=camp_site;
    id=node/5708138122</desc>
  </wpt>
  <wpt lat="42.5836452" lon="0.2059692">
    <ele>817.0</ele>
    <name>San Marcial</name>
    <desc>addr:street=A138; internet_access=wlan; name=San Marcial;
    tourism=camp_site; id=node/5708954622</desc>
  </wpt>
  <wpt lat="40.03109" lon="-2.0056348">
    <ele>1176.0</ele>
    <name>Campamento Juvenil Los palancares</name>
    <desc>name=Campamento Juvenil Los palancares; phone=+34 969 178
    858; tourism=camp_site;
    website=https://deportes.castillalamancha.es/geo/instalacion/campamento-juvenil-los-palancares-cuenca;
    id=node/5747544221</desc>
    <link href="https://deportes.castillalamancha.es/geo/instalacion/campamento-juvenil-los-palancares-cuenca">
    </link>
  </wpt>
  <wpt lat="41.3282214" lon="1.4569732">
    <ele>613.0</ele>
    <name>Àrea recreativa forestal del Montmell</name>
    <desc>backcountry=yes; caravans=yes; description=S'ha de
    reservar a ajuntament@elmontmell.cat. 2€ per persona/nit i 5€
    per tenda/nit, menors de 14 anys gratuït. Màxim 3 nits. En cas
    de dubte trucar al 977 68 84 29.;
    email=ajuntament@elmontmell.cat; internet_access=no; name=Àrea
    recreativa forestal del Montmell; name:ca=Àrea recreativa
    forestal del Montmell; operator=Càmping municipal; phone=+34
    977 68 84 29; tents=yes; tourism=camp_site;
    website=https://www.elmontmell.cat/; wheelchair=no;
    id=node/5760371349</desc>
    <link href="https://www.elmontmell.cat/"></link>
  </wpt>
  <wpt lat="39.175111" lon="-5.1147873">
    <ele>430.0</ele>
    <name>Campamento "Alfredo Rivas"</name>
    <desc>name=Campamento "Alfredo Rivas"; tourism=camp_site;
    id=node/5776799398</desc>
  </wpt>
  <wpt lat="36.0854498" lon="-5.767228">
    <ele>6.0</ele>
    <name>Furgoperfectísimo y gratis</name>
    <desc>name=Furgoperfectísimo y gratis; tourism=camp_site;
    id=node/5781648553</desc>
  </wpt>
  <wpt lat="38.3718977" lon="-2.4396371">
    <ele>832.0</ele>
    <name>Camping Río Tús</name>
    <desc>name=Camping Río Tús; tourism=camp_site;
    id=node/5879268153</desc>
  </wpt>
  <wpt lat="36.1883217" lon="-6.0138318">
    <ele>15.0</ele>
    <name>Camping Camaleón</name>
    <desc>name=Camping Camaleón; phone=+34 956 43 71 54;
    tourism=camp_site; website=https://www.campingcamaleon.com/;
    id=node/5945104300</desc>
    <link href="https://www.campingcamaleon.com/"></link>
  </wpt>
  <wpt lat="40.3922361" lon="0.4068494">
    <ele>4.0</ele>
    <name>Camping Vizmar</name>
    <desc>access=customers; cabins=yes; caravans=yes; fee=yes;
    name=Camping Vizmar; phone=+34 964473439,+34 658928287;
    power_supply=yes; stars=3; tents=yes; tourism=camp_site;
    website=http://www.campingvizmar.com; id=node/6003364940</desc>
    <link href="http://www.campingvizmar.com"></link>
  </wpt>
  <wpt lat="37.8669121" lon="-2.7622041">
    <ele>1025.0</ele>
    <name>Camping El Cortijillo</name>
    <desc>capacity=150; name=Camping El Cortijillo;
    tourism=camp_site; website=https://www.cortijillo.com/;
    id=node/6016182980</desc>
    <link href="https://www.cortijillo.com/"></link>
  </wpt>
  <wpt lat="40.1062928" lon="-4.4811164">
    <ele>410.0</ele>
    <name>Camping El Paraiso</name>
    <desc>name=Camping El Paraiso; tourism=camp_site;
    id=node/6137490760</desc>
  </wpt>
  <wpt lat="40.1037366" lon="-4.4827043">
    <ele>408.0</ele>
    <name>Camping Del Pozo</name>
    <desc>name=Camping Del Pozo; tourism=camp_site;
    id=node/6137490762</desc>
  </wpt>
  <wpt lat="36.918813" lon="-4.2856523">
    <ele>446.0</ele>
    <name>Riogordo Scout</name>
    <desc>name=Riogordo Scout; tourism=camp_site;
    id=node/6150297266</desc>
  </wpt>
  <wpt lat="27.9688616" lon="-15.5683002">
    <ele>1836.0</ele>
    <name>Altos del Pozo</name>
    <desc>access=permit; backcountry=yes; bar=no; capacity=10;
    caravans=yes; fee=no; internet_access=no; name=Altos del Pozo;
    nudism=no; official_name=Zona de Acampada Altos del Pozo;
    opening_hours=24/7; operator=Cabildo de Gran Canaria;
    reservation=yes; sanitary_dump_station=no;
    source=https://cabildo.grancanaria.com/uso-publico;
    swimming_pool=no; tents=yes; tourism=camp_site;
    website=https://cabildo.grancanaria.com/w/zona-de-acampada-altos-del-pozo;
    id=node/6227033339</desc>
    <link href="https://cabildo.grancanaria.com/w/zona-de-acampada-altos-del-pozo">
    </link>
  </wpt>
  <wpt lat="40.3386678" lon="-5.1484656">
    <ele>1440.0</ele>
    <name>Campamento Santa María de Fátima</name>
    <desc>access=private; fee=yes; name=Campamento Santa María de
    Fátima; phone=+34 920 21 28 70; tourism=camp_site;
    website=https://www.cruzadasdesantamaria.org/;
    id=node/6260310150</desc>
    <link href="https://www.cruzadasdesantamaria.org/"></link>
  </wpt>
  <wpt lat="40.3421527" lon="-5.1773749">
    <ele>1402.0</ele>
    <name>Campamento la Cerrada</name>
    <desc>name=Campamento la Cerrada; phone=+34 627 52 44 70;
    tourism=camp_site; website=http://altogredos-ctr.com/;
    id=node/6260310158</desc>
    <link href="http://altogredos-ctr.com/"></link>
  </wpt>
  <wpt lat="40.2674503" lon="-4.8603657">
    <ele>632.0</ele>
    <name>Campamento El Escurialejo</name>
    <desc>addr:city=Gavilanes; addr:postcode=05460;
    description=Nuestras instalaciones se pueden utilizar durante
    todo el año. Es ideal para Ia realizacion de actividades como:
    Encuentros de fin de semana. Practicas de aire libre para
    cursos de monitores. Cursos de técnicos de montana.
    Convivencias.; name=Campamento El Escurialejo; phone=+34 609 63
    48 82,+34 915 54 62 73; tourism=camp_site;
    website=http://idyma.net/; id=node/6329193142</desc>
    <link href="http://idyma.net/"></link>
  </wpt>
  <wpt lat="40.741054" lon="-4.0780539">
    <ele>1339.0</ele>
    <name>Campamentos de la Peñota</name>
    <desc>name=Campamentos de la Peñota; tourism=camp_site;
    id=node/6363150249</desc>
  </wpt>
  <wpt lat="27.9734001" lon="-15.5749462">
    <ele>1797.0</ele>
    <name>Llanos del Salado</name>
    <desc>access=permit; backcountry=yes; bar=no; capacity=50;
    caravans=yes; drinking_water=no; fee=no; internet_access=no;
    name=Llanos del Salado; nudism=no; official_name=Zona de
    Acampada Llanos del Salado; opening_hours=24/7;
    operator=Cabildo de Gran Canaria; power_supply=no;
    reservation=yes; sanitary_dump_station=no; shower=no;
    source=https://cabildo.grancanaria.com/uso-publico;
    swimming_pool=no; tents=yes; toilets=no; tourism=camp_site;
    website=https://cabildo.grancanaria.com/w/zona-de-acampada-llanos-del-salado;
    id=node/6373892296</desc>
    <link href="https://cabildo.grancanaria.com/w/zona-de-acampada-llanos-del-salado">
    </link>
  </wpt>
  <wpt lat="40.3331111" lon="-5.1288363">
    <ele>1490.0</ele>
    <name>Campamento Valdeascas</name>
    <desc>group_only=yes; name=Campamento Valdeascas; phone=+34 920
    34 80 01; tourism=camp_site;
    website=http://www.campamento-gredos.com/;
    id=node/6433884296</desc>
    <link href="http://www.campamento-gredos.com/"></link>
  </wpt>
  <wpt lat="39.6657934" lon="2.5753441">
    <ele>214.0</ele>
    <name>Son Tries</name>
    <desc>addr:city=Esporles; addr:housenumber=19;
    addr:street=Costa de Son Trias; name=Son Tries; name:ca=Son
    Tries; phone=+34656232363; tourism=camp_site;
    website=http://www.refugisontrias.com/;
    id=node/6482633069</desc>
    <link href="http://www.refugisontrias.com/"></link>
  </wpt>
  <wpt lat="40.3443493" lon="-5.3299257">
    <ele>1248.0</ele>
    <name>La tortuga de Zapardiel</name>
    <desc>name=La tortuga de Zapardiel; tourism=camp_site;
    id=node/6518861685</desc>
  </wpt>
  <wpt lat="40.2070073" lon="-4.9377839">
    <ele>464.0</ele>
    <name>Camping La Eliza</name>
    <desc>addr:housenumber=13; addr:postcode=05490;
    addr:street=Calle de Ávila; name=Camping La Eliza;
    phone=+34619690735; tourism=camp_site;
    website=http://www.campinglaeliza.com;
    id=node/6610036586</desc>
    <link href="http://www.campinglaeliza.com"></link>
  </wpt>
  <wpt lat="41.5248933" lon="2.2586256">
    <ele>169.0</ele>
    <name>Terreny d'acampada Can Girona</name>
    <desc>name=Terreny d'acampada Can Girona; name:ca=Terreny
    d'acampada Can Girona; tourism=camp_site;
    id=node/6793953985</desc>
  </wpt>
  <wpt lat="38.0018061" lon="-1.0199368">
    <ele>41.0</ele>
    <name>Camper Park Casablanca</name>
    <desc>addr:city=Zeneta; addr:postcode=30588; addr:street=Ctra.
    RM-F16, s/n; name=Camper Park Casablanca; phone=+34868080442;
    tourism=camp_site; website=https://campercasablanca.com/;
    id=node/6820778445</desc>
    <link href="https://campercasablanca.com/"></link>
  </wpt>
  <wpt lat="41.5616979" lon="-0.1315026">
    <ele>374.0</ele>
    <name>Camping La Estepa</name>
    <desc>name=Camping La Estepa; tourism=camp_site;
    id=node/6865788242</desc>
  </wpt>
  <wpt lat="41.4216696" lon="1.1996609">
    <ele>406.0</ele>
    <name>Zona d'acampada Tossal de la Bala</name>
    <desc>name=Zona d'acampada Tossal de la Bala;
    operator=Ajuntament de Pira; phone=+34 977 88 70 06;
    tourism=camp_site;
    website=https://pira.altanet.org/acampada.php;
    id=node/6898156507</desc>
    <link href="https://pira.altanet.org/acampada.php"></link>
  </wpt>
  <wpt lat="42.6598651" lon="0.3676049">
    <ele>1568.0</ele>
    <name>Campamento de Virgen Blanca</name>
    <desc>addr:city=Gistaín; addr:postcode=22367; addr:street=Valle
    de Gistaín; description=El campamento está consituido por las
    instalaciones fijas y los pabellones de lona, que tienen una
    capacidad de 8 a 10 personas, según la edad. La capacidad de
    las instalaciones y de la pradera es de un total de 200-220
    personas.; email=gestora@campamentovirgenblanca.es;
    name=Campamento de Virgen Blanca; tourism=camp_site;
    id=node/6917370606</desc>
  </wpt>
  <wpt lat="40.0549049" lon="-5.8524571">
    <ele>661.0</ele>
    <name>Campamento Bungalow Arroyo de los Molinos</name>
    <desc>access=yes; addr:city=Arroyomolinos de la Vera;
    addr:street=Calle Duche; capacity=72; charge=16.5 EUR (pensión
    completa); email=gabriel@legola.com; fee=yes;
    internet_access=yes; internet_access:fee=no; name=Campamento
    Bungalow Arroyo de los Molinos; nohousenumber=yes;
    operator=Légola Servicios Turísticos; payment:cash=yes;
    tourism=camp_site; id=node/7001098323</desc>
  </wpt>
  <wpt lat="38.1836878" lon="-4.0410522">
    <ele>622.0</ele>
    <name>Camping La Mirada</name>
    <desc>name=Camping La Mirada; tourism=camp_site;
    id=node/7061843012</desc>
  </wpt>
  <wpt lat="40.6642725" lon="-2.0093816">
    <ele>1055.0</ele>
    <name>Área recreativa «Fuente del Berro»</name>
    <desc>name=Área recreativa «Fuente del Berro»;
    tourism=camp_site; id=node/7101748616</desc>
  </wpt>
  <wpt lat="40.6427442" lon="-1.9177746">
    <ele>1229.0</ele>
    <name>Campamento Fuente de la Peñuela</name>
    <desc>name=Campamento Fuente de la Peñuela; source=Campamento
    Fuente de la Peñuela; tourism=camp_site;
    id=node/7106556840</desc>
  </wpt>
  <wpt lat="38.8576033" lon="-0.5024294">
    <ele>287.0</ele>
    <name>El Palomar</name>
    <desc>addr:postcode=46891; internet_access=wlan; name=El
    Palomar; name:es=Camping municipal Font des Sis;
    operator=Camping Municipal; phone=+34610176444;
    tourism=camp_site;
    website=https://www.elpalomar.es/es/page/camping-municipal-font-sis;
    id=node/7145909787</desc>
    <link href="https://www.elpalomar.es/es/page/camping-municipal-font-sis">
    </link>
  </wpt>
  <wpt lat="41.267059" lon="1.3480345">
    <ele>247.0</ele>
    <name>Club esportiu Bràfim</name>
    <desc>group_only=yes; name=Club esportiu Bràfim; name:ca=Club
    esportiu Bràfim; tourism=camp_site; id=node/7175227572</desc>
  </wpt>
  <wpt lat="42.3089695" lon="-6.4644591">
    <ele>1255.0</ele>
    <name>node/7294335887</name>
    <desc>amenity=motorcycle_parking; tourism=camp_site;
    id=node/7294335887</desc>
  </wpt>
  <wpt lat="38.451651" lon="-4.8662997">
    <ele>570.0</ele>
    <name>node/7295446631</name>
    <desc>backcountry=yes; tourism=camp_site;
    id=node/7295446631</desc>
  </wpt>
  <wpt lat="36.9216328" lon="-3.3819209">
    <ele>884.0</ele>
    <name>Casa Calabaza</name>
    <desc>fixme=Revisar y añadir referencias; name=Casa Calabaza;
    tourism=camp_site; id=node/7502847405</desc>
  </wpt>
  <wpt lat="38.1580972" lon="-2.2508587">
    <ele>1112.0</ele>
    <name>Campamento Cortijo Covaroca</name>
    <desc>name=Campamento Cortijo Covaroca; tourism=camp_site;
    id=node/7508687863</desc>
  </wpt>
  <wpt lat="42.0102809" lon="1.6476238">
    <ele>625.0</ele>
    <name>Forest Days Glamping</name>
    <desc>name=Forest Days Glamping; tourism=camp_site;
    website=https://www.forestdaysglamping.com;
    id=node/7523000285</desc>
    <link href="https://www.forestdaysglamping.com"></link>
  </wpt>
  <wpt lat="40.5001043" lon="-1.7127359">
    <ele>1564.0</ele>
    <name>Campamento Cabrillas</name>
    <desc>email=orea@escolapiosbetania.es; name=Campamento
    Cabrillas; phone=+34 639 152 143; source=Áreas protegidas de
    Castilla-La Mancha; tourism=camp_site;
    website=http://www.campamentocabrillas.es/;
    id=node/7597931221</desc>
    <link href="http://www.campamentocabrillas.es/"></link>
  </wpt>
  <wpt lat="40.5095422" lon="-1.7199467">
    <ele>1534.0</ele>
    <name>Camping Orea</name>
    <desc>addr:city=Orea; addr:postcode=19311; description=Su
    perfecta situación, nos permite realizar de una gran cantidad
    de excursiones por las provincias de Cuenca, Guadalajara y
    Teruel...; email=info@campingorea.com; name=Camping Orea;
    phone=+34 949 836 444; tourism=camp_site;
    website=https://www.campingorea.com/; id=node/7599741320</desc>
    <link href="https://www.campingorea.com/"></link>
  </wpt>
  <wpt lat="41.7703647" lon="2.3907397">
    <ele>718.0</ele>
    <name>Camping Masia Can Cervera</name>
    <desc>name=Camping Masia Can Cervera; tourism=camp_site;
    id=node/7619950997</desc>
  </wpt>
  <wpt lat="37.101217" lon="-2.5209997">
    <ele>796.0</ele>
    <name>node/7700112085</name>
    <desc>camp_type=wildcamp; description=Unofficial: only a flat
    area; impromptu=yes; tourism=camp_site;
    id=node/7700112085</desc>
  </wpt>
  <wpt lat="41.9383049" lon="-2.91037">
    <ele>1178.0</ele>
    <name>Campamento Juvenil Raso de la Nava</name>
    <desc>name=Campamento Juvenil Raso de la Nava;
    tourism=camp_site; id=node/7875663170</desc>
  </wpt>
  <wpt lat="40.9629645" lon="0.3182066">
    <ele>459.0</ele>
    <name>Mas Karmel B&amp;B &amp; Camping</name>
    <desc>name=Mas Karmel B&amp;B &amp; Camping; tourism=camp_site;
    website=https://mas-karmel.eu/; id=node/7888036720</desc>
    <link href="https://mas-karmel.eu/"></link>
  </wpt>
  <wpt lat="41.759252" lon="2.388435">
    <ele>409.0</ele>
    <name>Les Piscines de Montseny</name>
    <desc>access=customers; addr:city=Montseny;
    addr:postcode=08469; addr:street=Camí de les Piscines;
    cabins=yes; caravans=yes; name=Les Piscines de Montseny;
    tourism=camp_site; website=https://www.piscinesmontseny.com/;
    id=node/7894928927</desc>
    <link href="https://www.piscinesmontseny.com/"></link>
  </wpt>
  <wpt lat="40.3423092" lon="-5.1928842">
    <ele>1365.0</ele>
    <name>node/7999271314</name>
    <desc>tourism=camp_site; id=node/7999271314</desc>
  </wpt>
  <wpt lat="40.3438966" lon="-5.1768258">
    <ele>1418.0</ele>
    <name>node/7999271315</name>
    <desc>tourism=camp_site; id=node/7999271315</desc>
  </wpt>
  <wpt lat="39.0680719" lon="-1.0509093">
    <ele>652.0</ele>
    <name>node/8076105579</name>
    <desc>amenity=parking; tourism=camp_site;
    id=node/8076105579</desc>
  </wpt>
  <wpt lat="38.2860211" lon="-2.7673618">
    <ele>957.0</ele>
    <name>Camping Cañada Catena</name>
    <desc>name=Camping Cañada Catena; tourism=camp_site;
    id=node/8227735534</desc>
  </wpt>
  <wpt lat="36.1753851" lon="-5.8970142">
    <ele>2.0</ele>
    <name>campo y mare</name>
    <desc>caravans=yes; drinking_water=yes; name=campo y mare;
    power_supply=yes; sanitary_dump_station=yes; shower=yes;
    tents=yes; toilets=yes; tourism=camp_site;
    id=node/8501518817</desc>
  </wpt>
  <wpt lat="43.0034898" lon="-8.9636663">
    <ele>304.0</ele>
    <name>Campamento Turístico Santa María de Brandoñas</name>
    <desc>caravans=yes; drinking_water=yes; name=Campamento
    Turístico Santa María de Brandoñas; power_supply=yes;
    sanitary_dump_station=yes; shower=yes; tents=yes; toilets=yes;
    tourism=camp_site; wheelchair=yes; id=node/8514919307</desc>
  </wpt>
  <wpt lat="29.0188315" lon="-13.6724333">
    <ele>333.0</ele>
    <name>Olive trees</name>
    <desc>name=Olive trees; tourism=camp_site;
    id=node/8651420422</desc>
  </wpt>
  <wpt lat="40.7754431" lon="-0.3181206">
    <ele>566.0</ele>
    <name>La Rasmia Camping Castellote</name>
    <desc>contact:email=larasmiacamping@gmail.com;
    contact:facebook=https://www.facebook.com/LaRasmiaCamping/;
    contact:phone=+34 694 493637; name=La Rasmia Camping
    Castellote; tourism=camp_site;
    website=https://www.campingcastellote.com/;
    id=node/8672628717</desc>
    <link href="https://www.campingcastellote.com/"></link>
  </wpt>
  <wpt lat="29.1058057" lon="-13.4559082">
    <ele>8.0</ele>
    <name>node/8696965249</name>
    <desc>tourism=camp_site; id=node/8696965249</desc>
  </wpt>
  <wpt lat="29.1012801" lon="-13.4532939">
    <ele>13.0</ele>
    <name>node/8730531047</name>
    <desc>tourism=camp_site; id=node/8730531047</desc>
  </wpt>
  <wpt lat="29.1022117" lon="-13.4539863">
    <ele>8.0</ele>
    <name>node/8730532969</name>
    <desc>tourism=camp_site; id=node/8730532969</desc>
  </wpt>
  <wpt lat="38.3422512" lon="-0.6522086">
    <ele>238.0</ele>
    <name>Finca Familia</name>
    <desc>internet_access=wlan; name=Finca Familia; phone=+31 6 28
    26 04 61; tourism=camp_site; id=node/8781280018</desc>
  </wpt>
  <wpt lat="28.1656886" lon="-16.595156">
    <ele>1518.0</ele>
    <name>node/8898492034</name>
    <desc>tourism=camp_site; id=node/8898492034</desc>
  </wpt>
  <wpt lat="28.2558077" lon="-16.676264">
    <ele>2741.0</ele>
    <name>node/8898507875</name>
    <desc>description=Wind protected. Temperaturs in between road
    and Teide top. In July around 10°C.;
    official_status=unofficial; tourism=camp_site;
    id=node/8898507875</desc>
  </wpt>
  <wpt lat="28.2169109" lon="-16.5733361">
    <ele>2122.0</ele>
    <name>node/8898511521</name>
    <desc>tourism=camp_site; id=node/8898511521</desc>
  </wpt>
  <wpt lat="35.9125875" lon="-5.3622125">
    <ele>36.0</ele>
    <name>Scouts</name>
    <desc>group_only=yes; name=Scouts; tourism=camp_site;
    id=node/8922326913</desc>
  </wpt>
  <wpt lat="28.5379239" lon="-16.3761046">
    <ele>83.0</ele>
    <name>Camping invernaderito</name>
    <desc>addr:housenumber=151; addr:street=Camino la costa;
    caravans=yes; drinking_water=yes; name=Camping invernaderito;
    phone=+34 922 099 498; power_supply=yes; shower=yes; tents=yes;
    tourism=camp_site; website=https://campinginvernaderito.com;
    id=node/8986318374</desc>
    <link href="https://campinginvernaderito.com"></link>
  </wpt>
  <wpt lat="38.7744077" lon="-0.5248633">
    <ele>773.0</ele>
    <name>Zona d'Acampada Zamorano</name>
    <desc>access=yes; backcountry=yes; camp_site=standard;
    caravans=no; fee=no; name=Zona d'Acampada Zamorano;
    operator=Generalitat Valenciana; shower=yes;
    static_caravans=no; tents=yes; toilets=yes; tourism=camp_site;
    website=https://icvficherosweb.icv.gva.es/doc_asociada_visor/internet/forestal/instalaciones_recreativas/03003-AL047-3000.pdf;
    id=node/9007776589</desc>
    <link href="https://icvficherosweb.icv.gva.es/doc_asociada_visor/internet/forestal/instalaciones_recreativas/03003-AL047-3000.pdf">
    </link>
  </wpt>
  <wpt lat="40.2707502" lon="-5.8361063">
    <ele>754.0</ele>
    <name>Albergue Valle del Ambroz</name>
    <desc>access=customers; addr:city=Hervás; addr:postcode=10700;
    addr:street=Camino de Marinejo Km 1.6; camp_site=deluxe;
    capacity:persons=80; caravans=no; fee=yes; name=Albergue Valle
    del Ambroz; payment:cash=yes; payment:credit_cards=yes;
    static_caravans=no; tents=yes; tourism=camp_site;
    id=node/9032556317</desc>
  </wpt>
  <wpt lat="28.3072492" lon="-16.4788293">
    <ele>1736.0</ele>
    <name>node/9050475698</name>
    <desc>description=flat and soft forest ground;
    tourism=camp_site; id=node/9050475698</desc>
  </wpt>
  <wpt lat="41.6630621" lon="1.735582">
    <ele>396.0</ele>
    <name>Camping Montserrat</name>
    <desc>fee=yes; name=Camping Montserrat; phone=+34 93 743 32 31;
    tourism=camp_site; website=https://campingmontserrat.cat/;
    id=node/9077915748</desc>
    <link href="https://campingmontserrat.cat/"></link>
  </wpt>
  <wpt lat="42.2505289" lon="-7.1618567">
    <ele>568.0</ele>
    <name>Camping Los Arces</name>
    <desc>name=Camping Los Arces; tourism=camp_site;
    id=node/9083019917</desc>
  </wpt>
  <wpt lat="28.3016543" lon="-16.4537917">
    <ele>1209.0</ele>
    <name>node/9155166991</name>
    <desc>description=It is possible to put up a small tent or
    mattress in the tunnel.; shelter=yes;
    shelter_type=rock_shelter; tourism=camp_site;
    id=node/9155166991</desc>
  </wpt>
  <wpt lat="37.0489457" lon="-2.4229977">
    <ele>362.0</ele>
    <name>Fort Bravo</name>
    <desc>caravans=yes; contact:email=info@fortbravo.es;
    contact:facebook=https://m.facebook.com/100063498821021/;
    contact:instagram=https://www.instagram.com/fortbravooficial/;
    contact:phone=+34 902 07 08 14;
    contact:website=https://www.campingfortbravo.es/;
    drinking_water=yes; name=Fort Bravo; nudism=no;
    power_supply=no; sanitary_dump_station=yes; shower=yes;
    tents=yes; toilets=yes; tourism=camp_site;
    id=node/9162530126</desc>
    <link href="https://www.campingfortbravo.es/"></link>
  </wpt>
  <wpt lat="40.4157116" lon="0.0703136">
    <ele>462.0</ele>
    <name>https://tirig.es/</name>
    <desc>description=Campo de fútbol de Tírig, habilitado como
    zona de acampada libre. Es necesario contactar con el
    ayuntamiento; description:ca=Camp de futbol de Tírig, habilitat
    com a zona d'acampada lliure. Cal contactar amb l'ajuntament;
    phone=+34 658 05 52 41; tourism=camp_site;
    website=https://tirig.es/; id=node/9196110617</desc>
    <link href="https://tirig.es/"></link>
  </wpt>
  <wpt lat="42.7924012" lon="0.9071129">
    <ele>2414.0</ele>
    <name>Bivouac possible</name>
    <desc>access=permissive; capacity=2; name=Bivouac possible;
    tourism=camp_site; id=node/9208005225</desc>
  </wpt>
  <wpt lat="38.3920848" lon="-0.4130418">
    <ele>14.0</ele>
    <name>CAMPER AREA NATUR PLAYA MUCHAVISTA</name>
    <desc>caravans=yes; drinking_water=yes; name=CAMPER AREA NATUR
    PLAYA MUCHAVISTA; power_supply=yes; shower=yes; tents=no;
    toilets=yes; tourism=camp_site; id=node/9217980417</desc>
  </wpt>
  <wpt lat="42.8357034" lon="-8.5126874">
    <ele>164.0</ele>
    <name>node/9356470426</name>
    <desc>tourism=camp_site; id=node/9356470426</desc>
  </wpt>
  <wpt lat="28.338221" lon="-16.8177236">
    <ele>553.0</ele>
    <name>node/9511745701</name>
    <desc>tourism=camp_site; id=node/9511745701</desc>
  </wpt>
  <wpt lat="28.0191033" lon="-16.6231977">
    <ele>3.0</ele>
    <name>node/9511761678</name>
    <desc>tourism=camp_site; id=node/9511761678</desc>
  </wpt>
  <wpt lat="28.2272881" lon="-16.8178068">
    <ele>279.0</ele>
    <name>node/9511762148</name>
    <desc>description=Not much civilisation around here, just
    abandoned houses. Some flat terraces to pitch a tent.;
    tourism=camp_site; id=node/9511762148</desc>
  </wpt>
  <wpt lat="42.9460575" lon="-5.5537845">
    <ele>1126.0</ele>
    <name>node/9631160415</name>
    <desc>tourism=camp_site; id=node/9631160415</desc>
  </wpt>
  <wpt lat="38.7120968" lon="-0.4228818">
    <ele>555.0</ele>
    <name>Camping Rural La Masia</name>
    <desc>email=info@campingrurallamasia.eu; name=Camping Rural La
    Masia; phone=+34685094734; tourism=camp_site;
    website=https://campingrurallamasia.eu;
    id=node/9749827690</desc>
    <link href="https://campingrurallamasia.eu"></link>
  </wpt>
  <wpt lat="42.5440865" lon="-8.5280922">
    <ele>277.0</ele>
    <name>node/9814222596</name>
    <desc>tourism=camp_site; id=node/9814222596</desc>
  </wpt>
  <wpt lat="38.218348" lon="-2.6170991">
    <ele>1138.0</ele>
    <name>Camping Garrote Gordo</name>
    <desc>caravans=yes; name=Camping Garrote Gordo;
    tourism=camp_site; id=node/9967490017</desc>
  </wpt>
  <wpt lat="38.9189126" lon="-0.9010425">
    <ele>786.0</ele>
    <name>Zona de Acampada Fuente Las Arenas</name>
    <desc>bbq=yes; capacity:persons=100; drinking_water=yes;
    fee=no; name=Zona de Acampada Fuente Las Arenas;
    picnic_table=yes; tourism=camp_site; id=node/10089802336</desc>
  </wpt>
  <wpt lat="38.8806106" lon="-0.9210578">
    <ele>770.0</ele>
    <name>Zona de Acampada El Regajo</name>
    <desc>bbq=yes; fee=no; lit=no; name=Zona de Acampada El Regajo;
    shower=cold; toilets=yes; tourism=camp_site;
    id=node/10102851915</desc>
  </wpt>
  <wpt lat="38.7831794" lon="-0.5531777">
    <ele>552.0</ele>
    <name>Alfalfara Camper Park</name>
    <desc>addr:housenumber=8; addr:street=Lugar Diseminados;
    name=Alfalfara Camper Park; phone=+34 660 97 76 70;
    tourism=camp_site; website=https://alfafaracamperpark.es/;
    id=node/10139579658</desc>
    <link href="https://alfafaracamperpark.es/"></link>
  </wpt>
  <wpt lat="36.7244422" lon="-4.1268096">
    <ele>3.0</ele>
    <name>El Hornillo</name>
    <desc>name=El Hornillo; name:es=El Hornillo Playa (Área de
    autocaravanas); tourism=camp_site; id=node/10151458620</desc>
  </wpt>
  <wpt lat="40.9386213" lon="-1.9802977">
    <ele>1253.0</ele>
    <name>Campamento del Área de Naturaleza</name>
    <desc>access=permit; group_only=yes; name=Campamento del Área
    de Naturaleza; tourism=camp_site; id=node/10199422812</desc>
  </wpt>
  <wpt lat="36.7476179" lon="-3.8730995">
    <ele>34.0</ele>
    <name>Wild Camping in town centre</name>
    <desc>name=Wild Camping in town centre; name:en=Tolerated out
    of season. Surprisingly quiet.; tourism=camp_site;
    id=node/10571073609</desc>
  </wpt>
  <wpt lat="36.5978526" lon="-6.2739806">
    <ele>19.0</ele>
    <name>node/10571262709</name>
    <desc>tourism=camp_site; id=node/10571262709</desc>
  </wpt>
  <wpt lat="37.2209194" lon="-6.5154656">
    <ele>65.0</ele>
    <name>Global Tribe Biodynamic Ecovillage</name>
    <desc>name=Global Tribe Biodynamic Ecovillage;
    tourism=camp_site; website=https://www.global-tribe.org/;
    id=node/10594416666</desc>
    <link href="https://www.global-tribe.org/"></link>
  </wpt>
  <wpt lat="36.8696976" lon="-5.1670364">
    <ele>590.0</ele>
    <name>El Nogalejo</name>
    <desc>addr:postcode=11692; addr:street=Carretera Setenil
    Alcalá; email=info@campingelnogalejo.es; internet_access=wlan;
    name=El Nogalejo; phone=+34623392863; tourism=camp_site;
    website=https://www.campingelnogalejo.es/;
    id=node/10681194505</desc>
    <link href="https://www.campingelnogalejo.es/"></link>
  </wpt>
  <wpt lat="38.621595" lon="-0.4045125">
    <ele>844.0</ele>
    <name>Buena Vista</name>
    <desc>name=Buena Vista; tourism=camp_site;
    website=https://www.buenavista.camp/travels;
    id=node/10689102276</desc>
    <link href="https://www.buenavista.camp/travels"></link>
  </wpt>
  <wpt lat="28.1909835" lon="-16.6651387">
    <ele>2120.0</ele>
    <name>Zona de acampada Las Lajas</name>
    <desc>backcountry=yes; capacity=50; capacity:caravans=2;
    caravans=yes; fee=no; name=Zona de acampada Las Lajas;
    openfire=no; operator=Cabildo Insular de Tenerife; phone=+34
    922239199; tents=yes; tourism=camp_site;
    website=https://centralreservas.tenerife.es/actividad/11;
    id=way/28267059; ; id=node/10718543104</desc>
    <link href="https://centralreservas.tenerife.es/actividad/11">
    </link>
  </wpt>
  <wpt lat="28.1946625" lon="-16.6128322">
    <ele>2046.0</ele>
    <name>node/10727464996</name>
    <desc>tourism=camp_site; id=node/10727464996</desc>
  </wpt>
  <wpt lat="28.1826696" lon="-16.5973366">
    <ele>1672.0</ele>
    <name>node/10727477732</name>
    <desc>tourism=camp_site; id=node/10727477732</desc>
  </wpt>
  <wpt lat="28.2880357" lon="-16.7872594">
    <ele>1217.0</ele>
    <name>node/10730285315</name>
    <desc>tourism=camp_site; id=node/10730285315</desc>
  </wpt>
  <wpt lat="28.3000417" lon="-16.7961217">
    <ele>1145.0</ele>
    <name>node/10730298710</name>
    <desc>tourism=camp_site; id=node/10730298710</desc>
  </wpt>
  <wpt lat="28.2716732" lon="-16.7953835">
    <ele>1102.0</ele>
    <name>node/10730325110</name>
    <desc>tourism=camp_site; id=node/10730325110</desc>
  </wpt>
  <wpt lat="37.8344343" lon="-1.580607">
    <ele>816.0</ele>
    <name>Zona de Acampada Las Alquerías</name>
    <desc>backcountry=yes; caravans=no;
    email=infoespaciosprotegidos@carm.es; name=Zona de Acampada Las
    Alquerías; operator=Parque Regional Sierra Espuña; phone=+34
    968 228 890; reservation=required; shower=no; surface=ground;
    tents=yes; toilets=no; tourism=camp_site;
    website=https://territoriosierraespuna.com/ver-y-hacer/parque/visitalo/zonas-de-acampada/;
    wheelchair=yes; id=node/10732973032</desc>
    <link href="https://territoriosierraespuna.com/ver-y-hacer/parque/visitalo/zonas-de-acampada/">
    </link>
  </wpt>
  <wpt lat="28.2707206" lon="-16.8401682">
    <name>node/10740095268</name>
    <desc>description=Space for 1 regular or two small tents;
    tourism=camp_site; id=node/10740095268</desc>
  </wpt>
  <wpt lat="28.2172536" lon="-16.5569861">
    <ele>1752.0</ele>
    <name>node/10745327692</name>
    <desc>tourism=camp_site; id=node/10745327692</desc>
  </wpt>
  <wpt lat="28.5357426" lon="-16.3738715">
    <ele>113.0</ele>
    <name>Agro Camping Invernaderito</name>
    <desc>caravans=yes; drinking_water=yes; name=Agro Camping
    Invernaderito; operator=https://www.campinginvernaderito.com/;
    power_supply=yes; shower=yes; tents=yes; toilets=yes;
    tourism=camp_site; id=node/10751242799; ;
    id=way/1156099091</desc>
  </wpt>
  <wpt lat="28.5377254" lon="-16.3762239">
    <ele>83.0</ele>
    <name>entrance to camping</name>
    <desc>caravans=yes; drinking_water=yes; name=entrance to
    camping; power_supply=yes; shower=yes; tents=yes; toilets=yes;
    tourism=camp_site; id=node/10751254961</desc>
  </wpt>
  <wpt lat="28.2172173" lon="-16.7594479">
    <ele>880.0</ele>
    <name>node/10756778101</name>
    <desc>description=Seems to be a dedicated camp site;
    tourism=camp_site; id=node/10756778101</desc>
  </wpt>
  <wpt lat="28.2143911" lon="-16.7110205">
    <ele>1847.0</ele>
    <name>Sunset Camp</name>
    <desc>name=Sunset Camp; tourism=camp_site;
    id=node/10756778102</desc>
  </wpt>
  <wpt lat="28.2097286" lon="-16.7705069">
    <ele>646.0</ele>
    <name>node/10756783349</name>
    <desc>description=Looks like a dedicated camp site;
    tourism=camp_site; id=node/10756783349</desc>
  </wpt>
  <wpt lat="28.3008733" lon="-16.4515025">
    <name>node/10769609754</name>
    <desc>description=Space for a few mattresses or two small
    tents; shelter=yes; shelter_type=rock_shelter;
    tourism=camp_site; id=node/10769609754</desc>
  </wpt>
  <wpt lat="36.3923433" lon="-6.1801744">
    <ele>4.0</ele>
    <name>wild camping</name>
    <desc>description=with flamingo view; name=wild camping;
    tourism=camp_site; id=node/10781935171</desc>
  </wpt>
  <wpt lat="28.2351251" lon="-16.72479">
    <ele>1653.0</ele>
    <name>node/10790331050</name>
    <desc>description=Large flat bordered circle, space for 5-10
    tents; tourism=camp_site; id=node/10790331050</desc>
  </wpt>
  <wpt lat="28.2421285" lon="-16.7178817">
    <ele>1791.0</ele>
    <name>node/10790708023</name>
    <desc>tourism=camp_site; id=node/10790708023</desc>
  </wpt>
  <wpt lat="38.2994642" lon="-1.167402">
    <ele>657.0</ele>
    <name>Zona de Acampada Fuente de la Higuera</name>
    <desc>backcountry=yes; caravans=no; email=infolapila@carm.es;
    internet_access=no; name=Zona de Acampada Fuente de la Higuera;
    operator=Comunidad Autónoma de la Región de Murcia; phone=+34
    968 37 54 44; reservation=required; sanitary_dump_station=no;
    shower=no; surface=ground; tents=yes; toilets=no;
    tourism=camp_site; id=node/10824730464</desc>
  </wpt>
  <wpt lat="40.4121434" lon="-0.4127357">
    <ele>1341.0</ele>
    <name>Zona Acampada Municipal Las Truchas</name>
    <desc>group_only=yes; name=Zona Acampada Municipal Las Truchas;
    tourism=camp_site; id=node/10846927513</desc>
  </wpt>
  <wpt lat="41.0737916" lon="-0.101549">
    <ele>277.0</ele>
    <name>Manju's place</name>
    <desc>caravans=yes; fee=yes; name=Manju's place;
    static_caravans=yes; tents=yes; tourism=camp_site;
    id=node/10908155189</desc>
  </wpt>
  <wpt lat="42.2668909" lon="0.3505597">
    <ele>519.0</ele>
    <name>Chill Outdoor</name>
    <desc>capacity=10; name=Chill Outdoor; opening_hours=Mo-Su
    10:00-19:00; phone=+34 660 27 47 28; tents=yes;
    tourism=camp_site; website=https://www.chilloutdoor.es;
    wheelchair=limited; id=node/10924480215</desc>
    <link href="https://www.chilloutdoor.es"></link>
  </wpt>
  <wpt lat="39.5439737" lon="-1.0641915">
    <ele>860.0</ele>
    <name>Campamento Lale</name>
    <desc>name=Campamento Lale; tourism=camp_site;
    id=node/10929198904</desc>
  </wpt>
  <wpt lat="36.888227" lon="-3.7064558">
    <ele>1160.0</ele>
    <name>Zona de acampada El Cañuelo</name>
    <desc>backcountry=yes; name=Zona de acampada El Cañuelo;
    tourism=camp_site; id=node/11041990886</desc>
  </wpt>
  <wpt lat="38.2088697" lon="-0.5738935">
    <ele>29.0</ele>
    <name>Camping Santa Pola Caravanas</name>
    <desc>name=Camping Santa Pola Caravanas; tourism=camp_site;
    website=https://www.campingsantapolacaravanas.es/;
    id=node/11175656738</desc>
    <link href="https://www.campingsantapolacaravanas.es/"></link>
  </wpt>
  <wpt lat="38.2086279" lon="-0.5737481">
    <ele>29.0</ele>
    <name>Camping Santa Pola Caravanas</name>
    <desc>name=Camping Santa Pola Caravanas; tourism=camp_site;
    id=node/11196888437</desc>
  </wpt>
  <wpt lat="42.4306926" lon="-4.3641117">
    <ele>813.0</ele>
    <name>node/11215451037</name>
    <desc>tourism=camp_site; id=node/11215451037</desc>
  </wpt>
  <wpt lat="27.8154556" lon="-15.7537328">
    <ele>34.0</ele>
    <name>node/11411724669</name>
    <desc>tourism=camp_site; id=node/11411724669</desc>
  </wpt>
  <wpt lat="40.2079816" lon="-6.5041398">
    <ele>375.0</ele>
    <name>La Escuela del Bosque</name>
    <desc>group_only=yes; name=La Escuela del Bosque;
    tourism=camp_site; id=node/11421075121</desc>
  </wpt>
  <wpt lat="36.0691577" lon="-5.6808237">
    <ele>12.0</ele>
    <name>Camping Valdevaqueros</name>
    <desc>caravans=yes; name=Camping Valdevaqueros; tents=yes;
    tourism=camp_site; id=node/11510652269</desc>
  </wpt>
  <wpt lat="39.8499034" lon="2.922374">
    <ele>524.0</ele>
    <name>node/11578932456</name>
    <desc>backcountry=yes; impromptu=yes; opening_hours=24/7;
    tents=yes; tourism=camp_site; id=node/11578932456</desc>
  </wpt>
  <wpt lat="39.6600903" lon="2.4729967">
    <ele>0.0</ele>
    <name>node/11578953694</name>
    <desc>backcountry=yes; impromptu=yes; tents=yes;
    tourism=camp_site; id=node/11578953694</desc>
  </wpt>
  <wpt lat="38.0714795" lon="-3.3089981">
    <ele>794.0</ele>
    <name>node/11618882469</name>
    <desc>name:nl=kasteel de Sabiote. CP vrij krap. 2p plaatsen;
    tourism=camp_site; id=node/11618882469</desc>
  </wpt>
  <wpt lat="41.906691" lon="2.7428848">
    <ele>146.0</ele>
    <name>node/11646237969</name>
    <desc>tourism=camp_site; id=node/11646237969</desc>
  </wpt>
  <wpt lat="41.9067189" lon="2.7427925">
    <ele>146.0</ele>
    <name>node/11652689969</name>
    <desc>tourism=camp_site; id=node/11652689969</desc>
  </wpt>
  <wpt lat="42.1252846" lon="-6.692945">
    <ele>1011.0</ele>
    <name>Campamento San Lorenzo</name>
    <desc>email=campamentosanlorenzo@gmail.com; name=Campamento San
    Lorenzo; tourism=camp_site;
    website=https://campamentosanlorenzo.blogspot.com/;
    id=node/11759000835</desc>
    <link href="https://campamentosanlorenzo.blogspot.com/"></link>
  </wpt>
  <wpt lat="36.6517735" lon="-4.7062674">
    <ele>118.0</ele>
    <name>River Lodge Fahala</name>
    <desc>contact:facebook=riverlodgefahala;
    email=julietacima@gmail.com; name=River Lodge Fahala;
    opening_hours=24/7; phone=+34 640305804; tourism=camp_site;
    id=node/11775268370</desc>
  </wpt>
  <wpt lat="36.5215974" lon="-4.6993434">
    <ele>74.0</ele>
    <name>Lucas Bushcraft - Supervivencia</name>
    <desc>name=Lucas Bushcraft - Supervivencia; tourism=camp_site;
    id=node/11777583147</desc>
  </wpt>
  <wpt lat="36.5873538" lon="-6.2408601">
    <ele>12.0</ele>
    <name>Camping Las Dunas</name>
    <desc>internet_access=wlan; name=Camping Las Dunas;
    tourism=camp_site; website=https://www.lasdunascamping.com/;
    id=node/11812132542</desc>
    <link href="https://www.lasdunascamping.com/"></link>
  </wpt>
  <wpt lat="36.8596408" lon="-3.9342952">
    <ele>1062.0</ele>
    <name>node/11849781375</name>
    <desc>backcountry=yes; caravans=no; fee=no; static_caravans=no;
    tents=yes; tourism=camp_site; id=node/11849781375</desc>
  </wpt>
  <wpt lat="36.8601773" lon="-3.930745">
    <ele>1102.0</ele>
    <name>node/11849781376</name>
    <desc>backcountry=yes; caravans=no; fee=no; source=survey;
    static_caravans=no; tents=yes; tourism=camp_site;
    id=node/11849781376</desc>
  </wpt>
  <wpt lat="36.8543992" lon="-3.9179159">
    <ele>864.0</ele>
    <name>node/11849781377</name>
    <desc>backcountry=yes; caravans=no; fee=no; source=survey;
    static_caravans=no; tents=yes; tourism=camp_site;
    id=node/11849781377</desc>
  </wpt>
  <wpt lat="37.294909" lon="-3.4754204">
    <ele>1336.0</ele>
    <name>Zona de Acampada Controlada</name>
    <desc>name=Zona de Acampada Controlada; tourism=camp_site;
    id=node/11886437024</desc>
  </wpt>
  <wpt lat="39.4804793" lon="-1.3575242">
    <ele>718.0</ele>
    <name>Slow Life Camping</name>
    <desc>description=open all year according to host; name=Slow
    Life Camping; phone=+34 680 628 636; tourism=camp_site;
    website=https://slowlifecamping.com; id=node/11890718976</desc>
    <link href="https://slowlifecamping.com"></link>
  </wpt>
  <wpt lat="40.2727804" lon="-0.0181948">
    <ele>735.0</ele>
    <name>Acampada Lliure La Foresa</name>
    <desc>backcountry=yes; name=Acampada Lliure La Foresa;
    tourism=camp_site; id=node/11905478272</desc>
  </wpt>
  <wpt lat="39.0847978" lon="-0.6984258">
    <ele>301.0</ele>
    <name>Camping Playamonte</name>
    <desc>addr:street=Urbanización Playamonte, 2; name=Camping
    Playamonte; phone=679569220; tourism=camp_site;
    website=https://www.campingplayamonte.com;
    id=node/12000841856</desc>
    <link href="https://www.campingplayamonte.com"></link>
  </wpt>
  <wpt lat="40.3034913" lon="-4.7201419">
    <ele>603.0</ele>
    <name>Campamento lancha el Pinillo</name>
    <desc>addr:city=Piedralaves; addr:postcode=05440;
    addr:street=CL-501, 89; name=Campamento lancha el Pinillo;
    tourism=camp_site; id=node/12028195924</desc>
  </wpt>
  <wpt lat="43.4940857" lon="-3.6124449">
    <ele>11.0</ele>
    <name>La Vaca Pinta</name>
    <desc>caravans=yes; dog=leashed; drinking_water=yes; fee=yes;
    motorhome=yes; name=La Vaca Pinta; phone=+34 673305892;
    power_supply=no; sanitary_dump_station=yes; shower=cold;
    toilets=yes; tourism=camp_site; id=node/12095658697</desc>
  </wpt>
  <wpt lat="43.0352409" lon="-2.0964201">
    <ele>409.0</ele>
    <name>Larraitzeko akanpada libreko eremua</name>
    <desc>backcountry=yes; capacity:persons=10; capacity:tents=5;
    caravans=no; fee=no; name=Larraitzeko akanpada libreko eremua;
    static_caravans=no; tents=yes; tourism=camp_site;
    id=node/12106737549</desc>
  </wpt>
  <wpt lat="43.2133752" lon="-4.9820776">
    <ele>2119.0</ele>
    <name>node/12120014839</name>
    <desc>capacity:tents=4; tents=yes; tourism=camp_site;
    id=node/12120014839</desc>
  </wpt>
  <wpt lat="43.176264" lon="-4.8349088">
    <name>node/12120629509</name>
    <desc>capacity:tents=3; tents=yes; tourism=camp_site;
    id=node/12120629509</desc>
  </wpt>
  <wpt lat="43.1803559" lon="-4.83376">
    <name>node/12120629510</name>
    <desc>capacity:tents=1; tents=yes; tourism=camp_site;
    id=node/12120629510</desc>
  </wpt>
  <wpt lat="42.0677652" lon="2.0696621">
    <ele>742.0</ele>
    <name>node/12140205929</name>
    <desc>tourism=camp_site; id=node/12140205929</desc>
  </wpt>
  <wpt lat="42.8295456" lon="-0.3218742">
    <ele>2198.0</ele>
    <name>bivouac area</name>
    <desc>name=bivouac area; tourism=camp_site;
    id=node/12311506686</desc>
  </wpt>
  <wpt lat="42.82994" lon="-0.3198676">
    <ele>2172.0</ele>
    <name>bivouac area</name>
    <desc>name=bivouac area; tourism=camp_site;
    id=node/12311506687</desc>
  </wpt>
  <wpt lat="42.8377428" lon="-0.3149001">
    <ele>2235.0</ele>
    <name>bivouac areas</name>
    <desc>name=bivouac areas; tourism=camp_site;
    id=node/12311506688</desc>
  </wpt>
  <wpt lat="36.7302247" lon="-5.3742783">
    <ele>1266.0</ele>
    <name>node/12401604802</name>
    <desc>tourism=camp_site; id=node/12401604802</desc>
  </wpt>
  <wpt lat="36.7479109" lon="-5.3691194">
    <ele>1139.0</ele>
    <name>node/12401611901</name>
    <desc>tourism=camp_site; id=node/12401611901</desc>
  </wpt>
  <wpt lat="37.2868529" lon="-4.3874645">
    <ele>446.0</ele>
    <name>Camping La Isla</name>
    <desc>contact:phone=+34 616 93 47 02; name=Camping La Isla;
    tourism=camp_site; website=https://campinglaisla.es/;
    id=node/12415266413</desc>
    <link href="https://campinglaisla.es/"></link>
  </wpt>
  <wpt lat="37.3353343" lon="-6.5196605">
    <ele>130.0</ele>
    <name>node/12587465806</name>
    <desc>opening_hours=24/7; tourism=camp_site;
    id=node/12587465806</desc>
  </wpt>
  <wpt lat="37.6110694" lon="-5.3353279">
    <ele>127.0</ele>
    <name>node/12598971503</name>
    <desc>opening_hours=24/7; tourism=camp_site;
    id=node/12598971503</desc>
  </wpt>
  <wpt lat="37.6145462" lon="-5.333955">
    <ele>122.0</ele>
    <name>node/12598971504</name>
    <desc>opening_hours=24/7; tourism=camp_site;
    id=node/12598971504</desc>
  </wpt>
  <wpt lat="37.7480179" lon="-5.1878982">
    <ele>71.0</ele>
    <name>node/12603569202</name>
    <desc>opening_hours=24/7; tourism=camp_site;
    id=node/12603569202</desc>
  </wpt>
  <wpt lat="37.7816751" lon="-5.4271187">
    <ele>163.0</ele>
    <name>Camping Puebla</name>
    <desc>email=kmpinglapuebla@gmail.com; internet_access=wlan;
    name=Camping Puebla; phone=+34649571632; tourism=camp_site;
    website=https://www.campingpuebla.com/;
    id=node/12616681301</desc>
    <link href="https://www.campingpuebla.com/"></link>
  </wpt>
  <wpt lat="28.1638801" lon="-16.6542094">
    <ele>1576.0</ele>
    <name>node/12623161157</name>
    <desc>backcountry=yes; tourism=camp_site;
    id=node/12623161157</desc>
  </wpt>
  <wpt lat="28.1144226" lon="-16.6933586">
    <ele>753.0</ele>
    <name>node/12623172860</name>
    <desc>backcountry=yes; tourism=camp_site;
    id=node/12623172860</desc>
  </wpt>
  <wpt lat="28.105546" lon="-16.6916628">
    <ele>662.0</ele>
    <name>node/12623185992</name>
    <desc>backcountry=yes; tourism=camp_site;
    id=node/12623185992</desc>
  </wpt>
  <wpt lat="42.386209" lon="0.2780964">
    <ele>702.0</ele>
    <name>Ecocamping Rural Valle de La Fueva</name>
    <desc>access=yes; addr:city=Alueza; addr:postcode=22337;
    addr:street=Acceso a Alueza; camp_site=deluxe;
    capacity:persons=35; caravans=yes; charge=20;
    description=Pequeño camping ecológico en el Pirineo Aragonés.
    35 parcelas con piscina y barbacoa.; dog=yes;
    drinking_water=yes; email=info@ecocampingrural.com; fee=yes;
    image=https://i0.wp.com/www.ecocampingrural.com/wp-content/uploads/2021/11/area-autocaravanas-ordesa-la-fueva-scaled.jpg?resize=1024%2C768&amp;ssl=1;
    internet_access=wlan; mobile=+34 652 24 84 77; name=Ecocamping
    Rural Valle de La Fueva; operator=Ecocamping Rural;
    payment:cash=yes; payment:credit_cards=yes;
    payment:debit_cards=yes; power_supply=yes; reservation=yes;
    sanitary_dump_station=yes; shower=yes; tents=yes; toilets=yes;
    tourism=camp_site; website=https://www.ecocampingrural.com/;
    wheelchair=yes; id=node/12625172643</desc>
    <link href="https://www.ecocampingrural.com/"></link>
  </wpt>
  <wpt lat="37.6854804" lon="-4.4391645">
    <ele>222.0</ele>
    <name>node/12636411801</name>
    <desc>opening_hours=24/7; tourism=camp_site;
    id=node/12636411801</desc>
  </wpt>
  <wpt lat="41.3129783" lon="1.9581215">
    <ele>360.0</ele>
    <name>node/12638844733</name>
    <desc>tourism=camp_site; id=node/12638844733</desc>
  </wpt>
  <wpt lat="37.348933" lon="-3.788548">
    <ele>823.0</ele>
    <name>node/12641246201</name>
    <desc>opening_hours=24/7; tourism=camp_site;
    id=node/12641246201</desc>
  </wpt>
  <wpt lat="43.5562011" lon="-6.8624771">
    <ele>46.0</ele>
    <name>A Grandella</name>
    <desc>name=A Grandella; tourism=camp_site;
    website=https://campingagrandella.com/;
    id=node/12641695601</desc>
    <link href="https://campingagrandella.com/"></link>
  </wpt>
  <wpt lat="37.1564422" lon="-3.7522095">
    <ele>674.0</ele>
    <name>Hobo Camp</name>
    <desc>name=Hobo Camp; opening_hours=24/7; tourism=camp_site;
    id=node/12668803101</desc>
  </wpt>
  <wpt lat="28.1695537" lon="-16.6167726">
    <ele>1682.0</ele>
    <name>node/12723747755</name>
    <desc>description=Space of 4x5 m inside the ruins of a hut, and
    walls of about 1 m protecting against wind; tourism=camp_site;
    id=node/12723747755</desc>
  </wpt>
  <wpt lat="28.1626324" lon="-16.628136">
    <ele>1534.0</ele>
    <name>node/12723748340</name>
    <desc>description=Flat terrain with few rocks and a slightly
    wind protected; tourism=camp_site; id=node/12723748340</desc>
  </wpt>
  <wpt lat="28.1730186" lon="-16.6171204">
    <ele>1733.0</ele>
    <name>node/12723753784</name>
    <desc>description=Space to lay a mattress inside the ruins,
    rocks ground (but flat), and wind protected; tourism=camp_site;
    id=node/12723753784</desc>
  </wpt>
  <wpt lat="28.2704552" lon="-16.8007299">
    <ele>976.0</ele>
    <name>node/12729457851</name>
    <desc>tourism=camp_site; id=node/12729457851</desc>
  </wpt>
  <wpt lat="28.3152604" lon="-16.6064287">
    <ele>1978.0</ele>
    <name>node/12757847543</name>
    <desc>description=Flat smooth ground at the border of the
    forest.; tourism=camp_site; id=node/12757847543</desc>
  </wpt>
  <wpt lat="28.3358658" lon="-16.6760333">
    <ele>1005.0</ele>
    <name>node/12768227006</name>
    <desc>tourism=camp_site; id=node/12768227006</desc>
  </wpt>
  <wpt lat="28.334677" lon="-16.6767308">
    <ele>1031.0</ele>
    <name>node/12768293923</name>
    <desc>tourism=camp_site; id=node/12768293923</desc>
  </wpt>
  <wpt lat="28.2035873" lon="-16.6183987">
    <ele>2177.0</ele>
    <name>node/12779084442</name>
    <desc>description=Two almost flat spaces, 2x2 m;
    tourism=camp_site; id=node/12779084442</desc>
  </wpt>
  <wpt lat="28.2035898" lon="-16.6181273">
    <ele>2180.0</ele>
    <name>node/12779111812</name>
    <desc>description=Space for 1 small tent, 2x1.5 m.;
    tourism=camp_site; id=node/12779111812</desc>
  </wpt>
  <wpt lat="28.3354468" lon="-16.8073185">
    <ele>802.0</ele>
    <name>node/12791460249</name>
    <desc>description=Flat ground in canyon, space for about 3
    tents; tourism=camp_site; id=node/12791460249</desc>
  </wpt>
  <wpt lat="38.4583155" lon="-0.5591256">
    <ele>320.0</ele>
    <name>Amalur Madre Tierra</name>
    <desc>name=Amalur Madre Tierra; tourism=camp_site;
    id=node/12793733367</desc>
  </wpt>
  <wpt lat="42.0283158" lon="2.3702902">
    <ele>664.0</ele>
    <name>node/12825405484</name>
    <desc>description=authorisation required; tourism=camp_site;
    id=node/12825405484</desc>
  </wpt>
  <wpt lat="42.4590812" lon="2.8705259">
    <ele>322.0</ele>
    <name>Bivouac</name>
    <desc>name=Bivouac; tourism=camp_site;
    id=node/12865038481</desc>
  </wpt>
  <wpt lat="36.7933436" lon="-4.7297705">
    <ele>154.0</ele>
    <name>Camping Park Pizarra</name>
    <desc>caravans=yes; name=Camping Park Pizarra; phone=+34
    649686087; shower=yes; tents=yes; toilets=yes;
    tourism=camp_site; website=https://campingparkpizarra.com/;
    id=node/12897271188</desc>
    <link href="https://campingparkpizarra.com/"></link>
  </wpt>
  <wpt lat="36.7578166" lon="-5.7843018">
    <ele>76.0</ele>
    <name>Camping Lago de Arcos</name>
    <desc>cabins=yes; caravans=yes;
    contact:email=info@campinglagodearcos.com; fee=yes;
    name=Camping Lago de Arcos; phone=+34662543970;
    power_supply=yes; shower=yes; shower:wheelchair=yes; tents=yes;
    toilets:wheelchair=yes; tourism=camp_site;
    website=https://campinglagodearcos.com/;
    id=node/12902890812</desc>
    <link href="https://campinglagodearcos.com/"></link>
  </wpt>
  <wpt lat="41.3652004" lon="1.1542213">
    <ele>378.0</ele>
    <name>Polígon Pemu 2</name>
    <desc>name=Polígon Pemu 2; tourism=camp_site;
    id=node/12988582802</desc>
  </wpt>
  <wpt lat="39.3694019" lon="-3.1869751">
    <ele>725.0</ele>
    <name>Места под палатку</name>
    <desc>name=Места под палатку; tourism=camp_site;
    id=node/12996873301</desc>
  </wpt>
  <wpt lat="40.3865539" lon="-1.6796234">
    <ele>1530.0</ele>
    <name>node/13004313201</name>
    <desc>tourism=camp_site; id=node/13004313201</desc>
  </wpt>
  <wpt lat="43.212993" lon="-4.9037288">
    <name>node/13052425801</name>
    <desc>tourism=camp_site; id=node/13052425801</desc>
  </wpt>
  <wpt lat="43.6945481" lon="-7.4487188">
    <ele>13.0</ele>
    <name>node/13072883001</name>
    <desc>tourism=camp_site; id=node/13072883001</desc>
  </wpt>
  <wpt lat="39.7334808" lon="-1.1156858">
    <ele>530.0</ele>
    <name>Cámping</name>
    <desc>name=Cámping; tourism=camp_site;
    id=node/13094812701</desc>
  </wpt>
  <wpt lat="42.5914466" lon="-9.0378531">
    <ele>23.0</ele>
    <name>Camping Las Dunas</name>
    <desc>name=Camping Las Dunas; tourism=camp_site;
    id=node/13096511122</desc>
  </wpt>
  <wpt lat="41.0574901" lon="-5.5470529439021306">
    <ele>821.0</ele>
    <name>Olimpia</name>
    <desc>name=Olimpia; source=ITACyL 2009; tourism=camp_site;
    type=multipolygon; id=relation/911167</desc>
  </wpt>
  <wpt lat="40.36362655" lon="-5.750328840691473">
    <ele>1123.0</ele>
    <name>Camping 5 Castaños</name>
    <desc>name=Camping 5 Castaños; tourism=camp_site;
    type=multipolygon; id=relation/1672433</desc>
  </wpt>