<?xml version="1.0" encoding="utf-8"?>
<gpx xmlns="http://www.topografix.com/GPX/1/1"
xmlns:xsi="http://www.w3.org/2001/XMLSchema-instance"
xsi:schemaLocation="http://www.topografix.com/GPX/1/1 http://www.topografix.com/GPX/1/1/gpx.xsd"
version="1.1" creator="togpx">
  <metadata>
    <copyright>
      <license>"osm3s": { "timestamp_osm_base":
      "2025-08-01T10:03:58Z", "timestamp_areas_base":
      "2025-08-01T04:12:55Z", "copyright": "The data included in
      this document is from www.openstreetmap.org. The data is made
      available under ODbL." } // SRTM: { Elevation data missing in
      OSM was added by the NASA Shuttle Radar Topography Mission as
      public release version, if available there. } // { Check for
      latest version of this file on:
      https://github.com/GpxFeed/campgrounds }</license>
    </copyright>
  </metadata>
  <wpt lat="60.7504069" lon="14.9728061">
    <name>Leksand Camping &amp; Stugby</name>
    <desc>addr:city=Leksand; addr:country=SE; addr:housenumber=61;
    addr:postcode=793 22; addr:street=Siljansvägen; caravans=yes;
    drinking_water=yes; name=Leksand Camping &amp; Stugby;
    tents=yes; tourism=caravan_site; waste_disposal=yes;
    id=node/33774013</desc>
  </wpt>
  <wpt lat="62.8421892" lon="13.8256293">
    <name>Galå Fjällgård</name>
    <desc>addr:city=Svenstavik; addr:country=SE;
    addr:housename=Galå Fjällgård; addr:housenumber=810;
    addr:postcode=84040; addr:street=Galåbodarna;
    email=kontakt@gala-fjallgard.com; internet_access=wlan;
    internet_access:fee=yes; name=Galå Fjällgård; power_supply=yes;
    sanitary_dump_station=yes; snowmobile=yes;
    tourism=caravan_site; website=http://www.gala-fjallgard.com/;
    id=node/270492517</desc>
    <link href="http://www.gala-fjallgard.com/"></link>
  </wpt>
  <wpt lat="56.2709201" lon="12.5292863">
    <ele>31.0</ele>
    <name>node/276520080</name>
    <desc>created_by=Potlatch 0.9c; tourism=caravan_site;
    id=node/276520080</desc>
  </wpt>
  <wpt lat="58.4648458" lon="14.9317721">
    <ele>90.0</ele>
    <name>node/418068355</name>
    <desc>tourism=caravan_site; id=node/418068355</desc>
  </wpt>
  <wpt lat="58.4293159" lon="14.403636">
    <ele>96.0</ele>
    <name>node/457511247</name>
    <desc>tourism=caravan_site; id=node/457511247</desc>
  </wpt>
  <wpt lat="68.3514731" lon="18.8336164">
    <name>node/614896014</name>
    <desc>tourism=caravan_site; id=node/614896014</desc>
  </wpt>
  <wpt lat="57.4780115" lon="14.7790571">
    <ele>221.0</ele>
    <name>node/811517044</name>
    <desc>tourism=caravan_site; id=node/811517044</desc>
  </wpt>
  <wpt lat="65.7111155" lon="14.612462">
    <name>node/923512457</name>
    <desc>snowmobile=yes; tourism=caravan_site;
    id=node/923512457</desc>
  </wpt>
  <wpt lat="60.5034421" lon="15.606611">
    <name>node/1252094667</name>
    <desc>source=local_knowledge; tourism=caravan_site;
    id=node/1252094667</desc>
  </wpt>
  <wpt lat="56.9577304" lon="16.8880589">
    <ele>0.0</ele>
    <name>node/1355446390</name>
    <desc>tourism=caravan_site; id=node/1355446390</desc>
  </wpt>
  <wpt lat="56.618947" lon="16.6965773">
    <ele>1.0</ele>
    <name>node/1364703654</name>
    <desc>power_supply=no; tents=no; tourism=caravan_site;
    id=node/1364703654</desc>
  </wpt>
  <wpt lat="59.3949059" lon="18.2979173">
    <ele>6.0</ele>
    <name>Caravan Club Mista</name>
    <desc>access=private; capacity=95;
    contact:email=reception.mista@cc-camping.se; contact:phone=+46
    727 445602; contact:website=http://caravanclub.se/; dog=yes;
    internet_access=wlan; name=Caravan Club Mista; operator=Caravan
    Club of Sweden; source:info=caravanclub.se;
    source:location=caravanclub.se; tourism=caravan_site;
    wheelchair=yes; id=node/1373270007</desc>
    <link href="http://caravanclub.se/"></link>
  </wpt>
  <wpt lat="60.4862114" lon="17.417102">
    <name>Marma Caravan park</name>
    <desc>name=Marma Caravan park; tourism=caravan_site;
    id=node/1446180166</desc>
  </wpt>
  <wpt lat="57.1912763" lon="12.1910285">
    <ele>7.0</ele>
    <name>node/1558151677</name>
    <desc>tourism=caravan_site; id=node/1558151677</desc>
  </wpt>
  <wpt lat="59.3785877" lon="17.0256018">
    <ele>8.0</ele>
    <name>Ställplats Strängnäs gästhamn</name>
    <desc>capacity=8; name=Ställplats Strängnäs gästhamn;
    power_supply=yes; shower=yes; toilets=yes;
    tourism=caravan_site; water_point=yes;
    id=node/1577488267</desc>
  </wpt>
  <wpt lat="58.8030409" lon="14.0573447">
    <ele>65.0</ele>
    <name>node/1612125778</name>
    <desc>tourism=caravan_site; id=node/1612125778</desc>
  </wpt>
  <wpt lat="56.7721119" lon="16.4796443">
    <ele>0.0</ele>
    <name>node/1623768787</name>
    <desc>designation=Liten Kamping; fixme=Kolla på plats: Finns
    här verkligen campingplats?; tourism=caravan_site;
    id=node/1623768787</desc>
  </wpt>
  <wpt lat="63.080242" lon="15.4017336">
    <name>Small caravan park, electricity available.</name>
    <desc>name=Small caravan park, electricity available.;
    power_supply=yes; tourism=caravan_site;
    id=node/1631902778</desc>
  </wpt>
  <wpt lat="62.0973297" lon="12.3127847">
    <name>node/1774556070</name>
    <desc>tourism=caravan_site; id=node/1774556070</desc>
  </wpt>
  <wpt lat="58.7137478" lon="14.1306692">
    <ele>94.0</ele>
    <name>Töreboda Camping</name>
    <desc>name=Töreboda Camping;
    source=http://www.torebodacamping.se/; tourism=caravan_site;
    wheelchair=limited; id=node/1789988777</desc>
    <link href="http://www.torebodacamping.se/"></link>
  </wpt>
  <wpt lat="64.0612624" lon="18.7074624">
    <name>node/1793653784</name>
    <desc>tourism=caravan_site; id=node/1793653784</desc>
  </wpt>
  <wpt lat="56.2666748" lon="16.3968449">
    <ele>0.0</ele>
    <name>node/1800524852</name>
    <desc>tourism=caravan_site; id=node/1800524852</desc>
  </wpt>
  <wpt lat="64.1929378" lon="17.7741981">
    <name>node/1803282909</name>
    <desc>toilets=yes; tourism=caravan_site;
    id=node/1803282909</desc>
  </wpt>
  <wpt lat="63.9397571" lon="18.9404869">
    <name>Angsjöns kamping</name>
    <desc>name=Angsjöns kamping; tourism=caravan_site;
    id=node/1808631179; ; id=way/169699108</desc>
  </wpt>
  <wpt lat="64.2474323" lon="19.3065433">
    <name>Granö Beckasin</name>
    <desc>drinking_water=yes; fee=yes; name=Granö Beckasin;
    power_supply=yes; sanitary_dump_station=yes; toilets=yes;
    tourism=caravan_site; id=node/1822846823</desc>
  </wpt>
  <wpt lat="64.0515929" lon="19.552553">
    <name>Almagrundet</name>
    <desc>name=Almagrundet; operator=Ramsele Byagårdsförening;
    tourism=caravan_site;
    website=https://www.ramsele.net/Ny%20layout/Html/frameset.htm;
    id=node/1822853618</desc>
    <link href="https://www.ramsele.net/Ny%20layout/Html/frameset.htm">
    </link>
  </wpt>
  <wpt lat="64.1572556" lon="20.3611334">
    <name>node/1826616176</name>
    <desc>tourism=caravan_site; id=node/1826616176</desc>
  </wpt>
  <wpt lat="64.2311147" lon="20.2675895">
    <name>Sanabadet</name>
    <desc>name=Sanabadet; tourism=caravan_site;
    id=node/1826845353</desc>
  </wpt>
  <wpt lat="63.2572103" lon="18.8126166">
    <name>Solbacken</name>
    <desc>name=Solbacken; power_supply=cee_17_blue; source=survey;
    tourism=caravan_site; id=node/1837037498</desc>
  </wpt>
  <wpt lat="64.6338716" lon="16.3780647">
    <name>node/1853821216</name>
    <desc>fee=150 SEK; tourism=caravan_site;
    id=node/1853821216</desc>
  </wpt>
  <wpt lat="60.3350406" lon="15.5442436">
    <ele>242.0</ele>
    <name>node/1888984429</name>
    <desc>access=private; tourism=caravan_site;
    id=node/1888984429</desc>
  </wpt>
  <wpt lat="57.1552996" lon="15.6526124">
    <ele>187.0</ele>
    <name>Välenbadets Camping</name>
    <desc>drinking_water=yes; fee=yes; name=Välenbadets Camping;
    power_supply=yes; sanitary_dump_station=no; toilets=yes;
    tourism=caravan_site; id=node/1904292878</desc>
  </wpt>
  <wpt lat="64.8369666" lon="14.0830051">
    <name>Camp Stora Blåsjön</name>
    <desc>addr:city=Stora Blåsjön; addr:country=SE;
    addr:housenumber=240; addr:postcode=83399; addr:street=Stora
    Blåsjön; capacity=40; drinking_water=yes;
    email=info@storablasjon.se; fee=yes;
    image=https://storablasjon.se/wp-content/uploads/CampStoraBlaSjon-6-2000x1500.jpg;
    name=Camp Stora Blåsjön; phone=+4667221111; power_supply=yes;
    reservation=yes; sanitary_dump_station=yes;
    tourism=caravan_site; website=https://storablasjon.se;
    id=node/1931254542</desc>
    <link href="https://storablasjon.se"></link>
  </wpt>
  <wpt lat="66.6261577" lon="16.2186585">
    <name>node/1935987057</name>
    <desc>snowmobile=yes; tourism=caravan_site;
    id=node/1935987057</desc>
  </wpt>
  <wpt lat="66.4730249" lon="16.5592133">
    <name>Silverhyttan Camp &amp; Stugby</name>
    <desc>name=Silverhyttan Camp &amp; Stugby;
    tourism=caravan_site; id=node/1935999004</desc>
  </wpt>
  <wpt lat="61.435418" lon="13.2430095">
    <name>https://www.bygdegardarna.se/nornas/camping/</name>
    <desc>capacity=6; fee=yes; operator=Nornäs Bygdegårdsförening;
    power_supply=yes; source=GPS; tourism=caravan_site;
    website=https://www.bygdegardarna.se/nornas/camping/;
    id=node/2343647392</desc>
    <link href="https://www.bygdegardarna.se/nornas/camping/">
    </link>
  </wpt>
  <wpt lat="59.8250699" lon="18.9108393">
    <ele>21.0</ele>
    <name>Överlöpe Husvagnstomter</name>
    <desc>name=Överlöpe Husvagnstomter; tourism=caravan_site;
    website=http://overlope.se; id=node/2345461819</desc>
    <link href="http://overlope.se"></link>
  </wpt>
  <wpt lat="59.1750062" lon="14.8590861">
    <ele>72.0</ele>
    <name>Sannabadet</name>
    <desc>fee=yes; name=Sannabadet; power_supply=yes;
    sanitary_dump_station=yes; tents=yes; tourism=caravan_site;
    website=https://www.sannabadet.se/; id=node/2382863123</desc>
    <link href="https://www.sannabadet.se/"></link>
  </wpt>
  <wpt lat="57.8030092" lon="15.1489733">
    <ele>207.0</ele>
    <name>Rydsnäs Camping</name>
    <desc>description=Seems to have closed down; name=Rydsnäs
    Camping; power_supply=yes; tents=yes; tourism=caravan_site;
    id=node/2383223719</desc>
  </wpt>
  <wpt lat="65.9995047" lon="22.8529521">
    <name>Kamlunge Husvagnscamping</name>
    <desc>addr:city=Kalix; addr:country=SE; addr:housenumber=543;
    addr:postcode=95293; addr:street=Kamlunge; name=Kamlunge
    Husvagnscamping; sanitary_dump_station=yes;
    tourism=caravan_site; id=node/2386525212</desc>
  </wpt>
  <wpt lat="56.1103085" lon="15.5433669">
    <ele>19.0</ele>
    <name>Ställplats Folkets Hus</name>
    <desc>addr:city=Drottningskär; addr:postcode=370 22;
    addr:street=Aspö Folkets Hus; name=Ställplats Folkets Hus;
    phone=+46 455 339564,+46 708 701511; tourism=caravan_site;
    website=https://www.aspofolketshus.se/;
    id=node/2407224892</desc>
    <link href="https://www.aspofolketshus.se/"></link>
  </wpt>
  <wpt lat="57.3789165" lon="16.5798318">
    <ele>4.0</ele>
    <name>Figeholm Caravan</name>
    <desc>name=Figeholm Caravan; tourism=caravan_site;
    id=node/2422134591</desc>
  </wpt>
  <wpt lat="56.9996902" lon="14.8139885">
    <ele>171.0</ele>
    <name>Ekna Naturcamping</name>
    <desc>capacity=30; caravan_site=motorhome_stopover;
    caravan_site:type=farm; caravans=yes; information=terminal;
    motorhome=yes; name=Ekna Naturcamping; operator=Mats Nilsson;
    phone=+46 (0)47093272; tourism=caravan_site; water_point=yes;
    id=node/2428432828</desc>
  </wpt>
  <wpt lat="60.1030345" lon="15.2174474">
    <ele>164.0</ele>
    <name>Räfsnäs camping</name>
    <desc>name=Räfsnäs camping; source=local_knowledge;
    tourism=caravan_site; id=node/2444471398</desc>
  </wpt>
  <wpt lat="62.917621" lon="15.2533995">
    <name>Camp Viking</name>
    <desc>name=Camp Viking; tourism=caravan_site;
    id=node/2694353532</desc>
  </wpt>
  <wpt lat="58.3099182" lon="14.3031834">
    <ele>97.0</ele>
    <name>Hjo Camping</name>
    <desc>name=Hjo Camping; tourism=caravan_site;
    id=node/2736623554</desc>
  </wpt>
  <wpt lat="60.9575922" lon="16.4268735">
    <name>node/2879689396</name>
    <desc>tourism=caravan_site; id=node/2879689396</desc>
  </wpt>
  <wpt lat="58.7204154" lon="17.0852538">
    <ele>12.0</ele>
    <name>Strandstuvikens Havsbad &amp; Camping</name>
    <desc>name=Strandstuvikens Havsbad &amp; Camping;
    tourism=caravan_site; id=node/2931275639</desc>
  </wpt>
  <wpt lat="60.7112073" lon="16.2449455">
    <name>node/2939561996</name>
    <desc>tourism=caravan_site; id=node/2939561996</desc>
  </wpt>
  <wpt lat="63.1743293" lon="14.6306316">
    <name>node/2941126861</name>
    <desc>fee=yes; internet_access=no; tourism=caravan_site;
    id=node/2941126861</desc>
  </wpt>
  <wpt lat="61.0443477" lon="15.7948859">
    <name>node/2949019540</name>
    <desc>charge=100 SEK; fee=yes; tourism=caravan_site;
    id=node/2949019540</desc>
  </wpt>
  <wpt lat="60.8608392" lon="15.1049417">
    <name>node/2950264938</name>
    <desc>charge=100 SEK; fee=yes; tourism=caravan_site;
    id=node/2950264938</desc>
  </wpt>
  <wpt lat="59.3111329" lon="14.0948834">
    <ele>49.0</ele>
    <name>node/2951375523</name>
    <desc>charge=175 SEK; fee=yes; shower=yes;
    tourism=caravan_site; id=node/2951375523</desc>
  </wpt>
  <wpt lat="63.1451086" lon="16.0536793">
    <name>node/2962220003</name>
    <desc>tourism=caravan_site; id=node/2962220003</desc>
  </wpt>
  <wpt lat="60.0514881" lon="13.8658474">
    <ele>214.0</ele>
    <name>Värmlandsgården</name>
    <desc>name=Värmlandsgården; tourism=caravan_site;
    id=node/2966297661</desc>
  </wpt>
  <wpt lat="59.9025434" lon="15.289737">
    <ele>275.0</ele>
    <name>node/3032239028</name>
    <desc>tourism=caravan_site; id=node/3032239028</desc>
  </wpt>
  <wpt lat="56.6692569" lon="15.372546">
    <ele>132.0</ele>
    <name>node/3079660904</name>
    <desc>tourism=caravan_site; id=node/3079660904</desc>
  </wpt>
  <wpt lat="62.9255585" lon="17.7555866">
    <name>node/3259429469</name>
    <desc>tourism=caravan_site; id=node/3259429469</desc>
  </wpt>
  <wpt lat="62.030892" lon="14.3693265">
    <name>node/3268158364</name>
    <desc>tourism=caravan_site; id=node/3268158364</desc>
  </wpt>
  <wpt lat="66.8832247" lon="18.0250168">
    <name>Årrenjarka Fjällby</name>
    <desc>name=Årrenjarka Fjällby; tourism=caravan_site;
    website=https://arrenjarka.se/; id=node/3354789116</desc>
    <link href="https://arrenjarka.se/"></link>
  </wpt>
  <wpt lat="58.7165211" lon="13.8200881">
    <ele>48.0</ele>
    <name>Yttre hamnen ställplats</name>
    <desc>drinking_water=yes; fee=yes; name=Yttre hamnen
    ställplats; power_supply=yes; sanitary_dump_station=yes;
    toilets=yes; tourism=caravan_site; id=node/3533796660</desc>
  </wpt>
  <wpt lat="58.8370808" lon="13.9785757">
    <ele>52.0</ele>
    <name>Sjötorps Gästhamn</name>
    <desc>drinking_water=yes; fee=yes; name=Sjötorps Gästhamn;
    power_supply=yes; toilets=yes; tourism=caravan_site;
    id=node/3536337181</desc>
  </wpt>
  <wpt lat="58.8783235" lon="14.8994957">
    <ele>97.0</ele>
    <name>node/3536393864</name>
    <desc>fee=yes; power_supply=yes; tourism=caravan_site;
    wheelchair=yes; id=node/3536393864</desc>
  </wpt>
  <wpt lat="58.5482812" lon="15.0674973">
    <ele>93.0</ele>
    <name>node/3539476573</name>
    <desc>fee=yes; power_supply=yes; tourism=caravan_site;
    id=node/3539476573</desc>
  </wpt>
  <wpt lat="58.8908782" lon="17.5526633">
    <ele>3.0</ele>
    <name>node/3554595856</name>
    <desc>fee=yes; power_supply=yes; sanitary_dump_station=yes;
    tourism=caravan_site; id=node/3554595856</desc>
  </wpt>
  <wpt lat="58.2027026" lon="16.6098928">
    <ele>13.0</ele>
    <name>node/3561287289</name>
    <desc>tourism=caravan_site; id=node/3561287289</desc>
  </wpt>
  <wpt lat="66.5937086" lon="19.892967">
    <name>Jokkmokks Camping Center</name>
    <desc>name=Jokkmokks Camping Center; tourism=caravan_site;
    id=node/3577214150</desc>
  </wpt>
  <wpt lat="66.5930094" lon="19.8938145">
    <name>Jokkmokks Camping Center</name>
    <desc>drinking_water=yes; fee=yes; name=Jokkmokks Camping
    Center; power_supply=yes; sanitary_dump_station=yes;
    toilets=yes; tourism=caravan_site; id=node/3577214151</desc>
  </wpt>
  <wpt lat="66.5925493" lon="19.8956492">
    <name>Jokkmokks Camping Center</name>
    <desc>drinking_water=yes; fee=yes; name=Jokkmokks Camping
    Center; power_supply=yes; sanitary_dump_station=yes;
    toilets=yes; tourism=caravan_site; id=node/3577214152</desc>
  </wpt>
  <wpt lat="66.5950871" lon="19.8902751">
    <name>Jokkmokks Camping Center</name>
    <desc>name=Jokkmokks Camping Center; tourism=caravan_site;
    id=node/3577214155</desc>
  </wpt>
  <wpt lat="67.1045002" lon="20.6419063">
    <name>node/3606000885</name>
    <desc>tourism=caravan_site; id=node/3606000885</desc>
  </wpt>
  <wpt lat="59.3681065" lon="15.0801439">
    <ele>52.0</ele>
    <name>Vallby gård</name>
    <desc>name=Vallby gård; tourism=caravan_site;
    id=node/3641397204</desc>
  </wpt>
  <wpt lat="58.5782354" lon="11.5361118">
    <ele>86.0</ele>
    <name>https://www.svarteborg.se/start/?ID=52685</name>
    <desc>charge=200 SEK; check_date=2024-08-02; fee=yes;
    payment:app=yes; payment:cards=yes; payment:cash=yes;
    power_supply=yes; sanitary_dump_station=yes;
    tourism=caravan_site;
    website=https://www.svarteborg.se/start/?ID=52685;
    id=node/3662742329</desc>
    <link href="https://www.svarteborg.se/start/?ID=52685"></link>
  </wpt>
  <wpt lat="64.6693922" lon="21.1654426">
    <name>node/3702103813</name>
    <desc>tourism=caravan_site; id=node/3702103813</desc>
  </wpt>
  <wpt lat="57.1147896" lon="12.2236042">
    <ele>5.0</ele>
    <name>Getterögården</name>
    <desc>email=info@getterogarden.se; name=Getterögården;
    tourism=caravan_site; website=https://www.getterogarden.se/;
    id=node/4195967796</desc>
    <link href="https://www.getterogarden.se/"></link>
  </wpt>
  <wpt lat="55.4071231" lon="13.6060559">
    <ele>12.0</ele>
    <name>Abbekås</name>
    <desc>name=Abbekås; tourism=caravan_site;
    id=node/4208482892</desc>
  </wpt>
  <wpt lat="56.8928652" lon="12.4672163">
    <ele>3.0</ele>
    <name>Falkenberg</name>
    <desc>addr:city=Falkenberg; addr:country=SE;
    addr:housenumber=58; addr:postcode=311 32;
    addr:street=Sanddynevägen; capacity=38; contact:phone=+46
    346-711707; description=Husbilsplatser; fee=yes;
    internet_access=no; power_supply=yes; tourism=caravan_site;
    id=node/4238854908</desc>
  </wpt>
  <wpt lat="57.9911522" lon="15.6357118">
    <ele>108.0</ele>
    <name>node/4384981854</name>
    <desc>drinking_water=no; fee=no; power_supply=no;
    tourism=caravan_site; id=node/4384981854</desc>
  </wpt>
  <wpt lat="60.5655277" lon="13.8571704">
    <name>Almasjön</name>
    <desc>fee=no; internet_access=no; name=Almasjön;
    power_supply=no; sanitary_dump_station=no;
    tourism=caravan_site; id=node/4503022989</desc>
  </wpt>
  <wpt lat="60.6038125" lon="13.5843567">
    <name>node/4503023189</name>
    <desc>tourism=caravan_site; id=node/4503023189</desc>
  </wpt>
  <wpt lat="61.4379185" lon="13.2916715">
    <name>
    https://www.bygdegardarna.se/nornas/camping/naturcamping/</name>
    <desc>addr:city=Sörsjön; addr:postcode=78069;
    addr:street=Ransistugan; capacity=2; description=Ransi
    naturcamping ligger vid den 5 kilometer långa sjön Ransis södra
    ände. Vid campingen finns en båtplats där besökare kan sätta i
    sina kanoter.; fee=no; internet_access=no; operator=Nornäs
    Samfällighetsförening; power_supply=no; tourism=caravan_site;
    website=https://www.bygdegardarna.se/nornas/camping/naturcamping/;
    id=node/4713801270</desc>
    <link href="https://www.bygdegardarna.se/nornas/camping/naturcamping/">
    </link>
  </wpt>
  <wpt lat="63.9026886" lon="14.9274377">
    <name>Big river camp</name>
    <desc>name=Big river camp; tourism=caravan_site;
    id=node/4717113577</desc>
  </wpt>
  <wpt lat="67.1999624" lon="23.4637499">
    <name>node/4949810290</name>
    <desc>tourism=caravan_site; id=node/4949810290</desc>
  </wpt>
  <wpt lat="56.1742807" lon="15.3032431">
    <ele>2.0</ele>
    <name>Ronneby Hamn</name>
    <desc>drinking_water=yes; fee=yes; name=Ronneby Hamn;
    power_supply=yes; sanitary_dump_station=no; toilets=yes;
    tourism=caravan_site; id=node/4953376179</desc>
  </wpt>
  <wpt lat="57.1170091" lon="12.2271042">
    <ele>3.0</ele>
    <name>Ställplatset Getteröns Småbåtshamn</name>
    <desc>capacity=21; contact:email=lennartkjohansson@hotmail.se;
    contact:phone=+46704078874;
    contact:website=http://gshvarberg.dynamaster.se/sv/gast-hos-oss/stallplatser;
    fee=220 SEK;
    image=http://gshvarberg.dynamaster.se/Media/Get/344/20150711_140535-1.jpg.jpg;
    internet_access=no; name=Ställplatset Getteröns Småbåtshamn;
    payment:coins=no; payment:mastercard=yes; payment:notes=no;
    payment:visa=yes; power_supply=yes;
    sanitary_dump_station=customers; tourism=caravan_site;
    wheelchair=yes; id=node/4987904749</desc>
    <link href="http://gshvarberg.dynamaster.se/sv/gast-hos-oss/stallplatser">
    </link>
  </wpt>
  <wpt lat="59.9085218" lon="16.5763065">
    <ele>79.0</ele>
    <name>node/5010051491</name>
    <desc>fee=yes; tourism=caravan_site; id=node/5010051491</desc>
  </wpt>
  <wpt lat="57.6354965" lon="15.0983074">
    <ele>273.0</ele>
    <name>Ställplats Lyckarp</name>
    <desc>contact:phone=+46 70 5855807; fee=yes;
    internet_access=no; name=Ställplats Lyckarp; power_supply=yes;
    sanitary_dump_station=yes; tourism=caravan_site;
    id=node/5033076814</desc>
  </wpt>
  <wpt lat="56.2681841" lon="12.8429854">
    <ele>2.0</ele>
    <name>node/5060938527</name>
    <desc>fee=yes; power_supply=yes; tourism=caravan_site;
    id=node/5060938527</desc>
  </wpt>
  <wpt lat="59.5861597" lon="15.2384988">
    <ele>72.0</ele>
    <name>Lindesbergs Citycamping</name>
    <desc>drinking_water=yes; fee=yes; internet_access=no;
    name=Lindesbergs Citycamping; power_supply=no;
    sanitary_dump_station=yes; toilets=no; tourism=caravan_site;
    wheelchair=limited; id=node/5133712627</desc>
  </wpt>
  <wpt lat="59.055715" lon="12.7103172">
    <ele>49.0</ele>
    <name>node/5631190443</name>
    <desc>tourism=caravan_site; id=node/5631190443</desc>
  </wpt>
  <wpt lat="61.0840456" lon="14.3171549">
    <name>node/5721327621</name>
    <desc>tourism=caravan_site; id=node/5721327621</desc>
  </wpt>
  <wpt lat="59.438637" lon="18.3092551">
    <ele>0.0</ele>
    <name>node/5732568035</name>
    <desc>addr:street=Björnholmsvägen; opening_hours=24/7;
    tourism=caravan_site; id=node/5732568035</desc>
  </wpt>
  <wpt lat="55.3913653" lon="14.1099885">
    <ele>7.0</ele>
    <name>Solans Mack</name>
    <desc>bbq=yes; caravan_site=motorhome_stopover;
    caravan_site:type=beach; caravans=yes; check_out=14:00;
    fee=yes; internet_access=wlan; name=Solans Mack; phone=+46
    732469494; power_supply=yes; power_supply:capacity=40;
    sanitary_dump_station=yes;
    sanitary_dump_station:chemical_toilet=yes;
    sanitary_dump_station:grey_water=yes; shower=yes; toilets=yes;
    tourism=caravan_site; water_point=yes;
    website=https://test.solans.se/stallplatser/; wheelchair=no;
    id=node/5765855331</desc>
    <link href="https://test.solans.se/stallplatser/"></link>
  </wpt>
  <wpt lat="55.6069591" lon="14.2346059">
    <ele>63.0</ele>
    <name>Ekogården</name>
    <desc>caravan_site=motorhome_stopover;
    caravan_site:type=countryside; caravans=yes; charge=200 SEK;
    fee=yes; name=Ekogården; power_supply=yes;
    power_supply:charge=50 SEK; power_supply:fee=yes;
    tourism=caravan_site; website=https://ekogarden.org/;
    id=node/5766545838</desc>
    <link href="https://ekogarden.org/"></link>
  </wpt>
  <wpt lat="56.2861331" lon="13.3393333">
    <ele>102.0</ele>
    <name>node/5781707810</name>
    <desc>tourism=caravan_site; id=node/5781707810</desc>
  </wpt>
  <wpt lat="67.638258" lon="21.0684064">
    <name>node/5853347037</name>
    <desc>tourism=caravan_site; id=node/5853347037</desc>
  </wpt>
  <wpt lat="60.3054966" lon="13.0420037">
    <ele>136.0</ele>
    <name>Våmland Camping</name>
    <desc>internet_access=wlan; name=Våmland Camping;
    tourism=caravan_site; id=node/5861113786</desc>
  </wpt>
  <wpt lat="61.0091491" lon="14.5469276">
    <name>node/5909209386</name>
    <desc>name:de=Wohnwagenstellplatz; tourism=caravan_site;
    id=node/5909209386</desc>
  </wpt>
  <wpt lat="60.9571318" lon="14.6327607">
    <name>node/5909209387</name>
    <desc>name:de=Wohnwagenstellplatz; tourism=caravan_site;
    id=node/5909209387</desc>
  </wpt>
  <wpt lat="60.7129273" lon="15.0331839">
    <name>node/5909209586</name>
    <desc>name:de=Entleerungstelle Wohnmobil; tourism=caravan_site;
    id=node/5909209586</desc>
  </wpt>
  <wpt lat="60.3339899" lon="14.9256234">
    <ele>196.0</ele>
    <name>Övre Hedtjärn - Sottjärn</name>
    <desc>camp_site=basic; name=Övre Hedtjärn - Sottjärn;
    tourism=caravan_site;
    website=https://www.grangardefiske.com/index.php/vara-vatten/ovre-hedtjarn-sottjarn;
    id=node/5949304512</desc>
    <link href="https://www.grangardefiske.com/index.php/vara-vatten/ovre-hedtjarn-sottjarn">
    </link>
  </wpt>
  <wpt lat="59.3210883" lon="14.5362639">
    <ele>96.0</ele>
    <name>node/6048921249</name>
    <desc>caravan=no; fee=yes; motorhome=yes; name:signed=no;
    power_supply=yes; tourism=caravan_site;
    id=node/6048921249</desc>
  </wpt>
  <wpt lat="57.590069" lon="16.5292364">
    <ele>6.0</ele>
    <name>Gästhamn Blankaholm</name>
    <desc>addr:city=Blankaholm; addr:postcode=59397;
    addr:street=Vattenfronten Blankaholm; cafe=yes; capacity=39;
    email=info@blankaholmsgasthamn.nu; fee=175 sek;
    internet_access=wlan; internet_access:fee=customers;
    name=Gästhamn Blankaholm; note=power supply 75 sek;
    power_supply=yes; sanitary_dump_station=yes;
    tourism=caravan_site;
    website=https://www.blankaholmsgasthamn.nu/Pris.php;
    id=node/6462134771</desc>
    <link href="https://www.blankaholmsgasthamn.nu/Pris.php">
    </link>
  </wpt>
  <wpt lat="58.8906124" lon="17.5555391">
    <ele>4.0</ele>
    <name>Trosa Gästhamn</name>
    <desc>capacity=14; fee=yes; name=Trosa Gästhamn;
    sanitary_dump_station=yes; tourism=caravan_site;
    id=node/6462145212</desc>
  </wpt>
  <wpt lat="56.3528843" lon="12.741643">
    <ele>1.0</ele>
    <name>Ranarpstrand</name>
    <desc>capacity=10; fee=no; internet_access=no;
    name=Ranarpstrand; tourism=caravan_site;
    id=node/6462155541</desc>
  </wpt>
  <wpt lat="58.658724" lon="17.1119342">
    <ele>0.0</ele>
    <name>Femöre Marina</name>
    <desc>capacity=10; name=Femöre Marina; tourism=caravan_site;
    id=node/6462165182</desc>
  </wpt>
  <wpt lat="57.9964004" lon="16.495369">
    <ele>3.0</ele>
    <name>node/6483810385</name>
    <desc>tourism=caravan_site; id=node/6483810385</desc>
  </wpt>
  <wpt lat="58.6382449" lon="16.5960197">
    <ele>2.0</ele>
    <name>node/6483810386</name>
    <desc>tourism=caravan_site; id=node/6483810386</desc>
  </wpt>
  <wpt lat="61.7975234" lon="16.1627514">
    <name>Géentv</name>
    <desc>fishing=yes; name=Géentv; tourism=caravan_site;
    id=node/6635141938</desc>
  </wpt>
  <wpt lat="57.8948327" lon="18.8398324">
    <ele>2.0</ele>
    <name>Bläse Kalkbruk Ställplats</name>
    <desc>capacity=7; name=Bläse Kalkbruk Ställplats;
    power_supply=yes; sanitary_dump_station=yes;
    tourism=caravan_site; website=https://blase.se/overnattning/;
    id=node/6658465740</desc>
    <link href="https://blase.se/overnattning/"></link>
  </wpt>
  <wpt lat="60.0998678" lon="18.8110504">
    <ele>8.0</ele>
    <name>Grisslehamns Fiskhamn</name>
    <desc>addr:city=Grisslehamn; addr:postcode=760 45;
    addr:street=Fiskehamnsvägen; name=Grisslehamns Fiskhamn;
    power_supply=yes; sanitary_dump_station=yes;
    tourism=caravan_site; id=node/6698894276</desc>
  </wpt>
  <wpt lat="56.7716966" lon="13.5074664">
    <ele>165.0</ele>
    <name>Alpackagården</name>
    <desc>name=Alpackagården; tourism=caravan_site;
    website=https://www.alpackagarden.se/;
    id=node/6723422085</desc>
    <link href="https://www.alpackagarden.se/"></link>
  </wpt>
  <wpt lat="57.1064017" lon="13.0372873">
    <ele>134.0</ele>
    <name>Fegen Husvagnscamping</name>
    <desc>check_date=2018-07-16; name=Fegen Husvagnscamping;
    tourism=caravan_site; id=node/6754031571</desc>
  </wpt>
  <wpt lat="60.4341939" lon="16.2070433">
    <name>Villa Solhem</name>
    <desc>name=Villa Solhem; tourism=caravan_site;
    website=http://villasolhem.se; id=node/6804255111</desc>
    <link href="http://villasolhem.se"></link>
  </wpt>
  <wpt lat="63.7957354" lon="17.627306">
    <name>Solbergets fritidsby</name>
    <desc>name=Solbergets fritidsby; phone=+46 661-501 75;
    tourism=caravan_site;
    website=https://solbergsbacken.se/all-portfolio-list/husvagnsplatser/;
    id=node/6920282143</desc>
    <link href="https://solbergsbacken.se/all-portfolio-list/husvagnsplatser/">
    </link>
  </wpt>
  <wpt lat="63.5100167" lon="17.8069389">
    <name>
    https://www.ornskoldsvik.se/download/18.4118d3131382b50546d479/1477380058296/S%C3%B6dra%20Anundsj%C3%B6%C3%A5n.pdf</name>
    <desc>tourism=caravan_site;
    website=https://www.ornskoldsvik.se/download/18.4118d3131382b50546d479/1477380058296/S%C3%B6dra%20Anundsj%C3%B6%C3%A5n.pdf;
    id=node/6959837256</desc>
    <link href="https://www.ornskoldsvik.se/download/18.4118d3131382b50546d479/1477380058296/S%C3%B6dra%20Anundsj%C3%B6%C3%A5n.pdf">
    </link>
  </wpt>
  <wpt lat="63.2803226" lon="17.9262542">
    <name>node/6959952301</name>
    <desc>tourism=caravan_site; id=node/6959952301</desc>
  </wpt>
  <wpt lat="63.3621749" lon="18.0041348">
    <name>node/6959952317</name>
    <desc>tourism=caravan_site; id=node/6959952317</desc>
  </wpt>
  <wpt lat="63.3962498" lon="17.8518819">
    <name>node/6959952361</name>
    <desc>tourism=caravan_site; id=node/6959952361</desc>
  </wpt>
  <wpt lat="63.3838322" lon="17.7208614">
    <name>node/6959973697</name>
    <desc>tourism=caravan_site; id=node/6959973697</desc>
  </wpt>
  <wpt lat="55.7931962" lon="13.1536596">
    <ele>16.0</ele>
    <name>Åboda</name>
    <desc>email=kansli@kavlingegk.se; fee=yes; name=Åboda;
    phone=+4646736270; power_supply=yes; tourism=caravan_site;
    website=https://kavlingegk.se/; id=node/7486872011</desc>
    <link href="https://kavlingegk.se/"></link>
  </wpt>
  <wpt lat="58.7444468" lon="17.0150248">
    <ele>6.0</ele>
    <name>node/7508717859</name>
    <desc>tourism=caravan_site; id=node/7508717859</desc>
  </wpt>
  <wpt lat="58.1772381" lon="14.163186">
    <ele>192.0</ele>
    <name>node/7619476085</name>
    <desc>tourism=caravan_site; id=node/7619476085</desc>
  </wpt>
  <wpt lat="65.4640299" lon="16.0785618">
    <name>node/7781467175</name>
    <desc>fee=no; tourism=caravan_site; id=node/7781467175</desc>
  </wpt>
  <wpt lat="63.9027977" lon="19.6901168">
    <name>node/7798271097</name>
    <desc>amenity=parking; informal=yes; tourism=caravan_site;
    id=node/7798271097</desc>
  </wpt>
  <wpt lat="59.7420074" lon="12.3146591">
    <ele>95.0</ele>
    <name>node/8092503628</name>
    <desc>tourism=caravan_site; id=node/8092503628</desc>
  </wpt>
  <wpt lat="57.6349981" lon="15.0875165">
    <ele>267.0</ele>
    <name>Boaryds Ställplats</name>
    <desc>capacity=10; fee=yes; internet_access=wlan;
    internet_access:fee=customers; name=Boaryds Ställplats;
    power_supply=yes; tourism=caravan_site;
    id=node/8259383725</desc>
  </wpt>
  <wpt lat="56.7915137" lon="16.5662786">
    <ele>4.0</ele>
    <name>Campingleken</name>
    <desc>name=Campingleken; tourism=caravan_site;
    id=node/8833321072; ; id=way/954397638</desc>
  </wpt>
  <wpt lat="60.4657775" lon="15.5634211">
    <name>Torsångs camping</name>
    <desc>name=Torsångs camping; power_supply=yes;
    tourism=caravan_site; website=http://torsangscamping.se;
    id=node/8844690169</desc>
    <link href="http://torsangscamping.se"></link>
  </wpt>
  <wpt lat="62.9010085" lon="17.9283222">
    <name>Gålå camping</name>
    <desc>name=Gålå camping; tourism=caravan_site;
    id=node/8952028219</desc>
  </wpt>
  <wpt lat="56.651603" lon="14.0340197">
    <ele>144.0</ele>
    <name>Stenshult Mellangård</name>
    <desc>charge=200 SEK; fee=yes; internet_access=wlan;
    internet_access:fee=no; internet_access:ssid=Guest-Stenshult;
    name=Stenshult Mellangård; power_supply=yes;
    sanitary_dump_station=yes; tourism=caravan_site;
    website=http://stenshultmellangard.se/;
    id=node/8952173271</desc>
    <link href="http://stenshultmellangard.se/"></link>
  </wpt>
  <wpt lat="57.34913" lon="17.0373181">
    <ele>4.0</ele>
    <name>Byxelkrok Ställplats</name>
    <desc>description:de=sehr schön abgelegen, aber ohne jeglichen
    service; fee=yes; name=Byxelkrok Ställplats; power_supply=no;
    sanitary_dump_station=no; tourism=caravan_site; water_point=no;
    id=node/8980588416</desc>
  </wpt>
  <wpt lat="56.4014605" lon="14.6644933">
    <ele>113.0</ele>
    <name>node/8999513756</name>
    <desc>description:de=ruhig am Damm 5€ stehen 5€ Strom;
    tourism=caravan_site; id=node/8999513756</desc>
  </wpt>
  <wpt lat="58.8214017" lon="16.6424078">
    <ele>26.0</ele>
    <name>Harhålet</name>
    <desc>fee=yes; name=Harhålet; toilets=yes;
    tourism=caravan_site; id=node/9031390629</desc>
  </wpt>
  <wpt lat="58.6961422" lon="13.1111007">
    <ele>49.0</ele>
    <name>node/9078567717</name>
    <desc>internet_access=wlan; tourism=caravan_site;
    id=node/9078567717</desc>
  </wpt>
  <wpt lat="57.5069092" lon="12.6991993">
    <ele>67.0</ele>
    <name>node/9128155521</name>
    <desc>capacity=6; tourism=caravan_site;
    id=node/9128155521</desc>
  </wpt>
  <wpt lat="59.3361899" lon="14.132152">
    <ele>93.0</ele>
    <name>Kristinehamns Golfklubb ställplats</name>
    <desc>capacity=5; fee=yes; name=Kristinehamns Golfklubb
    ställplats; power_supply=yes; tourism=caravan_site;
    id=node/9164899052</desc>
  </wpt>
  <wpt lat="56.0321559" lon="13.6218566">
    <ele>120.0</ele>
    <name>Honungsfarmens ställplats</name>
    <desc>capacity=8; internet_access=no; name=Honungsfarmens
    ställplats; power_supply=yes; sanitary_dump_station=yes;
    tourism=caravan_site; id=node/9422958620</desc>
  </wpt>
  <wpt lat="66.7559756" lon="20.9524679">
    <name>Bensinstation Nattavaara</name>
    <desc>addr:city=Nattavaara; addr:country=SE;
    addr:housenumber=3; addr:postcode=98206; addr:street=Majasväg;
    capacity=3; dog=yes; email=birger.dynesius@gmail.com; fee=215
    SEK; name=Bensinstation Nattavaara; phone=+46 70 2262912;
    tents=no; tourism=caravan_site; id=node/9626126514</desc>
  </wpt>
  <wpt lat="58.8120824" lon="12.4393587">
    <ele>50.0</ele>
    <name>Upperud Gästhamn</name>
    <desc>access=customers; caravans=yes; charge=20 EUR;
    drinking_water=yes; fee=yes; group_only=no;
    internet_access=wlan; internet_access:fee=customers;
    motorhomes=dedicated; name=Upperud Gästhamn; openfire=no;
    opening_hours=May-Oct; payment:cash=yes;
    payment:credit_cards=yes; picnic_table=yes;
    power_supply=cee_17_blue; sanitary_dump_station=yes;
    shower=yes; static_caravans=no; tents=no; toilets=yes;
    tourism=caravan_site; wheelchair=yes; id=node/9865523855</desc>
  </wpt>
  <wpt lat="57.4560064" lon="11.9150262">
    <ele>3.0</ele>
    <name>node/9865865174</name>
    <desc>capacity=7; check_date=2024-09-08; power_supply=yes;
    sanitary_dump_station=yes; tourism=caravan_site;
    id=node/9865865174</desc>
  </wpt>
  <wpt lat="56.3687253" lon="13.9843739">
    <ele>76.0</ele>
    <name>node/9866224706</name>
    <desc>capacity=6; fee=no; internet_access=no; power_supply=no;
    reservation=no; sanitary_dump_station=no; tourism=caravan_site;
    id=node/9866224706</desc>
  </wpt>
  <wpt lat="55.99709" lon="14.4449496">
    <ele>1.0</ele>
    <name>Tosteberga Hamn</name>
    <desc>addr:street=Bodavägen; capacity=25;
    contact:website=https://www.tallyweb.dk/tostebergahamn/home;
    drinking_water=yes; fee=yes; internet_access=no;
    name=Tosteberga Hamn; power_supply=yes; reservation=no;
    sanitary_dump_station=no; tents=yes; toilets=yes;
    tourism=caravan_site; wheelchair=limited;
    id=node/9867656545</desc>
    <link href="https://www.tallyweb.dk/tostebergahamn/home">
    </link>
  </wpt>
  <wpt lat="56.3575674" lon="12.8400205">
    <ele>86.0</ele>
    <name>Förslöv</name>
    <desc>addr:city=Förslöv; addr:country=SE; addr:housenumber=52;
    addr:postcode=269 73; addr:street=Hålevägen;
    capacity:caravans=5; fee=50 SEK; internet_access=no;
    power_supply=no; sanitary_dump_station=no;
    tourism=caravan_site; id=node/9868854294</desc>
  </wpt>
  <wpt lat="59.8031764" lon="15.1669391">
    <ele>116.0</ele>
    <name>node/9897611018</name>
    <desc>tourism=caravan_site; id=node/9897611018</desc>
  </wpt>
  <wpt lat="56.1515694" lon="15.4503091">
    <ele>4.0</ele>
    <name>node/9905451073</name>
    <desc>fee=no; sanitary_dump_station=no; tourism=caravan_site;
    id=node/9905451073</desc>
  </wpt>
  <wpt lat="59.3717826" lon="13.48882">
    <ele>54.0</ele>
    <name>node/9907194370</name>
    <desc>capacity:caravans=3; fee=no; power_supply=yes;
    sanitary_dump_station=no; tourism=caravan_site;
    id=node/9907194370</desc>
  </wpt>
  <wpt lat="59.371704" lon="13.489264">
    <ele>49.0</ele>
    <name>node/9907194371</name>
    <desc>capacity:caravans=4; fee=no; power_supply=yes;
    sanitary_dump_station=no; tourism=caravan_site;
    id=node/9907194371</desc>
  </wpt>
  <wpt lat="58.6186201" lon="13.401841">
    <ele>133.0</ele>
    <name>node/9907265979</name>
    <desc>power_supply=no; sanitary_dump_station=no;
    tourism=caravan_site; id=node/9907265979</desc>
  </wpt>
  <wpt lat="58.5056232" lon="13.162414">
    <ele>47.0</ele>
    <name>node/9907337650</name>
    <desc>capacity:caravans=7; fee=no; tourism=caravan_site;
    id=node/9907337650</desc>
  </wpt>
  <wpt lat="58.9379068" lon="12.2861294">
    <ele>82.0</ele>
    <name>node/9907553545</name>
    <desc>capacity:caravans=4; fee=yes; tourism=caravan_site;
    id=node/9907553545</desc>
  </wpt>
  <wpt lat="58.7234334" lon="11.3481216">
    <ele>50.0</ele>
    <name>Tanum Shoppingcenter</name>
    <desc>addr:city=Tanumshede; addr:housenumber=5;
    addr:postcode=457 32; addr:street=Brehogsvägen; fee=no;
    opening_hours=08:00-21:00; operator=Tanum Shoppingcenter;
    power_supply=yes; surface=asphalt; tourism=caravan_site;
    id=node/9907764786</desc>
  </wpt>
  <wpt lat="56.5136044" lon="14.8488119">
    <ele>157.0</ele>
    <name>Fröbergsslätt</name>
    <desc>capacity:caravans=3; email=froebergsslaett@yahoo.com;
    fee=yes; internet_access=wlan; internet_access:fee=customers;
    name=Fröbergsslätt; phone=+49 15733719730, +46 727039034;
    power_supply=yes; sanitary_dump_station=yes;
    tourism=caravan_site; id=node/9915603718</desc>
  </wpt>
  <wpt lat="57.1642731" lon="15.1268294">
    <ele>216.0</ele>
    <name>https://eremit.app/</name>
    <desc>fee=yes; tourism=caravan_site;
    website=https://eremit.app/; id=node/9925496440</desc>
    <link href="https://eremit.app/"></link>
  </wpt>
  <wpt lat="58.8495325" lon="14.128917">
    <ele>100.0</ele>
    <name>Lindhagens Jordbruk</name>
    <desc>addr:city=Lyrestad; addr:postcode=54893;
    addr:street=Råglanda Lindhagen; capacity:caravans=3; charge=200
    SEK; ele=100; email=Buchung@lindhagens-jordbruk.se; fee=yes;
    image=https://cdn1.park4night.com/images/prettyPhoto/default/sprite_y.png;
    name=Lindhagens Jordbruk; payment:american_express=yes;
    payment:cash=yes; payment:credit_cards=yes;
    payment:diners_club=yes; payment:mastercard=yes;
    payment:visa=yes; phone=+46723978537; power_supply=yes;
    reservation=yes; source=local knowledge; toilets=no;
    tourism=caravan_site;
    website=https://wordpress.lindhagens-jordbruk.se/worum-es-hier-geht/angebote/stellplatz-fuer-dein-wohnmobil-bei-deinem-urlaub-in-schweden/;
    id=node/9927870169</desc>
    <link href="https://wordpress.lindhagens-jordbruk.se/worum-es-hier-geht/angebote/stellplatz-fuer-dein-wohnmobil-bei-deinem-urlaub-in-schweden/">
    </link>
  </wpt>
  <wpt lat="62.9144319" lon="15.1880082">
    <name>Midsweden 365</name>
    <desc>capacity:caravans=5; fee=yes; internet_access=wlan;
    internet_access:fee=customers; operator=Midsweden 365;
    power_supply=yes; tourism=caravan_site;
    id=node/9928934129</desc>
  </wpt>
  <wpt lat="62.8757445" lon="16.9022819">
    <name>node/9942307383</name>
    <desc>fee=no; tourism=caravan_site; id=node/9942307383</desc>
  </wpt>
  <wpt lat="63.7353128" lon="20.5376258">
    <name>node/9944594517</name>
    <desc>fee=yes; tourism=caravan_site; id=node/9944594517</desc>
  </wpt>
  <wpt lat="59.3615345" lon="12.2768171">
    <ele>140.0</ele>
    <name>Sandaholm camper</name>
    <desc>fee=yes; name=Sandaholm camper; power_supply=yes;
    tourism=caravan_site; water_point=yes;
    id=node/9950094393</desc>
  </wpt>
  <wpt lat="63.3244675" lon="17.0935881">
    <name>Rästplats Prästbordet</name>
    <desc>internet_access=no; name=Rästplats Prästbordet;
    power_supply=no; sanitary_dump_station=no;
    tourism=caravan_site; id=node/9956295138</desc>
  </wpt>
  <wpt lat="62.5038227" lon="14.1803342">
    <name>node/9972360101</name>
    <desc>tourism=caravan_site; id=node/9972360101</desc>
  </wpt>
  <wpt lat="58.9094863" lon="11.9372386">
    <ele>143.0</ele>
    <name>node/9976418393</name>
    <desc>capacity=4; charge=100 SEK; fee=yes; parking=surface;
    tourism=caravan_site; id=node/9976418393</desc>
  </wpt>
  <wpt lat="57.8063133" lon="15.1502741">
    <ele>208.0</ele>
    <name>Rydsnäs Småbåtshamn</name>
    <desc>internet_access=no; name=Rydsnäs Småbåtshamn;
    power_supply=yes; shower=yes; toilets=yes;
    tourism=caravan_site; water_point=yes;
    id=node/10018114558</desc>
  </wpt>
  <wpt lat="58.5210176" lon="15.4266708">
    <ele>74.0</ele>
    <name>Ställplats Göta Kanal Ljungs Västra</name>
    <desc>email=info@gotakanal.se; fee=95 SEK; internet_access=no;
    name=Ställplats Göta Kanal Ljungs Västra; operator=Göta Kanal;
    payment:swish=yes; phone=+46 141-202050; power_supply=no;
    sanitary_dump_station=no; shower=no; surface=grass; toilets=no;
    tourism=caravan_site; water_point=no;
    id=node/10023925938</desc>
  </wpt>
  <wpt lat="58.7083599" lon="11.7859179">
    <ele>93.0</ele>
    <name>node/10035898649</name>
    <desc>power_supply=yes; sanitary_dump_station=no;
    tourism=caravan_site; id=node/10035898649</desc>
  </wpt>
  <wpt lat="57.0878123" lon="12.2478889">
    <ele>10.0</ele>
    <name>node/10115444217</name>
    <desc>addr:country=SE; addr:housenumber=4;
    addr:street=Sanatorievägen; tourism=caravan_site;
    id=node/10115444217</desc>
  </wpt>
  <wpt lat="62.6421897" lon="12.4201068">
    <name>node/10542680542</name>
    <desc>fee=yes; power_supply=yes; tourism=caravan_site;
    id=node/10542680542</desc>
  </wpt>
  <wpt lat="56.8702448" lon="16.6475175">
    <ele>41.0</ele>
    <name>Aimo Park Sollidenvägen</name>
    <desc>fee=no; name=Aimo Park Sollidenvägen;
    tourism=caravan_site; id=node/10958170257</desc>
  </wpt>
  <wpt lat="56.9558192" lon="16.888923">
    <ele>0.0</ele>
    <name>node/10962187661</name>
    <desc>tourism=caravan_site; id=node/10962187661</desc>
  </wpt>
  <wpt lat="56.6630687" lon="16.3703371">
    <ele>8.0</ele>
    <name>proviant gatan</name>
    <desc>name=proviant gatan; tourism=caravan_site;
    id=node/10971706382</desc>
  </wpt>
  <wpt lat="59.049196" lon="15.8729818">
    <ele>37.0</ele>
    <name>Ställplats Åpromenaden</name>
    <desc>name=Ställplats Åpromenaden; tourism=caravan_site;
    id=node/11021774005</desc>
  </wpt>
  <wpt lat="59.2964023" lon="15.6814779">
    <ele>36.0</ele>
    <name>Lungers hamn</name>
    <desc>authentication:app=gomarina; capacity=10; caravan=no;
    email=kassor_lungerbat@telia.com; fee=yes; motorhome=yes;
    name=Lungers hamn; phone=+46 70 095 75 35; power_supply=yes;
    sanitary_dump_station=yes; shower=yes; tents=yes; toilets=yes;
    tourism=caravan_site; id=node/11040120904</desc>
  </wpt>
  <wpt lat="60.0428781" lon="13.6941155">
    <ele>170.0</ele>
    <name>node/11073676982</name>
    <desc>check_date=2023-07-28; power_supply=yes;
    sanitary_dump_station=no; tourism=caravan_site;
    id=node/11073676982</desc>
  </wpt>
  <wpt lat="60.0363053" lon="14.1461395">
    <ele>251.0</ele>
    <name>node/11074720264</name>
    <desc>check_date=2023-07-29; power_supply=yes;
    tourism=caravan_site; id=node/11074720264</desc>
  </wpt>
  <wpt lat="56.8162727" lon="15.3800299">
    <ele>224.0</ele>
    <name>Kosta Safaripark Ställplats</name>
    <desc>description=Stand next to the fence and watch moose,
    bison, fallow deer, mouflon sheep, red deer and wild boar from
    your RV.; name=Kosta Safaripark Ställplats;
    tourism=caravan_site; website=https://www.kostasafaripark.se/;
    id=node/11079483026</desc>
    <link href="https://www.kostasafaripark.se/"></link>
  </wpt>
  <wpt lat="64.1819106" lon="15.655208">
    <name>node/11089169806</name>
    <desc>tourism=caravan_site; id=node/11089169806</desc>
  </wpt>
  <wpt lat="55.5372103" lon="13.0132327">
    <ele>31.0</ele>
    <name>Ellygården</name>
    <desc>capacity=20; fee=150SEK, 15€; name=Ellygården;
    sanitary_dump_station=no; tourism=caravan_site;
    id=node/11092870050</desc>
  </wpt>
  <wpt lat="63.1916755" lon="19.0188557">
    <name>https://fiskevistet.se/overnattning/</name>
    <desc>power_supply=yes; tourism=caravan_site;
    website=https://fiskevistet.se/overnattning/;
    id=node/11110496706</desc>
    <link href="https://fiskevistet.se/overnattning/"></link>
  </wpt>
  <wpt lat="57.1750483" lon="13.1576568">
    <ele>139.0</ele>
    <name>node/11132375636</name>
    <desc>amenity=parking; tourism=caravan_site;
    id=node/11132375636</desc>
  </wpt>
  <wpt lat="57.0678151" lon="12.5671577">
    <ele>67.0</ele>
    <name>node/11134198437</name>
    <desc>check_date=2024-07-31; fee=yes; power_supply=yes;
    tourism=caravan_site; id=node/11134198437</desc>
  </wpt>
  <wpt lat="64.6843059" lon="21.2214117">
    <name>node/11138955505</name>
    <desc>tourism=caravan_site; id=node/11138955505</desc>
  </wpt>
  <wpt lat="65.0142415" lon="21.3908546">
    <name>node/11142993106</name>
    <desc>tourism=caravan_site; id=node/11142993106</desc>
  </wpt>
  <wpt lat="64.7069361" lon="20.9691933">
    <name>node/11143373006</name>
    <desc>tourism=caravan_site; id=node/11143373006</desc>
  </wpt>
  <wpt lat="63.9905916" lon="20.8899704">
    <name>Ratans bygdegårdsförening</name>
    <desc>capacity=6; drinking_water=yes; fee=yes; laundry=yes;
    name=Ratans bygdegårdsförening; power_supply=yes;
    reservation=no; sanitary_dump_station=no; shower=yes; tents=no;
    toilets=yes; tourism=caravan_site; id=node/11146338105</desc>
  </wpt>
  <wpt lat="59.409475" lon="16.3656297">
    <ele>41.0</ele>
    <name>Tumbo Husvagnars Ställplats</name>
    <desc>capacity=20; drinking_water=yes; fee=no;
    internet_access=wlan; internet_access:fee=no; maxstay=2 days;
    name=Tumbo Husvagnars Ställplats; operator=Tumbo;
    power_supply=yes; reservation=no; sanitary_dump_station=yes;
    toilets=no; tourism=caravan_site;
    website=https://tumbo.se/foretaget/stallplats/;
    id=node/11153500413</desc>
    <link href="https://tumbo.se/foretaget/stallplats/"></link>
  </wpt>
  <wpt lat="58.4811214" lon="16.3326682">
    <ele>14.0</ele>
    <name>node/11159833805</name>
    <desc>tourism=caravan_site; id=node/11159833805</desc>
  </wpt>
  <wpt lat="57.8227007" lon="15.2801988">
    <ele>186.0</ele>
    <name>node/11341041444</name>
    <desc>internet_access=no; sanitary_dump_station=yes;
    tourism=caravan_site; id=node/11341041444</desc>
  </wpt>
  <wpt lat="55.4016995" lon="12.9429333">
    <ele>3.0</ele>
    <name>Esatcionamento e Pernoita Autocaravanas</name>
    <desc>name=Esatcionamento e Pernoita Autocaravanas;
    power_supply=no; sanitary_dump_station=no;
    tourism=caravan_site; id=node/11517784081</desc>
  </wpt>
  <wpt lat="58.5138699" lon="16.6745778">
    <ele>40.0</ele>
    <name>node/11622730905</name>
    <desc>tourism=caravan_site; id=node/11622730905</desc>
  </wpt>
  <wpt lat="63.3185386" lon="17.1426021">
    <name>Össterå Rästplats</name>
    <desc>internet_access=no; name=Össterå Rästplats;
    power_supply=no; sanitary_dump_station=no;
    tourism=caravan_site; id=node/11645068439</desc>
  </wpt>
  <wpt lat="59.0774002" lon="16.8320363">
    <ele>29.0</ele>
    <name>Ställplats Båven</name>
    <desc>alt_name=Sparreholms Ställplats; name=Ställplats Båven;
    tourism=caravan_site;
    website=https://malmkopingscamping.se/baven;
    id=node/11715694650</desc>
    <link href="https://malmkopingscamping.se/baven"></link>
  </wpt>
  <wpt lat="57.7628902" lon="16.6871434">
    <ele>6.0</ele>
    <name>Bondbacken</name>
    <desc>caravans=no; charge=160 SEK; fee=yes; name=Bondbacken;
    tents=no; tourism=caravan_site; id=node/11784004333</desc>
  </wpt>
  <wpt lat="55.6260319" lon="13.7770835">
    <ele>71.0</ele>
    <name>node/11961073589</name>
    <desc>caravan_site=motorhome_stopover;
    caravan_site:type=farm_shop; caravans=yes; charge=200 SEK;
    fee=yes; power_supply=yes; power_supply:capacity=8;
    power_supply:charge=50 SEK; power_supply:fee=yes;
    tourism=caravan_site; id=node/11961073589</desc>
  </wpt>
  <wpt lat="55.7934219" lon="13.8211146">
    <ele>181.0</ele>
    <name>Lavendelgården</name>
    <desc>capacity=4; fee=yes; name=Lavendelgården;
    tourism=caravan_site; id=node/11961651668</desc>
  </wpt>
  <wpt lat="55.4916425" lon="14.1113698">
    <ele>54.0</ele>
    <name>B&amp;B Hannasa Gard</name>
    <desc>caravan_site=motorhome_stopover;
    caravan_site:type=guest_house; name=B&amp;B Hannasa Gard;
    power_supply=yes; tourism=caravan_site;
    id=node/11961657405</desc>
  </wpt>
  <wpt lat="55.5926307" lon="14.2232904">
    <ele>75.0</ele>
    <name>Torna ställplats</name>
    <desc>charge=150 SEK; fee=yes; name=Torna ställplats;
    operator=Gyllebo IF; power_supply=yes; power_supply:charge=50
    SEK; power_supply:fee=yes; sanitary_dump_station=yes;
    shower=yes; toilets=yes; tourism=caravan_site; water_point=yes;
    website=https://www.svenskalag.se/gylleboif-tornastallplats;
    id=node/11962389951</desc>
    <link href="https://www.svenskalag.se/gylleboif-tornastallplats">
    </link>
  </wpt>
  <wpt lat="62.5630571" lon="14.3861875">
    <name>node/11970940023</name>
    <desc>power_supply=yes; tourism=caravan_site;
    id=node/11970940023</desc>
  </wpt>
  <wpt lat="62.5634596" lon="14.3863791">
    <name>node/11970940024</name>
    <desc>power_supply=yes; tourism=caravan_site;
    id=node/11970940024</desc>
  </wpt>
  <wpt lat="62.5629688" lon="14.3868313">
    <name>node/11970940025</name>
    <desc>power_supply=yes; tourism=caravan_site;
    id=node/11970940025</desc>
  </wpt>
  <wpt lat="62.5631667" lon="14.3872232">
    <name>node/11970940033</name>
    <desc>power_supply=yes; tourism=caravan_site;
    id=node/11970940033</desc>
  </wpt>
  <wpt lat="62.5627488" lon="14.3861496">
    <name>node/11970940041</name>
    <desc>power_supply=yes; tourism=caravan_site;
    id=node/11970940041</desc>
  </wpt>
  <wpt lat="59.1691042" lon="18.2289942">
    <ele>42.0</ele>
    <name>node/11975526731</name>
    <desc>tourism=caravan_site; id=node/11975526731</desc>
  </wpt>
  <wpt lat="56.0506243" lon="13.366735">
    <ele>61.0</ele>
    <name>Rödhakens Ställplats</name>
    <desc>addr:housenumber=4114; addr:street=Färingtofta;
    description=forest sideroad; fee=yes;
    kartaview=https://storage13.openstreetcam.org/files/photo/2024/6/12/proc/9032313_efd5deaa474a9edb9ae80d182e43d049.jpg;
    name=Rödhakens Ställplats; name:de=Rödhakens Stellplatz;
    opening_hours=24/7; phone=+467064106 43; power_supply=no;
    sanitary_dump_station=no; toilets=no; tourism=caravan_site;
    water_point=no;
    website=https://www.campercontact.com/en/sweden/skane-county/faringtofta/97187/rodhaken;
    id=node/11978439905</desc>
    <link href="https://www.campercontact.com/en/sweden/skane-county/faringtofta/97187/rodhaken">
    </link>
  </wpt>
  <wpt lat="57.2662888" lon="16.4539643">
    <ele>3.0</ele>
    <name>
    https://www.oskarshamn.se/kultur-och-fritid/idrott-och-fritid/natur-och-friluftsliv/stallplats-for-husbil/</name>
    <desc>access=motorhome; capacity=30; check_in=vending_machine;
    contact:website=https://www.oskarshamn.se/kultur-och-fritid/idrott-och-fritid/natur-och-friluftsliv/stallplats-for-husbil/;
    electricity=yes; fresh_water=yes; internet_access=wlan;
    recycling:waste=yes; sanitary_dump_station:chemical_toilet=yes;
    sanitary_dump_station:grey_water=yes; toilets=yes;
    toilets:access=code; tourism=caravan_site; washing_machine=yes;
    id=node/12006254656</desc>
    <link href="https://www.oskarshamn.se/kultur-och-fritid/idrott-och-fritid/natur-och-friluftsliv/stallplats-for-husbil/">
    </link>
  </wpt>
  <wpt lat="59.264645" lon="13.0777787">
    <ele>49.0</ele>
    <name>https://www.liljedal.one</name>
    <desc>charge=180; fee=yes; internet_access=no;
    panoramax=28356085-8d27-46fb-a67a-6e3aa682106f;
    permanent_camping=no; power_supply=yes; toilets=yes;
    tourism=caravan_site; website=https://www.liljedal.one;
    id=node/12042617238</desc>
    <link href="https://www.liljedal.one"></link>
  </wpt>
  <wpt lat="57.8289621" lon="16.2487605">
    <ele>70.0</ele>
    <name>Gärdet Gård</name>
    <desc>caravan_site=motorhome_stopover; caravan_site:type=farm;
    name=Gärdet Gård; tourism=caravan_site;
    id=node/12051887554</desc>
  </wpt>
  <wpt lat="58.4845466" lon="15.528216">
    <ele>60.0</ele>
    <name>Ställplats Göta kanal, Bergs slussar</name>
    <desc>name=Ställplats Göta kanal, Bergs slussar;
    name:de=Stellplatz, Göta Kanal, Bergs Schleusen; name:en=Motor
    home parking, Berg's locks, Göta Kanal; tourism=caravan_site;
    id=node/12100050601</desc>
  </wpt>
  <wpt lat="58.0297125" lon="14.4602112">
    <ele>97.0</ele>
    <name>Gästplats Gränna</name>
    <desc>name=Gästplats Gränna; tourism=caravan_site;
    id=node/12100155401</desc>
  </wpt>
  <wpt lat="64.004963" lon="17.2728045">
    <name>Gafsele bygdegård ställplats</name>
    <desc>capacity:caravans=4; name=Gafsele bygdegård ställplats;
    operator=Gafsele bygdegårdsförening; tourism=caravan_site;
    id=node/12103025954</desc>
  </wpt>
  <wpt lat="57.3674921" lon="14.8966642">
    <ele>211.0</ele>
    <name>Landsbro</name>
    <desc>addr:city=Landsbro; capacity=5; fee=yes;
    panoramax=8e769867-8691-419e-91e1-ae8e45fd9a8c;
    power_supply=yes; sanitary_dump_station=no;
    tourism=caravan_site; id=node/12116446373</desc>
  </wpt>
  <wpt lat="59.7319288" lon="14.1973734">
    <ele>289.0</ele>
    <name>node/12122499180</name>
    <desc>power_supply=yes; tourism=caravan_site;
    id=node/12122499180</desc>
  </wpt>
  <wpt lat="59.3947994" lon="12.1316106">
    <ele>124.0</ele>
    <name>node/12128442388</name>
    <desc>capacity=6; internet_access=no; permanent_camping=no;
    power_supply=no; toilets=no; tourism=caravan_site;
    id=node/12128442388</desc>
  </wpt>
  <wpt lat="59.8374367" lon="13.1389741">
    <ele>76.0</ele>
    <name>node/12171823395</name>
    <desc>capacity:motorhome=5; fee=no; sanitary_dump_station=no;
    tourism=caravan_site; id=node/12171823395</desc>
  </wpt>
  <wpt lat="62.9139173" lon="14.5301585">
    <name>node/12177318855</name>
    <desc>power_supply=no; sanitary_dump_station=no;
    tourism=caravan_site; id=node/12177318855</desc>
  </wpt>
  <wpt lat="58.8529478" lon="11.1591643">
    <ele>15.0</ele>
    <name>Garviks Camping</name>
    <desc>email=info@garvikscamping.se; name=Garviks Camping;
    phone=+46 526-223 27; power_supply=yes; tents=yes;
    tourism=caravan_site; website=https://garvikscamping.se/;
    id=node/12178548742</desc>
    <link href="https://garvikscamping.se/"></link>
  </wpt>
  <wpt lat="61.7022976" lon="17.1804275">
    <name>node/12195509946</name>
    <desc>tourism=caravan_site; id=node/12195509946</desc>
  </wpt>
  <wpt lat="60.3404537" lon="15.1799131">
    <ele>342.0</ele>
    <name>Äventyrsgruvan</name>
    <desc>name=Äventyrsgruvan; tourism=caravan_site;
    id=node/12590496464</desc>
  </wpt>
  <wpt lat="57.071486" lon="16.8532565">
    <ele>0.0</ele>
    <name>Sandvik Stallplats</name>
    <desc>addr:housenumber=18; addr:street=Stenhuggarvägen;
    capacity=15;
    contact:website=https://www.campingspot.com/en/docks/359-sandvik-stallplats;
    name=Sandvik Stallplats; power_supply=yes; reservation=no;
    tourism=caravan_site; wheelchair=yes;
    id=node/12704708177</desc>
    <link href="https://www.campingspot.com/en/docks/359-sandvik-stallplats">
    </link>
  </wpt>
  <wpt lat="57.9957696" lon="13.8457665">
    <ele>214.0</ele>
    <name>Kyrkekvarn</name>
    <desc>email=bokning@kyrkekvarn.com; fee=yes; name=Kyrkekvarn;
    opening_hours=24/7; operator=Kyrkekvarn Sörgården Turism HB;
    phone=+46 515 761005; power_supply=yes; reservation=yes;
    tourism=caravan_site; website=https://kyrkekvarn.com;
    id=node/12768571618</desc>
    <link href="https://kyrkekvarn.com"></link>
  </wpt>
  <wpt lat="63.9108309" lon="19.8279102">
    <name>node/12810811340</name>
    <desc>tourism=caravan_site; id=node/12810811340</desc>
  </wpt>
  <wpt lat="55.5277713" lon="14.068079">
    <ele>57.0</ele>
    <name>Hälldala Ranch</name>
    <desc>caravan_site=motorhome_stopover;
    caravan_site:type=horse_riding_center; charge=250 SEK; fee=yes;
    name=Hälldala Ranch; phone=+46 708450150; power_supply=yes;
    power_supply:charge=50 SEK; sanitary_dump_station=yes;
    seasonal=no; shower=yes; toilets=yes; tourism=caravan_site;
    water_point=yes; website=https://www.halldalaranch.se/;
    id=node/12879399396</desc>
    <link href="https://www.halldalaranch.se/"></link>
  </wpt>
  <wpt lat="59.3587427" lon="12.2816766">
    <ele>145.0</ele>
    <name>Sandaholm Camping</name>
    <desc>name=Sandaholm Camping; tourism=caravan_site;
    id=node/12896735861; ; id=way/274137477</desc>
  </wpt>
  <wpt lat="56.3524653" lon="14.5928317">
    <ele>137.0</ele>
    <name>Södersjön ställplats</name>
    <desc>addr:city=Kyrkhult; addr:housenumber=321;
    addr:postcode=290 60; addr:province=Olofströms kommun;
    addr:street=Morins väg; fee=no; name=Södersjön ställplats;
    tourism=caravan_site; id=node/12899507413</desc>
  </wpt>
  <wpt lat="55.9997579" lon="14.6492439">
    <ele>3.0</ele>
    <name>Ställplats - Torsö gästhamn</name>
    <desc>addr:city=Sölvesborg; addr:housenumber=41;
    addr:postcode=294 95; addr:province=Sölvesborgs kommun;
    addr:street=Torsö Hamn; name=Ställplats - Torsö gästhamn;
    tourism=caravan_site; id=node/12899507414</desc>
  </wpt>
  <wpt lat="56.0441139" lon="14.6001059">
    <ele>7.0</ele>
    <name>Ställplats - Sölvesborgs Golfklubb</name>
    <desc>addr:city=Sölvesborg; addr:housenumber=10;
    addr:postcode=294 91; addr:province=Sölvesborgs kommun;
    addr:street=Ljunganabbevägen; name=Ställplats - Sölvesborgs
    Golfklubb; tourism=caravan_site; id=node/12899507415</desc>
  </wpt>
  <wpt lat="56.0051106" lon="14.7390953">
    <ele>3.0</ele>
    <name>Ställplats - Nogersunds gästhamn</name>
    <desc>addr:city=Sölvesborg; addr:housenumber=54;
    addr:postcode=294 95; addr:province=Sölvesborgs kommun;
    addr:street=Hamnplan; name=Ställplats - Nogersunds gästhamn;
    tourism=caravan_site; id=node/12899507416</desc>
  </wpt>
  <wpt lat="56.0416044" lon="14.7655338">
    <ele>2.0</ele>
    <name>Ställplats - Hörviks gästhamn</name>
    <desc>addr:city=Sölvesborg; addr:postcode=294 74;
    addr:province=Sölvesborgs kommun; addr:street=Kustvägen;
    name=Ställplats - Hörviks gästhamn; tourism=caravan_site;
    id=node/12899507417</desc>
  </wpt>
  <wpt lat="56.0307705" lon="14.6113577">
    <ele>6.0</ele>
    <name>Fridas ställplats - Sandviken</name>
    <desc>addr:city=Sölvesborg; addr:postcode=294 91;
    addr:province=Sölvesborgs kommun; addr:street=Mossasträtet;
    name=Fridas ställplats - Sandviken; tourism=caravan_site;
    id=node/12899507418</desc>
  </wpt>
  <wpt lat="59.7261" lon="16.2370064">
    <ele>84.0</ele>
    <name>node/12913388031</name>
    <desc>tourism=caravan_site; id=node/12913388031</desc>
  </wpt>
  <wpt lat="61.8555282" lon="16.6143615">
    <name>node/12916785295</name>
    <desc>fee=yes; tourism=caravan_site; id=node/12916785295</desc>
  </wpt>
  <wpt lat="56.0491953" lon="14.7567174">
    <ele>2.0</ele>
    <name>Ställplats Krokås Hamn</name>
    <desc>addr:city=Sölvesborg; addr:housenumber=2;
    addr:postcode=294 75; addr:street=Krokås hamn; name=Ställplats
    Krokås Hamn; tourism=caravan_site; id=node/12925322535</desc>
  </wpt>
  <wpt lat="56.1027193" lon="15.4743853">
    <ele>2.0</ele>
    <name>Ställplats Garpahamnen</name>
    <desc>addr:city=Hasslö; addr:housenumber=4; addr:postcode=373
    65; addr:street=Garpenvägen; name=Ställplats Garpahamnen;
    tourism=caravan_site; id=node/12925322570</desc>
  </wpt>
  <wpt lat="56.0415295" lon="14.7666389">
    <ele>2.0</ele>
    <name>Ställplats Hörviks Gästhamn</name>
    <desc>addr:city=Sölvesborg; addr:housenumber=1;
    addr:postcode=294 74; addr:street=Kustvägen; name=Ställplats
    Hörviks Gästhamn; tourism=caravan_site;
    id=node/12925322571</desc>
  </wpt>
  <wpt lat="56.1564306" lon="15.4500985">
    <ele>3.0</ele>
    <name>Ställplats Carlskrona Golfklubb</name>
    <desc>addr:city=Nättraby; addr:postcode=371 24;
    addr:street=Almö; name=Ställplats Carlskrona Golfklubb;
    tourism=caravan_site; id=node/12925322627</desc>
  </wpt>
  <wpt lat="56.1011052" lon="15.6368051">
    <ele>0.0</ele>
    <name>Ekenabben Ställplats</name>
    <desc>addr:city=Sturkö; addr:housenumber=34; addr:postcode=373
    62; addr:street=Ekenabbsvägen; name=Ekenabben Ställplats;
    tourism=caravan_site; id=node/12925322629</desc>
  </wpt>
  <wpt lat="56.1376024" lon="15.7394546">
    <ele>7.0</ele>
    <name>Senoren Ställplats Brofästet</name>
    <desc>addr:city=Senoren; addr:postcode=373 54; name=Senoren
    Ställplats Brofästet; tourism=caravan_site;
    id=node/12925322665</desc>
  </wpt>
  <wpt lat="56.1198007" lon="15.6510919">
    <ele>0.0</ele>
    <name>Ställplats Sanda</name>
    <desc>addr:city=Sturkö; addr:postcode=370 43; addr:street=Sanda
    Hamn; name=Ställplats Sanda; tourism=caravan_site;
    id=node/12925322673</desc>
  </wpt>
  <wpt lat="57.2368397" lon="14.5742502">
    <ele>217.0</ele>
    <name>Lieblingsplatz</name>
    <desc>addr:housenumber=19B; addr:street=Centralgatan;
    capacity:caravans=16; charge=200 SKR; check_date=2025-06-21;
    email=favoritplats@gmail.com; fee=yes; internet_access=wlan;
    internet_access:fee=customers; name=Lieblingsplatz;
    payment:cash=yes; payment:credit_cards=yes;
    payment:debit_cards=yes; phone=+46 72 881 24 29;
    power_supply=yes; reservation=yes; sanitary_dump_station=yes;
    source=survey; tourism=caravan_site; id=node/12942852409</desc>
  </wpt>
  <wpt lat="55.9904475" lon="12.7490729">
    <ele>5.0</ele>
    <name>node/12943570675</name>
    <desc>fee=yes; tourism=caravan_site; id=node/12943570675</desc>
  </wpt>
  <wpt lat="64.177259" lon="15.4237479">
    <name>node/12949289192</name>
    <desc>capacity=6; power_supply=yes; tourism=caravan_site;
    id=node/12949289192</desc>
  </wpt>
  <wpt lat="58.180572" lon="13.9627781">
    <ele>146.0</ele>
    <name>Ställplats 3 - Klappebryggan</name>
    <desc>capacity=2; caravan_site=motorhome_stopover; caravans=no;
    dog=yes; fee=no; internet_access=no; name=Ställplats 3 -
    Klappebryggan; operator=Tidaholm kommun; parking:maxstay=48h;
    reservation=no; tents=no; tourism=caravan_site;
    website=https://www.tidaholm.se/bygga-bo-miljo--trafik/trafik--infrastruktur/parkering.html;
    id=node/12959020196</desc>
    <link href="https://www.tidaholm.se/bygga-bo-miljo--trafik/trafik--infrastruktur/parkering.html">
    </link>
  </wpt>
  <wpt lat="58.1784556" lon="13.9606284">
    <ele>147.0</ele>
    <name>Ställplats 2 - Södra Kungsvägen</name>
    <desc>capacity=2; caravan_site=motorhome_stopover; caravans=no;
    dog=yes; fee=no; internet_access=no; name=Ställplats 2 - Södra
    Kungsvägen; operator=Tidaholm kommun; parking:maxstay=48h;
    reservation=no; tents=no; tourism=caravan_site;
    website=https://www.tidaholm.se/bygga-bo-miljo--trafik/trafik--infrastruktur/parkering.html;
    id=node/12964452402</desc>
    <link href="https://www.tidaholm.se/bygga-bo-miljo--trafik/trafik--infrastruktur/parkering.html">
    </link>
  </wpt>
  <wpt lat="56.1989555" lon="12.6998402">
    <ele>5.0</ele>
    <name>Paradiset på Kulla</name>
    <desc>cabins=no; capacity=50; fee=yes; name=Paradiset på Kulla;
    payment:description=payment by website
    https://www.campcation.com/sv/campsite/paradiset-pa-kulla;
    permanent_camping=no; power_supply=yes;
    sanitary_dump_station=yes; tents=no; tourism=caravan_site;
    water_point=yes; id=node/12992821144</desc>
  </wpt>
  <wpt lat="57.7457031" lon="12.9201809">
    <ele>210.0</ele>
    <name>Borås Stad</name>
    <desc>capacity=6; fee=150 SEK; operator=Borås Stad;
    power_supply=yes; sanitary_dump_station=no;
    tourism=caravan_site; id=node/12995554000</desc>
  </wpt>
  <wpt lat="57.7242874" lon="11.649932">
    <ele>1.0</ele>
    <name>Tjolmens ställplats</name>
    <desc>capacity=14; fee=yes; name=Tjolmens ställplats;
    payment:cash=no; power_supply=yes; sanitary_dump_station=yes;
    shower=yes; toilets=yes; tourism=caravan_site;
    website=https://www.psidan.se; id=node/12997977833</desc>
    <link href="https://www.psidan.se"></link>
  </wpt>
  <wpt lat="57.4181129" lon="12.9592112">
    <ele>151.0</ele>
    <name>node/13004117885</name>
    <desc>tourism=caravan_site; id=node/13004117885</desc>
  </wpt>
  <wpt lat="67.9283856" lon="20.3793929">
    <name>Camp Aurora</name>
    <desc>name=Camp Aurora; tourism=caravan_site;
    id=node/13004543216</desc>
  </wpt>
  <wpt lat="60.3703609" lon="16.1674597">
    <ele>137.0</ele>
    <name>node/13013494497</name>
    <desc>power_supply=yes; sanitary_dump_station=no;
    tourism=caravan_site; id=node/13013494497</desc>
  </wpt>
  <wpt lat="60.4314238" lon="16.2324567">
    <name>node/13014447912</name>
    <desc>tourism=caravan_site; id=node/13014447912</desc>
  </wpt>
  <wpt lat="59.3956666" lon="15.8495015">
    <ele>14.0</ele>
    <name>Arboga Kommun</name>
    <desc>addr:city=Arboga; addr:postcode=73231;
    addr:street=Ångbåtsgatan; description=Free of charge. Max stay
    3 nights.; internet_access=no; operator=Arboga Kommun;
    power_supply=no; sanitary_dump_station=no;
    tourism=caravan_site; id=node/13019580404</desc>
  </wpt>
  <wpt lat="56.3870748" lon="13.1087997">
    <ele>55.0</ele>
    <name>Vallåsen</name>
    <desc>internet_access=wlan; name=Vallåsen; power_supply=yes;
    sanitary_dump_station=yes; survey:date=2025-07-26;
    tourism=caravan_site; website=https://vallasen.se/;
    id=node/13026306086</desc>
    <link href="https://vallasen.se/"></link>
  </wpt>
  <wpt lat="58.718801" lon="13.8198443">
    <ele>46.0</ele>
    <name>Yttre Hamnen</name>
    <desc>capacity=32; description=additional pitches north of the
    service building in the outer harbour; fee=yes;
    motorhomes=designated; name=Yttre Hamnen; opening_hours=Jun 01
    - Sep 15; operator=Mariestads Kommun; payment:parkster=only;
    power_supply=yes; power_supply:fee=yes; reservation=no;
    sanitary_dump_station=yes; shower=yes; shower:fee=no; tents=no;
    tourism=caravan_site;
    website=https://www.vastsverige.com/en/mariestad/produkter/stallplats-i-yttre-hamnen/;
    id=node/13028143272</desc>
    <link href="https://www.vastsverige.com/en/mariestad/produkter/stallplats-i-yttre-hamnen/">
    </link>
  </wpt>
  <wpt lat="58.0740169" lon="14.51763">
    <ele>180.0</ele>
    <name>Länsmansgården</name>
    <desc>camp_site=basic; capacity=5; drinking_water=yes; fee=yes;
    name=Länsmansgården; payment:cash=yes; payment:swish=yes;
    power_supply=no; reservation=no; sanitary_dump_station=no;
    tourism=caravan_site; water_point=yes; wheelchair=no;
    id=node/13038816268</desc>
  </wpt>
  <wpt lat="58.3193549" lon="14.6312468">
    <ele>156.0</ele>
    <name>node/13039211379</name>
    <desc>camp_site=basic; capacity=3; fee=yes; maxstay=1 night;
    tourism=caravan_site; id=node/13039211379</desc>
  </wpt>
  <wpt lat="58.5084026" lon="16.0315134">
    <ele>42.0</ele>
    <name>https://www.bradtomsluss.se/</name>
    <desc>email=info@bradtomsluss.se; phone=(+46) 076 2166043;
    power_supply=yes; survey:date=2025-07-31; tourism=caravan_site;
    website=https://www.bradtomsluss.se/;
    id=node/13039588541</desc>
    <link href="https://www.bradtomsluss.se/"></link>
  </wpt>
  <wpt lat="59.29230845" lon="14.550511348080438">
    <ele>105.0</ele>
    <name>Labbsands camping</name>
    <desc>name=Labbsands camping; tourism=caravan_site;
    type=multipolygon; id=relation/4008064</desc>
  </wpt>
  <wpt lat="59.25023415" lon="18.16132555168081">
    <ele>49.0</ele>
    <name>City – Stockholm</name>
    <desc>alt_name=Flatens Camping; caravans=no;
    email=citystockholm@firstcamp.se; motorhome=yes; name=City –
    Stockholm; operator=FirstCamp; phone=+468-77 30 100; tents=no;
    tourism=caravan_site; type=multipolygon;
    id=relation/5185723</desc>
  </wpt>
  <wpt lat="59.14586815" lon="15.653014513429202">
    <ele>31.0</ele>
    <name>Björkenäsgården</name>
    <desc>name=Björkenäsgården; tourism=caravan_site;
    type=multipolygon; id=relation/6482863</desc>
  </wpt>
  <wpt lat="60.52282835" lon="16.732478028379084">
    <name>Strandbaden</name>
    <desc>name=Strandbaden; tourism=caravan_site;
    type=multipolygon; id=relation/7143326</desc>
  </wpt>
  <wpt lat="62.11563255" lon="13.246972425103205">
    <name>relation/7875147</name>
    <desc>tourism=caravan_site; type=multipolygon;
    id=relation/7875147</desc>
  </wpt>
  <wpt lat="68.4307637" lon="18.25630354407798">
    <name>Vassijaure</name>
    <desc>motorhome=yes; name=Vassijaure; tents=no;
    tourism=caravan_site; type=multipolygon;
    id=relation/9945638</desc>
  </wpt>
  <wpt lat="59.05347825" lon="11.169695699154005">
    <ele>2.0</ele>
    <name>Camping Lunneviken</name>
    <desc>name=Camping Lunneviken; tourism=caravan_site;
    type=multipolygon; id=relation/10506850</desc>
  </wpt>
  <wpt lat="57.47175945" lon="13.37743346958081">
    <ele>180.0</ele>
    <name>relation/10521531</name>
    <desc>tourism=caravan_site; type=multipolygon;
    id=relation/10521531</desc>
  </wpt>
  <wpt lat="61.95657935" lon="17.338172179490556">
    <name>Mellanfjärden camping</name>
    <desc>addr:postcode=82076; fee=yes; name=Mellanfjärden camping;
    tourism=caravan_site; type=multipolygon;
    website=http://www.mellanfjarden.se;
    id=relation/11335052</desc>
    <link href="http://www.mellanfjarden.se"></link>
  </wpt>
  <wpt lat="57.2399523" lon="12.861979843713847">
    <ele>113.0</ele>
    <name>relation/11346776</name>
    <desc>tourism=caravan_site; type=multipolygon;
    id=relation/11346776</desc>
  </wpt>
  <wpt lat="60.900267549999995" lon="14.584350445791902">
    <name>relation/12939800</name>
    <desc>tourism=caravan_site; type=multipolygon;
    id=relation/12939800</desc>
  </wpt>
  <wpt lat="57.1244706" lon="12.25268605356202">
    <ele>2.0</ele>
    <name>Naturum</name>
    <desc>description=Ställplats husbilar;
    description:de=Reisemobilstellplätze; name=Naturum;
    tourism=caravan_site; type=multipolygon; wheelchair=yes;
    id=relation/13030417</desc>
  </wpt>
  <wpt lat="62.58640795" lon="17.07131535399806">
    <name>relation/13106378</name>
    <desc>tourism=caravan_site; type=multipolygon;
    id=relation/13106378</desc>
  </wpt>
  <wpt lat="58.240076" lon="11.675704053664568">
    <ele>4.0</ele>
    <name>Henåns ställplats</name>
    <desc>amenity=sanitary_dump_station; capacity=50; charge=170
    SKR; fee=yes; name=Henåns ställplats; power_supply=yes;
    sanitary_dump_station=yes; tourism=caravan_site;
    type=multipolygon; website=https://www.henansstallplats.com/;
    id=relation/13189334</desc>
    <link href="https://www.henansstallplats.com/"></link>
  </wpt>
  <wpt lat="57.66869725" lon="11.651796581352947">
    <ele>4.0</ele>
    <name>relation/16284565</name>
    <desc>tourism=caravan_site; type=multipolygon;
    id=relation/16284565</desc>
  </wpt>
  <wpt lat="57.45163015" lon="14.103791013486763">
    <ele>191.0</ele>
    <name>Götaströms Golfklubb Golfcamping</name>
    <desc>addr:city=Skillingaryd; addr:postcode=56832;
    addr:street=Osbäcks väg; email=info@gotastromsgk.se; fee=yes;
    name=Götaströms Golfklubb Golfcamping; phone=+46 370 76490;
    power_supply=yes; tourism=caravan_site; type=multipolygon;
    id=relation/16375598</desc>
  </wpt>
  <wpt lat="57.45094385" lon="14.104135196873496">
    <ele>191.0</ele>
    <name>relation/16405658</name>
    <desc>tourism=caravan_site; type=multipolygon;
    id=relation/16405658</desc>
  </wpt>
  <wpt lat="57.3261792" lon="17.0068786">
    <ele>0.0</ele>
    <name>Ställplats Byxelkrok</name>
    <desc>addr:street=Neptunivägen;
    description=https://www.borgholm.se/byxelkrok-stallplats/;
    fee=yes; name=Ställplats Byxelkrok; parking=surface;
    power_supply=yes; sanitary_dump_station=yes;
    tourism=caravan_site; type=multipolygon;
    website=https://www.campingspot.com/en/docks/352-byxelkrok;
    id=relation/17835477</desc>
    <link href="https://www.campingspot.com/en/docks/352-byxelkrok">
    </link>
  </wpt>
  <wpt lat="56.891831350000004" lon="12.490267629286215">
    <ele>5.0</ele>
    <name>https://www.falkenbergs-batsallskap.se/</name>
    <desc>capacity=24; fee=yes; opening_hours=24/7;
    operator=Falkenbergs Båtsällskap; power_supply=yes;
    sanitary_dump_station=customers; tents=no;
    tourism=caravan_site; type=multipolygon;
    website=https://www.falkenbergs-batsallskap.se/;
    id=relation/17987582</desc>
    <link href="https://www.falkenbergs-batsallskap.se/"></link>
  </wpt>
  <wpt lat="57.7437681" lon="11.755536989723927">
    <ele>16.0</ele>
    <name>relation/19251115</name>
    <desc>caravan_site=motorhome_stopover; caravans=no; dog=yes;
    reservation=no; tents=no; tourism=caravan_site;
    type=multipolygon; id=relation/19251115</desc>
  </wpt>
  <wpt lat="59.2309051" lon="17.88573235015423">
    <ele>48.0</ele>
    <name>Stockholm SweCamp Flottsbro</name>
    <desc>fee=yes; name=Stockholm SweCamp Flottsbro;
    power_supply=yes; sanitary_dump_station=yes; tents=yes;
    tourism=caravan_site; id=way/22699609</desc>
  </wpt>
  <wpt lat="59.439699649999994" lon="17.99016863535691">
    <ele>29.0</ele>
    <name>Rösjöbadens Camping</name>
    <desc>name=Rösjöbadens Camping; tourism=caravan_site;
    id=way/30475483</desc>
  </wpt>
  <wpt lat="60.6766049" lon="17.15964228788909">
    <name>Ställplats Gavleån</name>
    <desc>capacity=9; fee=yes; internet_access=wlan;
    name=Ställplats Gavleån; power_supply=yes;
    sanitary_dump_station=yes; tourism=caravan_site;
    id=way/39247064</desc>
  </wpt>
  <wpt lat="58.51420265" lon="13.14008634301319">
    <ele>53.0</ele>
    <name>KronoCamping Lidköping</name>
    <desc>addr:city=Lidköping; addr:country=SE;
    addr:housenumber=22; addr:postcode=53154;
    addr:street=Läckögatan; caravans=yes; drinking_water=yes;
    fee=yes; internet_access=wlan; internet_access:fee=no;
    name=KronoCamping Lidköping; organisation=ACSI, SCR;
    power_supply=yes; sanitary_dump_station=yes; tents=yes;
    toilets=yes; tourism=caravan_site;
    website=https://www.kronocamping.com/; id=way/39672366</desc>
    <link href="https://www.kronocamping.com/"></link>
  </wpt>
  <wpt lat="57.36102065" lon="14.46795470167991">
    <ele>196.0</ele>
    <name>way/57935196</name>
    <desc>tourism=caravan_site; id=way/57935196</desc>
  </wpt>
  <wpt lat="60.1565997" lon="15.184159699999999">
    <ele>161.0</ele>
    <name>way/65041581</name>
    <desc>amenity=parking; capacity=8; charge=150 SEK / day;
    fee=yes; opening_hours=24/7; parking=surface; power_supply=yes;
    sanitary_dump_station=yes; tents=no; tourism=caravan_site;
    id=way/65041581</desc>
  </wpt>
  <wpt lat="59.38852915" lon="18.231896687654107">
    <ele>15.0</ele>
    <name>way/65072264</name>
    <desc>source=Yahoo; tourism=caravan_site;
    id=way/65072264</desc>
  </wpt>
  <wpt lat="59.249723849999995" lon="18.12834112636093">
    <ele>28.0</ele>
    <name>Rullebo</name>
    <desc>name=Rullebo; tourism=caravan_site;
    id=way/68792898</desc>
  </wpt>
  <wpt lat="59.1684437" lon="17.595168048761813">
    <ele>32.0</ele>
    <name>Eklundsnäs Camping</name>
    <desc>name=Eklundsnäs Camping; tourism=caravan_site;
    id=way/92227172</desc>
  </wpt>
  <wpt lat="63.0836898" lon="18.4776102785078">
    <name>way/102948340</name>
    <desc>access=yes; capacity=5; fee=no; motorhome=yes;
    parking=surface; power_supply=no; sanitary_dump_station=no;
    surface=gravel; tourism=caravan_site; id=way/102948340</desc>
  </wpt>
  <wpt lat="63.152119" lon="14.582850095141904">
    <name>Sandvikens Camping &amp; Stugby</name>
    <desc>name=Sandvikens Camping &amp; Stugby;
    tourism=caravan_site; id=way/108138872</desc>
  </wpt>
  <wpt lat="57.66572405" lon="14.182486851200862">
    <ele>214.0</ele>
    <name>way/114345750</name>
    <desc>tourism=caravan_site; id=way/114345750</desc>
  </wpt>
  <wpt lat="64.00229775" lon="20.89234377620918">
    <name>Storsand</name>
    <desc>fee=yes; internet_access=no; internet_access:fee=no;
    name=Storsand; tents=yes; tourism=caravan_site;
    id=way/122856316</desc>
  </wpt>
  <wpt lat="61.71966615" lon="17.179020038440072">
    <name>Malnbadens Camping</name>
    <desc>name=Malnbadens Camping; toilets=yes;
    tourism=caravan_site; id=way/136578863</desc>
  </wpt>
  <wpt lat="55.7710802" lon="12.928131941587598">
    <ele>-1.0</ele>
    <name>Barsebäckstrands Camping</name>
    <desc>drinking_water=yes; fee=yes; name=Barsebäckstrands
    Camping; toilets=yes; tourism=caravan_site;
    id=way/148013247</desc>
  </wpt>
  <wpt lat="62.51687175" lon="17.38273275409628">
    <name>way/150274468</name>
    <desc>tourism=caravan_site; id=way/150274468</desc>
  </wpt>
  <wpt lat="61.21346115" lon="14.545640601630598">
    <name>Grönklitts husvagnscamping</name>
    <desc>email=info@orsagronklitt.se; name=Grönklitts
    husvagnscamping; phone=+46 250 462 00; tourism=caravan_site;
    website=https://www.orsagronklitt.se/; id=way/154072939</desc>
    <link href="https://www.orsagronklitt.se/"></link>
  </wpt>
  <wpt lat="58.555589100000006" lon="15.0786022825781">
    <ele>90.0</ele>
    <name>way/157921505</name>
    <desc>fee=yes; tourism=caravan_site; id=way/157921505</desc>
  </wpt>
  <wpt lat="58.54903765" lon="15.009732088766835">
    <ele>96.0</ele>
    <name>Z-parkens Camping</name>
    <desc>name=Z-parkens Camping; tourism=caravan_site;
    website=https://www.husvagnochcamping.se/campingkatalogen/camping.php?poi_id=445;
    id=way/160712359</desc>
    <link href="https://www.husvagnochcamping.se/campingkatalogen/camping.php?poi_id=445">
    </link>
  </wpt>
  <wpt lat="60.15763745" lon="15.507487236866272">
    <ele>121.0</ele>
    <name>Gladtjärns Camping</name>
    <desc>alt_name=Barken,Camping Gladtjärn,Barken Camp &amp; Nöje;
    name=Gladtjärns Camping; tourism=caravan_site;
    id=way/164031028</desc>
  </wpt>
  <wpt lat="60.13718455" lon="18.64150369569143">
    <ele>12.0</ele>
    <name>way/168927071</name>
    <desc>tourism=caravan_site; id=way/168927071</desc>
  </wpt>
  <wpt lat="56.0482533" lon="12.684909968184778">
    <ele>0.0</ele>
    <name>Norra Hamnen Marina AB</name>
    <desc>addr:place=Norra Hamnen;
    contact:website=http://www.marinahelsingborg.se/stallplatser-husbil/;
    description=Ställplatser Husbil;
    description:de=Reisemobilstellplätze; drinking_water=yes;
    fee=yes; internet_access=wlan; name=Norra Hamnen Marina AB;
    operator=Norra Hamnen Marina AB; power_supply=yes;
    sanitary_dump_station=customers;
    source=http://www.marinahelsingborg.se/stallplatser-husbil/;
    tents=no; toilets=yes; tourism=caravan_site;
    id=way/169647599</desc>
    <link href="http://www.marinahelsingborg.se/stallplatser-husbil/">
    </link>
  </wpt>
  <wpt lat="59.8357821" lon="17.917100258712622">
    <ele>25.0</ele>
    <name>way/170247177</name>
    <desc>source=Bing; tents=yes; tourism=caravan_site;
    id=way/170247177</desc>
  </wpt>
  <wpt lat="57.26310995" lon="13.760215949166245">
    <ele>176.0</ele>
    <name>way/171708982</name>
    <desc>tourism=caravan_site; id=way/171708982</desc>
  </wpt>
  <wpt lat="57.702687850000004" lon="12.035303485060581">
    <ele>76.0</ele>
    <name>Lisebergs Ställplats Skatås</name>
    <desc>fee=yes; name=Lisebergs Ställplats Skatås; source=Visual;
    tents=no; tourism=caravan_site; id=way/174376582</desc>
  </wpt>
  <wpt lat="56.6411744" lon="12.777424974960534">
    <ele>2.0</ele>
    <name>Halmstads kommun</name>
    <desc>access=permit; amenity=parking; capacity=12; charge=200
    SEK; fee=yes; internet_access=wlan; operator=Halmstads kommun;
    parking=surface; payment:cash=no; payment:credit_cards=yes;
    power_supply=yes; surface=asphalt; tourism=caravan_site;
    id=way/174639011</desc>
  </wpt>
  <wpt lat="63.6609992" lon="20.287102288934214">
    <name>Fläse camping</name>
    <desc>name=Fläse camping; tourism=caravan_site;
    id=way/176668683</desc>
  </wpt>
  <wpt lat="60.605223949999996" lon="16.62336312113478">
    <name>Kungsgårdens camping</name>
    <desc>name=Kungsgårdens camping; tourism=caravan_site;
    id=way/185661691</desc>
  </wpt>
  <wpt lat="63.36111965" lon="14.859571880687344">
    <name>way/187875019</name>
    <desc>fee=no; tourism=caravan_site; id=way/187875019</desc>
  </wpt>
  <wpt lat="58.5299197" lon="15.03820563555898">
    <ele>91.0</ele>
    <name>Södra strand</name>
    <desc>name=Södra strand; tourism=caravan_site;
    id=way/192437051</desc>
  </wpt>
  <wpt lat="58.26535465" lon="12.26607680582806">
    <ele>41.0</ele>
    <name>Ställplats</name>
    <desc>fee=yes; name=Ställplats; tourism=caravan_site;
    id=way/203236627</desc>
  </wpt>
  <wpt lat="59.45200765" lon="16.43841604175311">
    <ele>11.0</ele>
    <name>Mälarbadens Camping</name>
    <desc>name=Mälarbadens Camping; tourism=caravan_site;
    website=https://www.camping.se/sv/campingar/2626/Malarbadens-Camping/;
    id=way/219145049</desc>
    <link href="https://www.camping.se/sv/campingar/2626/Malarbadens-Camping/">
    </link>
  </wpt>
  <wpt lat="64.4804874" lon="20.188415352168732">
    <name>way/227470288</name>
    <desc>tourism=caravan_site; id=way/227470288</desc>
  </wpt>
  <wpt lat="63.31959465" lon="14.456645091381969">
    <name>Krokomsvikens camping</name>
    <desc>name=Krokomsvikens camping; tourism=caravan_site;
    id=way/229866380</desc>
  </wpt>
  <wpt lat="65.5783477" lon="19.0540644104667">
    <name>Caravan Trailer Parking</name>
    <desc>access=customers; name=Caravan Trailer Parking;
    operator=Clarion Collection Hotel; tourism=caravan_site;
    id=way/232449190</desc>
  </wpt>
  <wpt lat="65.85301275" lon="23.13887309103661">
    <name>Kalix Camping</name>
    <desc>alt_name=Kalix Kampingplats; name=Kalix Camping;
    tents=yes; tourism=caravan_site;
    website=https://www.kalixcamping.com/; wheelchair=limited;
    id=way/233727712</desc>
    <link href="https://www.kalixcamping.com/"></link>
  </wpt>
  <wpt lat="57.718231450000005" lon="12.141783268497829">
    <ele>121.0</ele>
    <name>Partille Ställplats</name>
    <desc>capacity:caravans=23; check_date=2024-08-17;
    drinking_water=yes; fee=yes; name=Partille Ställplats;
    power_supply=yes; sanitary_dump_station=yes; shower=yes;
    tents=no; toilets=yes; tourism=caravan_site; wheelchair=yes;
    id=way/237901937</desc>
  </wpt>
  <wpt lat="62.2438661" lon="17.29369169700162">
    <name>Öjestrand GC</name>
    <desc>capacity=6; fee=250; operator=Öjestrand GC;
    power_supply=yes; reservation=yes; tourism=caravan_site;
    id=way/251033909</desc>
  </wpt>
  <wpt lat="60.32679735" lon="16.219525956132145">
    <ele>184.0</ele>
    <name>way/252860461</name>
    <desc>tourism=caravan_site; id=way/252860461</desc>
  </wpt>
  <wpt lat="58.6717729" lon="13.21300923646574">
    <ele>56.0</ele>
    <name>way/255971423</name>
    <desc>camp_site=basic; charge=150 SEK / d;
    check_date:charge=2025-07-28; fee=yes; parking=surface;
    payment:easypark=yes; payment:sms=yes; tourism=caravan_site;
    id=way/255971423</desc>
  </wpt>
  <wpt lat="61.38066825" lon="12.93715200024553">
    <name>way/260965397</name>
    <desc>tourism=caravan_site; id=way/260965397</desc>
  </wpt>
  <wpt lat="60.0879334" lon="14.923212456263261">
    <ele>341.0</ele>
    <name>Fjällbergets stugby och camping</name>
    <desc>name=Fjällbergets stugby och camping;
    tourism=caravan_site; website=https://www.fjallberget.se/;
    id=way/261424951</desc>
    <link href="https://www.fjallberget.se/"></link>
  </wpt>
  <wpt lat="62.0848692" lon="12.318122917376805">
    <name>way/261868527</name>
    <desc>power_supply=yes; sanitary_dump_station=yes;
    tourism=caravan_site; id=way/261868527</desc>
  </wpt>
  <wpt lat="58.922848900000005" lon="12.307143699999994">
    <ele>73.0</ele>
    <name>Marina Dals Långed</name>
    <desc>capacity=8; fee=yes; internet_access=wlan;
    internet_access:fee=no; name=Marina Dals Långed;
    power_supply=yes; sanitary_dump_station=yes;
    tourism=caravan_site; id=way/270924720</desc>
  </wpt>
  <wpt lat="59.8241988" lon="13.139796870543558">
    <ele>70.0</ele>
    <name>Sunne Camping och sommarland</name>
    <desc>addr:city=Sunne; addr:country=SE; addr:housenumber=4;
    addr:postcode=686 35; addr:street=Kolsnäsvägen;
    email=info@sunnecamping.se; name=Sunne Camping och sommarland;
    phone=+46 565 16770; power_supply=yes; stars=4; tents=yes;
    tourism=caravan_site; website=http://www.sunnecamping.se/;
    id=way/273773392</desc>
    <link href="http://www.sunnecamping.se/"></link>
  </wpt>
  <wpt lat="56.695134499999995" lon="14.598383602511628">
    <ele>145.0</ele>
    <name>way/288617456</name>
    <desc>capacity=4; fee=yes; internet_access=no;
    internet_access:fee=no; note=Quickstop from 18:00 - 10:00 100
    SEK (01.04.2017); power_supply=no; sanitary_dump_station=no;
    source=Bing highres,survey; tourism=caravan_site;
    id=way/288617456</desc>
  </wpt>
  <wpt lat="58.899381500000004" lon="15.552102449717047">
    <ele>81.0</ele>
    <name>Djursnäs</name>
    <desc>name=Djursnäs; tourism=caravan_site;
    id=way/288752237</desc>
  </wpt>
  <wpt lat="57.749541" lon="11.655798826701748">
    <ele>1.0</ele>
    <name>https://www.knippla.se/gasthamn</name>
    <desc>phone=+46706563767; tourism=caravan_site;
    website=https://www.knippla.se/gasthamn;
    id=way/290420069</desc>
    <link href="https://www.knippla.se/gasthamn"></link>
  </wpt>
  <wpt lat="68.42440669999999" lon="18.15921416562702">
    <name>way/292607793</name>
    <desc>tourism=caravan_site; id=way/292607793</desc>
  </wpt>
  <wpt lat="55.38921135" lon="14.06169191374347">
    <ele>12.0</ele>
    <name>way/294314405</name>
    <desc>tourism=caravan_site; id=way/294314405</desc>
  </wpt>
  <wpt lat="59.0092557" lon="15.407788542432957">
    <ele>88.0</ele>
    <name>way/297206370</name>
    <desc>tourism=caravan_site; id=way/297206370</desc>
  </wpt>
  <wpt lat="61.5179931" lon="16.97599107596941">
    <name>way/297395037</name>
    <desc>fee=no; tourism=caravan_site; id=way/297395037</desc>
  </wpt>
  <wpt lat="57.348373699999996" lon="17.086536569121485">
    <ele>2.0</ele>
    <name>way/299707884</name>
    <desc>tourism=caravan_site; id=way/299707884</desc>
  </wpt>
  <wpt lat="58.37733955" lon="12.316418757869606">
    <ele>45.0</ele>
    <name>way/304220103</name>
    <desc>access=customers; amenity=parking; fee=yes;
    parking=surface; power_supply=yes; source=Bing;
    tourism=caravan_site; id=way/304220103</desc>
  </wpt>
  <wpt lat="56.660340950000005" lon="16.360938236001054">
    <ele>2.0</ele>
    <name>Kvarnholmen 2:1</name>
    <desc>capacity=18; caravans=no; fee=yes; internet_access=wlan;
    internet_access:fee=no; name=Kvarnholmen 2:1; power_supply=yes;
    reservation=no; sanitary_dump_station=no; tents=no; toilets=no;
    tourism=caravan_site; id=way/305600004</desc>
  </wpt>
  <wpt lat="58.7130552" lon="13.819109071710223">
    <ele>46.0</ele>
    <name>way/307197551</name>
    <desc>fee=yes; seasonal=summer; tourism=caravan_site;
    id=way/307197551</desc>
  </wpt>
  <wpt lat="58.47941885" lon="16.417787739020085">
    <ele>9.0</ele>
    <name>way/307199807</name>
    <desc>tourism=caravan_site; id=way/307199807</desc>
  </wpt>
  <wpt lat="58.86580375" lon="15.37374615457287">
    <ele>103.0</ele>
    <name>Ställplats Björnhammarens Sjösida</name>
    <desc>name=Ställplats Björnhammarens Sjösida;
    tourism=caravan_site; id=way/307647253</desc>
  </wpt>
  <wpt lat="65.6500964" lon="17.500402917035224">
    <name>Nalovardo stugby</name>
    <desc>name=Nalovardo stugby; phone=+46 952 55220;
    tourism=caravan_site;
    website=https://lapplandskatan.nu/bo-pa-nalovardo-stugby/;
    id=way/320214178</desc>
    <link href="https://lapplandskatan.nu/bo-pa-nalovardo-stugby/">
    </link>
  </wpt>
  <wpt lat="57.666566849999995" lon="14.976969170789562">
    <ele>213.0</ele>
    <name>Ställplats Eksjö City</name>
    <desc>access=permit; amenity=parking; capacity=16; fee=yes;
    name=Ställplats Eksjö City; parking=surface; surface=asphalt;
    tourism=caravan_site; website=stallplatzexjo. se;
    id=way/320682280</desc>
  </wpt>
  <wpt lat="59.48613015" lon="12.397732605264764">
    <ele>230.0</ele>
    <name>way/326473598</name>
    <desc>fixme=konstig taggning; landuse=residential;
    tourism=caravan_site; id=way/326473598</desc>
  </wpt>
  <wpt lat="59.48618625" lon="12.398392440413023">
    <ele>231.0</ele>
    <name>way/326473599</name>
    <desc>fixme=konstig taggning; landuse=meadow;
    tourism=caravan_site; id=way/326473599</desc>
  </wpt>
  <wpt lat="59.4854526" lon="12.397616508824498">
    <ele>235.0</ele>
    <name>way/326473600</name>
    <desc>fixme=konstig taggning; landuse=residential;
    tourism=caravan_site; id=way/326473600</desc>
  </wpt>
  <wpt lat="59.48538425" lon="12.398255174636908">
    <ele>235.0</ele>
    <name>way/326473601</name>
    <desc>fixme=konstig taggning; landuse=meadow;
    tourism=caravan_site; id=way/326473601</desc>
  </wpt>
  <wpt lat="58.5583169" lon="15.278991635754014">
    <ele>77.0</ele>
    <name>way/347982479</name>
    <desc>fee=yes; power_supply=yes; sanitary_dump_station=yes;
    tourism=caravan_site; id=way/347982479</desc>
  </wpt>
  <wpt lat="59.32021175" lon="18.03134976350794">
    <ele>14.0</ele>
    <name>Långholmens husbilscamping</name>
    <desc>drinking_water=yes; fee=yes; internet_access=no;
    name=Långholmens husbilscamping; power_supply=yes;
    sanitary_dump_station=yes; shower=yes; toilets=yes;
    tourism=caravan_site; id=way/350373033</desc>
  </wpt>
  <wpt lat="57.705127450000006" lon="11.65900829474991">
    <ele>1.0</ele>
    <name>way/350476358</name>
    <desc>tourism=caravan_site; id=way/350476358</desc>
  </wpt>
  <wpt lat="57.27890095" lon="12.140924562702043">
    <ele>5.0</ele>
    <name>way/350686494</name>
    <desc>description:en=only season camping; tourism=caravan_site;
    id=way/350686494</desc>
  </wpt>
  <wpt lat="60.7305644" lon="17.291702049271237">
    <name>Engesbergs Camping</name>
    <desc>name=Engesbergs Camping; phone=+46 26 99025;
    tourism=caravan_site; website=http://www.engesberg-camping.se/;
    id=way/359240491</desc>
    <link href="http://www.engesberg-camping.se/"></link>
  </wpt>
  <wpt lat="63.285496949999995" lon="18.708646474254046">
    <name>Örnsköldsviks gästhamn</name>
    <desc>charge=250 SEK/24h, 80 SEK for daytime; fee=yes;
    name=Örnsköldsviks gästhamn; phone=+46 660-222166;
    tourism=caravan_site; id=way/360207206</desc>
  </wpt>
  <wpt lat="57.729821650000005" lon="11.659168829958233">
    <ele>2.0</ele>
    <name>Hälsö Hamn</name>
    <desc>description=Båtuppl.plats på vintern, campingsvagnplats
    på sommaren; fee=yes; operator=Hälsö Hamn; power_supply=yes;
    seamark:small_craft_facility:category=caravan_site;
    seamark:type=small_craft_facility; seasonal=summer; tents=no;
    tourism=caravan_site; id=way/362156397</desc>
  </wpt>
  <wpt lat="58.909403" lon="14.288773813539295">
    <ele>83.0</ele>
    <name>Otterbergets Bad &amp; Camping</name>
    <desc>addr:city=Hova; addr:country=SE; addr:postcode=54891;
    fee=yes; internet_access=wlan; internet_access:fee=yes;
    name=Otterbergets Bad &amp; Camping; organisation=ACSI, SCR;
    power_supply=yes; sanitary_dump_station=yes; tents=yes;
    tourism=caravan_site; id=way/362161715</desc>
  </wpt>
  <wpt lat="59.289719500000004" lon="12.098636349732924">
    <ele>109.0</ele>
    <name>Ekeby Camping</name>
    <desc>cabins=yes; caravans=yes; fee=yes; internet_access=wlan;
    internet_access:fee=no; name=Ekeby Camping; operator=Mads;
    power_supply=yes; sanitary_dump_station=yes; stars=3;
    surface=grass; tents=yes; tourism=caravan_site;
    website=https://www.ekebycamping.se/; id=way/362214821</desc>
    <link href="https://www.ekebycamping.se/"></link>
  </wpt>
  <wpt lat="57.990745950000004" lon="15.519624666560876">
    <ele>117.0</ele>
    <name>Pinnarp Camping</name>
    <desc>addr:city=Kisa; addr:postcode=59039; addr:street=Pinnarps
    fritidsanläggning; capacity=100;
    contact:facebook=https://www.facebook.com/people/Pinnarp-Camping/100090052968334/;
    email=info@pinnarpcamping.se; fee=yes; name=Pinnarp Camping;
    phone=+46 73 201 41 66; power_supply=yes;
    sanitary_dump_station=yes; tourism=caravan_site;
    website=https://pinnarpcamping.se; id=way/362430340</desc>
    <link href="https://pinnarpcamping.se"></link>
  </wpt>
  <wpt lat="56.56876545" lon="14.132461262080538">
    <ele>136.0</ele>
    <name>Sjöstugans Camping &amp; Vandrarhem</name>
    <desc>caravans=yes; contact:website=http://www.sjostugan.com/;
    drinking_water=yes; fee=yes; internet_access=wlan;
    motorhome=yes; name=Sjöstugans Camping &amp; Vandrarhem;
    openfire=no; power_supply=yes; sanitary_dump_station=yes;
    surface=grass; tents=yes; tourism=caravan_site;
    wheelchair=limited; id=way/363799969</desc>
    <link href="http://www.sjostugan.com/"></link>
  </wpt>
  <wpt lat="59.2576757" lon="15.191739141528089">
    <ele>36.0</ele>
    <name>Gustavsvik</name>
    <desc>addr:city=Örebro; addr:country=SE; fee=yes;
    internet_access=wlan; internet_access:fee=no; name=Gustavsvik;
    power_supply=yes; sanitary_dump_station=yes; tents=yes;
    tourism=caravan_site; website=https://www.gustavsvik.se/;
    id=way/365339926</desc>
    <link href="https://www.gustavsvik.se/"></link>
  </wpt>
  <wpt lat="59.2630646" lon="17.255323012311116">
    <ele>11.0</ele>
    <name>Mariefreds camping</name>
    <desc>addr:city=Mariefred; addr:country=SE; addr:postcode=647
    93; addr:street=Edsala; drinking_water=yes;
    email=mariefredscamping@yahoo.se; fax=+46 159 24 10 05;
    fee=yes; internet_access=no; name=Mariefreds camping; phone=+46
    159 135 30; power_supply=yes; sanitary_dump_station=yes;
    tents=yes; toilets=yes; tourism=caravan_site;
    website=http://www.mariefredscamping.se/;
    id=way/365394332</desc>
    <link href="http://www.mariefredscamping.se/"></link>
  </wpt>
  <wpt lat="60.331130200000004" lon="13.01077144464176">
    <ele>134.0</ele>
    <name>Knuts Camping</name>
    <desc>fee=yes; name=Knuts Camping; power_supply=yes;
    tourism=caravan_site; id=way/368289730</desc>
  </wpt>
  <wpt lat="58.4613724" lon="14.253695355022288">
    <ele>105.0</ele>
    <name>Caravan Club Örlenbadet</name>
    <desc>access=yes; capacity=200;
    contact:email=cc-orlen@tibronet.se; contact:phone=+46 504
    22255; contact:website=http://caravanclub.se/; dog=yes;
    name=Caravan Club Örlenbadet; operator=Caravan Club of Sweden;
    power_supply:maxcurrent=10; source:info=caravanclub.se;
    tourism=caravan_site; wheelchair=yes; id=way/372168517</desc>
    <link href="http://caravanclub.se/"></link>
  </wpt>
  <wpt lat="60.2064008" lon="14.972429949560635">
    <ele>157.0</ele>
    <name>Oxriset</name>
    <desc>alt_name=Sågudden; name=Oxriset; operator=Bärke
    HusvagnsClub; tourism=caravan_site; id=way/377957314</desc>
  </wpt>
  <wpt lat="63.876543049999995" lon="20.017567390828503">
    <name>way/379469196</name>
    <desc>tourism=caravan_site; id=way/379469196</desc>
  </wpt>
  <wpt lat="66.15472525" lon="19.987575833320083">
    <name>way/396875146</name>
    <desc>tourism=caravan_site; id=way/396875146</desc>
  </wpt>
  <wpt lat="64.79374935" lon="16.79940739363037">
    <name>way/399622168</name>
    <desc>tourism=caravan_site; id=way/399622168</desc>
  </wpt>
  <wpt lat="59.3485235" lon="12.954301777060373">
    <ele>53.0</ele>
    <name>Borgviks hamncafé, camping och gästhamn</name>
    <desc>name=Borgviks hamncafé, camping och gästhamn;
    power_supply=yes; tents=yes; tourism=caravan_site;
    website=http://www.hamncafe.se/gasthamn-och-stallplatser/;
    id=way/430862858</desc>
    <link href="http://www.hamncafe.se/gasthamn-och-stallplatser/">
    </link>
  </wpt>
  <wpt lat="55.373645249999996" lon="13.134454076849222">
    <ele>0.0</ele>
    <name>Trelleborg Ställplats</name>
    <desc>charge=250 SEK; fee=yes; name=Trelleborg Ställplats;
    payment:online_payment=yes; power_supply=yes;
    sanitary_dump_station=yes; toilets=yes; tourism=caravan_site;
    water_point=yes;
    website=https://www.tallyweb.dk/stallplats-trelleborg/home;
    wheelchair=yes; id=way/434930990</desc>
    <link href="https://www.tallyweb.dk/stallplats-trelleborg/home">
    </link>
  </wpt>
  <wpt lat="57.12195815" lon="12.223722093837333">
    <ele>3.0</ele>
    <name>way/434937757</name>
    <desc>tourism=caravan_site; id=way/434937757</desc>
  </wpt>
  <wpt lat="58.70879255" lon="12.50533944006266">
    <ele>46.0</ele>
    <name>way/435970637</name>
    <desc>tourism=caravan_site; id=way/435970637</desc>
  </wpt>
  <wpt lat="58.59666915" lon="12.595279347296664">
    <ele>48.0</ele>
    <name>Dalbergså Camping och Gästhamn</name>
    <desc>addr:country=SE; addr:housenumber=7;
    addr:place=Dalbergså; addr:postcode=46065; camp_site=standard;
    caravans=yes; contact:phone=+46 52133009; fee=yes;
    internet_access=no; name=Dalbergså Camping och Gästhamn;
    phone=+46 521 33009; power_supply=yes; reservation=no;
    sanitary_dump_station=customers; tents=yes;
    tourism=caravan_site; website=https://dalbergsa.se/;
    wheelchair=yes; id=way/436480247</desc>
    <link href="https://dalbergsa.se/"></link>
  </wpt>
  <wpt lat="67.859525" lon="20.248143180693063">
    <name>Camp Ripan</name>
    <desc>name=Camp Ripan; tourism=caravan_site;
    id=way/437031130</desc>
  </wpt>
  <wpt lat="60.35275295" lon="18.44682193230334">
    <ele>15.0</ele>
    <name>Gräsöbadens familjecamping</name>
    <desc>fee=yes; name=Gräsöbadens familjecamping;
    power_supply=yes; sanitary_dump_station=yes;
    tourism=caravan_site; website=http://grasobadenscamping.se/;
    id=way/437216806</desc>
    <link href="http://grasobadenscamping.se/"></link>
  </wpt>
  <wpt lat="58.671463" lon="13.582079699999996">
    <ele>51.0</ele>
    <name>way/438544346</name>
    <desc>tourism=caravan_site; id=way/438544346</desc>
  </wpt>