<?xml version="1.0" encoding="utf-8"?>
<gpx xmlns="http://www.topografix.com/GPX/1/1"
xmlns:xsi="http://www.w3.org/2001/XMLSchema-instance"
xsi:schemaLocation="http://www.topografix.com/GPX/1/1 http://www.topografix.com/GPX/1/1/gpx.xsd"
version="1.1" creator="togpx">
  <metadata>
    <copyright>
      <license>"osm3s": { "timestamp_osm_base":
      "2025-06-01T08:56:09Z", "timestamp_areas_base":
      "2025-05-20T05:45:31Z", "copyright": "The data included in
      this document is from www.openstreetmap.org. The data is made
      available under ODbL." } // SRTM: { Elevation data missing in
      OSM was added by the NASA Shuttle Radar Topography Mission as
      public release version, if available there. } // { Check for
      latest version of this file on:
      https://github.com/GpxFeed/campgrounds }</license>
    </copyright>
  </metadata>
  <wpt lat="42.5717423" lon="1.4844931">
    <ele>1479</ele>
    <name>Supermercat Saint Moritz</name>
    <desc>addr:city=Arinsal; addr:housenumber=16;
    addr:street=Carretera d'Arinsal; name=Supermercat Saint Moritz;
    shop=supermarket; id=node/521143390</desc>
  </wpt>
  <wpt lat="42.5713942" lon="1.4859614">
    <ele>1468</ele>
    <name>Supermercat Moles</name>
    <desc>name=Supermercat Moles; name:ca=Supermercat Moles;
    opening_hours=Mo-Su 09:00-21:00; shop=supermarket;
    id=node/521144650</desc>
  </wpt>
  <wpt lat="42.54353" lon="1.7326553">
    <ele>2095</ele>
    <name>Maxi Mercat</name>
    <desc>addr:city=Pas de la Casa; addr:housenumber=25;
    addr:postcode=AD200; addr:street=Avinguda del Consell General;
    name=Maxi Mercat; phone=+376 855 338; shop=supermarket;
    website=https://www.hiperpas.com/; wheelchair=yes;
    id=node/690708590</desc>
    <link href="https://www.hiperpas.com/"></link>
  </wpt>
  <wpt lat="42.543212" lon="1.7354792">
    <ele>2093</ele>
    <name>Hiper Pas IV</name>
    <desc>name=Hiper Pas IV; opening_hours=Mo-Sa 08:00-20:00, Su
    08:00-19:00; shop=supermarket; id=node/690708612</desc>
  </wpt>
  <wpt lat="42.5425697" lon="1.7347874">
    <ele>2094</ele>
    <name>Pic Mari</name>
    <desc>name=Pic Mari; shop=supermarket; id=node/690708663</desc>
  </wpt>
  <wpt lat="42.5416228" lon="1.7321279">
    <ele>2134</ele>
    <name>Spar</name>
    <desc>addr:city=Pas de la Casa; brand=Spar;
    brand:wikidata=Q610492; name=Spar; shop=supermarket;
    id=node/690734633</desc>
  </wpt>
  <wpt lat="42.5465247" lon="1.513732">
    <ele>1247</ele>
    <name>Garralla</name>
    <desc>name=Garralla; shop=supermarket;
    id=node/1499266441</desc>
  </wpt>
  <wpt lat="42.5801855" lon="1.6514365">
    <ele>1726</ele>
    <name>el mercat</name>
    <desc>addr:city=El Tarter; addr:postcode=AD100;
    addr:street=Edifici Avet, Urbanització Sant Pere del Tarter;
    name=el mercat; opening_hours=Mo-Sa 08:00-22:00, Su
    08:00-21:00; payment:cash=yes; payment:credit_cards=yes;
    phone=+376 720 358; shop=supermarket; id=node/1568150507</desc>
  </wpt>
  <wpt lat="42.5087003" lon="1.5347141">
    <ele>1024</ele>
    <name>Caprabo</name>
    <desc>addr:housenumber=70; addr:street=Avinguda Carlemany;
    brand=Caprabo; brand:wikidata=Q1980781;
    brand:wikipedia=en:Caprabo; email=clients@cca.ad; name=Caprabo;
    name:ca=Caprabo; name:es=Caprabo; opening_hours=Mo-Sa
    10:00-21:00, Su 10:00-19:00; phone=+376 870 310;
    shop=supermarket; website=https://www.caprabo.com/;
    id=node/1579330426</desc>
    <link href="https://www.caprabo.com/"></link>
  </wpt>
  <wpt lat="42.547324" lon="1.5144977">
    <ele>1241</ele>
    <name>Carrefour</name>
    <desc>branch=City; brand=Carrefour; brand:wikidata=Q217599;
    brand:wikipedia=fr:Carrefour (enseigne); name=Carrefour;
    name:ca=Carrefour; shop=supermarket; id=node/1803703337</desc>
  </wpt>
  <wpt lat="42.5079632" lon="1.5304282">
    <ele>1027</ele>
    <name>Super U</name>
    <desc>addr:city=Andorra la Vella; addr:housenumber=92;
    addr:street=Avinguda Meritxell; email=clients@cca.ad;
    name=Super U; name:ca=Super U; opening_hours=Mo-Sa 09:30-21:00,
    Su 09:00-20:00; phone=+376 870 310; shop=supermarket;
    id=node/2411239913</desc>
  </wpt>
  <wpt lat="42.4655197" lon="1.4913109">
    <ele>906</ele>
    <name>Dia</name>
    <desc>addr:city=Sant Julià de Lòria; brand=Dia;
    brand:wikidata=Q925132; brand:wikipedia=es:Supermercados DIA;
    name=Dia; name:ca=Dia; opening_hours=09:00-21:00;
    shop=supermarket; wheelchair=yes; id=node/3459407907</desc>
  </wpt>
  <wpt lat="42.5661311" lon="1.598642">
    <ele>1545</ele>
    <name>Carrefour City</name>
    <desc>addr:city=Canillo; brand=Caprabo;
    brand:wikidata=Q1980781; brand:wikipedia=en:Caprabo; level=0;
    name=Carrefour City; name:ca=Carrefour City;
    opening_hours=Mo-Sa 09:00-21:00, Su 09:00-15:00, PH closed, Su
    16:30-20:00; shop=supermarket; wheelchair=yes;
    id=node/3928793749</desc>
  </wpt>
  <wpt lat="42.546397" lon="1.5218296">
    <ele>1237</ele>
    <name>Andora</name>
    <desc>name=Andora; shop=supermarket; id=node/4359859793</desc>
  </wpt>
  <wpt lat="42.5062496" lon="1.5293281">
    <ele>1025</ele>
    <name>BonÀrea</name>
    <desc>addr:city=Andorra la Vella; addr:postcode=AD500;
    branch=(Andorra); brand=BonÀrea; brand:wikidata=Q11924743;
    name=BonÀrea; operator=Grup Alimentari Guissona;
    shop=supermarket; id=node/4511962338</desc>
  </wpt>
  <wpt lat="42.4960731" lon="1.4995659">
    <ele>984</ele>
    <name>Express</name>
    <desc>addr:city=Santa Coloma; name=Express; shop=supermarket;
    id=node/4874439753</desc>
  </wpt>
  <wpt lat="42.5050486" lon="1.5147417">
    <ele>1063</ele>
    <name>Eco Supermacats</name>
    <desc>name=Eco Supermacats; opening_hours=Mo-Fr
    08:30-14:00,16:00-20:30, Sa 08:30-14:00,16:00-21:00, Su
    08:30-14:00,16:00-20:00; shop=supermarket;
    id=node/4874445625</desc>
  </wpt>
  <wpt lat="42.5057141" lon="1.5291971">
    <ele>1024</ele>
    <name>Andorra 2000</name>
    <desc>name=Andorra 2000; name:ca=Andorra 2000;
    shop=supermarket; id=node/4890701726</desc>
  </wpt>
  <wpt lat="42.5360825" lon="1.5821345">
    <ele>1271</ele>
    <name>node/4984739292</name>
    <desc>addr:street=Avinguda François Mitterrand;
    shop=supermarket; id=node/4984739292</desc>
  </wpt>
  <wpt lat="42.5434038" lon="1.5169972">
    <ele>1227</ele>
    <name>BonÀrea</name>
    <desc>addr:street=Avinguda Sant Antoni; brand=BonÀrea;
    brand:wikidata=Q11924743; name=BonÀrea; shop=supermarket;
    id=node/5288596525</desc>
  </wpt>
  <wpt lat="42.5424683" lon="1.7328958">
    <ele>2115</ele>
    <name>CENTRAL III</name>
    <desc>name=CENTRAL III; shop=supermarket;
    id=node/5325449420</desc>
  </wpt>
  <wpt lat="42.5430107" lon="1.733519">
    <ele>2098</ele>
    <name>PETIT PREU</name>
    <desc>name=PETIT PREU; shop=supermarket;
    id=node/5325452691</desc>
  </wpt>
  <wpt lat="42.542405" lon="1.7345185">
    <ele>2103</ele>
    <name>Caprabo</name>
    <desc>brand=Caprabo; brand:wikidata=Q1980781;
    brand:wikipedia=ca:Caprabo; name=Caprabo; name:ca=Caprabo;
    opening_hours=Mo-Fr 08:30-20:30, Su 08:30-14:00,16:30-20:00;
    shop=supermarket; id=node/5325452700</desc>
  </wpt>
  <wpt lat="42.5424386" lon="1.7346848">
    <ele>2103</ele>
    <name>RECORD III</name>
    <desc>name=RECORD III; shop=supermarket;
    id=node/5325452708</desc>
  </wpt>
  <wpt lat="42.5088743" lon="1.532163">
    <ele>1020</ele>
    <name>E. Leclerc</name>
    <desc>name=E. Leclerc; shop=supermarket;
    id=node/5899806609</desc>
  </wpt>
  <wpt lat="42.5376928" lon="1.5865377">
    <ele>1297</ele>
    <name>Comerç les Bons</name>
    <desc>name=Comerç les Bons; shop=supermarket;
    id=node/6306288007</desc>
  </wpt>
  <wpt lat="42.5360336" lon="1.5820588">
    <ele>1271</ele>
    <name>ECO</name>
    <desc>addr:housenumber=15; addr:street=Avinguda de François
    Mitterrand; name=ECO; shop=supermarket;
    id=node/6564773287</desc>
  </wpt>
  <wpt lat="42.5066868" lon="1.5234295">
    <ele>1035</ele>
    <name>Caprabo</name>
    <desc>brand=Caprabo; brand:wikidata=Q1980781; name=Caprabo;
    name:ca=Caprabo; name:en=Caprabo Fresh; opening_hours=Mo-Sa
    09:30-21:00, Su 09:00-20:00; shop=supermarket; wheelchair=yes;
    id=node/6570415785</desc>
  </wpt>
  <wpt lat="42.5421984" lon="1.7324737">
    <ele>2129</ele>
    <name>Fran per</name>
    <desc>name=Fran per; shop=supermarket;
    id=node/7282465469</desc>
  </wpt>
  <wpt lat="42.5422262" lon="1.7326016">
    <ele>2115</ele>
    <name>Hiper pas</name>
    <desc>name=Hiper pas; shop=supermarket;
    id=node/7282470378</desc>
  </wpt>
  <wpt lat="42.5423243" lon="1.7321299">
    <ele>2129</ele>
    <name>Hiper pas</name>
    <desc>name=Hiper pas; shop=supermarket;
    id=node/7282474834</desc>
  </wpt>
  <wpt lat="42.5091958" lon="1.5408665">
    <ele>1054</ele>
    <name>13-th street</name>
    <desc>name=13-th street; opening_hours=Mo-Fr 08:30-21:00, Sa
    09:00-21:00, Su 09:30-19:00; shop=supermarket;
    id=node/7296539985</desc>
  </wpt>
  <wpt lat="42.5417783" lon="1.7325436">
    <ele>2115</ele>
    <name>node/7296670777</name>
    <desc>shop=supermarket; id=node/7296670777</desc>
  </wpt>
  <wpt lat="42.5658493" lon="1.5979435">
    <ele>1544</ele>
    <name>Petit Mercat de Canillo</name>
    <desc>name=Petit Mercat de Canillo; opening_hours=Mo-Sa
    08:30-14:00, 16:45-20:00, Su 08:30-14:00; phone=+376 744 888;
    shop=supermarket; id=node/9042427850</desc>
  </wpt>
  <wpt lat="42.5462835" lon="1.5219234">
    <ele>1237</ele>
    <name>Caprabo</name>
    <desc>building=yes; name=Caprabo; name:ca=Compra Be;
    shop=supermarket; id=way/1051803196; ;
    id=node/10908149108</desc>
  </wpt>
  <wpt lat="42.556418" lon="1.5340339">
    <ele>1305</ele>
    <name>node/11071059014</name>
    <desc>shop=supermarket; id=node/11071059014</desc>
  </wpt>
  <wpt lat="42.45417455" lon="1.4865471785701179">
    <ele>884</ele>
    <name>River</name>
    <desc>building=yes; name=River; opening_hours=Su-Th
    09:00-20:00, Fr,Sa 09:00-21:00; shop=supermarket;
    id=way/176484662</desc>
  </wpt>
  <wpt lat="42.533038000000005" lon="1.5775584335946808">
    <ele>1245</ele>
    <name>Monoprix</name>
    <desc>brand=Monoprix; brand:wikidata=Q3321241;
    brand:wikipedia=en:Monoprix; building=yes; name=Monoprix;
    operator=Groupe Casino; shop=supermarket;
    id=way/183087884</desc>
  </wpt>
  <wpt lat="42.57924665" lon="1.6419994682297765">
    <ele>1673</ele>
    <name>Caves Manacor</name>
    <desc>building=yes; name=Caves Manacor; name:ca=Caves Manacor;
    shop=supermarket; id=way/365957881</desc>
  </wpt>
  <trk>
    <name>River</name>
    <trkseg>
      <trkpt lat="42.4549812" lon="1.4862279"></trkpt>
      <trkpt lat="42.4544187" lon="1.486175"></trkpt>
      <trkpt lat="42.4538224" lon="1.4864961"></trkpt>
      <trkpt lat="42.4538905" lon="1.4867118"></trkpt>
      <trkpt lat="42.4539304" lon="1.4868381"></trkpt>
      <trkpt lat="42.4546675" lon="1.4866865"></trkpt>
      <trkpt lat="42.4549812" lon="1.4862279"></trkpt>
    </trkseg>
  </trk>
  <trk>
    <name>Monoprix</name>
    <trkseg>
      <trkpt lat="42.5331566" lon="1.5776593"></trkpt>
      <trkpt lat="42.5331428" lon="1.5774769"></trkpt>
      <trkpt lat="42.5331052" lon="1.5774071"></trkpt>
      <trkpt lat="42.5329313" lon="1.5774447"></trkpt>
      <trkpt lat="42.5329708" lon="1.5777156"></trkpt>
      <trkpt lat="42.5331566" lon="1.5776593"></trkpt>
    </trkseg>
  </trk>
  <trk>
    <name>Caves Manacor</name>
    <trkseg>
      <trkpt lat="42.5791256" lon="1.6416858"></trkpt>
      <trkpt lat="42.5791285" lon="1.64197"></trkpt>
      <trkpt lat="42.5790703" lon="1.6420544"></trkpt>
      <trkpt lat="42.5791725" lon="1.6423119"></trkpt>
      <trkpt lat="42.5793216" lon="1.642319"></trkpt>
      <trkpt lat="42.5793208" lon="1.6416821"></trkpt>
      <trkpt lat="42.5791256" lon="1.6416858"></trkpt>
    </trkseg>
  </trk>
  <trk>
    <name>Caprabo</name>
    <trkseg>
      <trkpt lat="42.546382" lon="1.5218119"></trkpt>
      <trkpt lat="42.5462034" lon="1.5218213"></trkpt>
      <trkpt lat="42.5462057" lon="1.5219011"></trkpt>
      <trkpt lat="42.5461632" lon="1.5219034"></trkpt>
      <trkpt lat="42.5461602" lon="1.5217982"></trkpt>
      <trkpt lat="42.5461212" lon="1.5218003"></trkpt>
      <trkpt lat="42.5461266" lon="1.5219858"></trkpt>
      <trkpt lat="42.546162" lon="1.5219839"></trkpt>
      <trkpt lat="42.5461656" lon="1.5221111"></trkpt>
      <trkpt lat="42.5463344" lon="1.5221022"></trkpt>
      <trkpt lat="42.5463316" lon="1.5220061"></trkpt>
      <trkpt lat="42.5463875" lon="1.5220031"></trkpt>
      <trkpt lat="42.546382" lon="1.5218119"></trkpt>
    </trkseg>
  </trk>
</gpx>
