<?xml version="1.0" encoding="utf-8"?>
<gpx xmlns="http://www.topografix.com/GPX/1/1"
xmlns:xsi="http://www.w3.org/2001/XMLSchema-instance"
xsi:schemaLocation="http://www.topografix.com/GPX/1/1 http://www.topografix.com/GPX/1/1/gpx.xsd"
version="1.1" creator="togpx">
  <metadata>
    <copyright>
      <license>"osm3s": { "timestamp_osm_base":
      "2021-01-25T23:19:02Z", "timestamp_areas_base":
      "2021-01-25T22:30:02Z", "copyright": "The data included in
      this document is from www.openstreetmap.org. The data is made
      available under ODbL." } // SRTM: { Elevation data missing in
      OSM was added by the NASA Shuttle Radar Topography Mission as
      public release version, if available there. }</license>
    </copyright>
  </metadata>
  <wpt lat="42.5717423" lon="1.4844931">
    <ele>1479</ele>
    <name>Supermercat Saint Moritz</name>
    <desc>addr:city=Arinsal; addr:housenumber=16;
    addr:street=Carretera d'Arinsal; name=Supermercat Saint Moritz;
    shop=supermarket; id=node/521143390</desc>
  </wpt>
  <wpt lat="42.5713942" lon="1.4859614">
    <ele>1468</ele>
    <name>node/521144650</name>
    <desc>shop=supermarket; id=node/521144650</desc>
  </wpt>
  <wpt lat="42.5435488" lon="1.7327237">
    <ele>2095</ele>
    <name>Maxi Mercat</name>
    <desc>addr:city=Pas de la Casa; addr:housenumber=25;
    addr:postcode=AD200; addr:street=Avinguda del Consell General;
    name=Maxi Mercat; phone=+376 855338; shop=supermarket;
    website=https://www.hiperpas.com/; wheelchair=yes;
    id=node/690708590</desc>
  </wpt>
  <wpt lat="42.543212" lon="1.7354792">
    <ele>2093</ele>
    <name>Hiper Pas IV</name>
    <desc>name=Hiper Pas IV; shop=supermarket;
    id=node/690708612</desc>
  </wpt>
  <wpt lat="42.5425697" lon="1.7347874">
    <ele>2094</ele>
    <name>Pic Mari</name>
    <desc>name=Pic Mari; shop=supermarket; id=node/690708663</desc>
  </wpt>
  <wpt lat="42.5416228" lon="1.7321279">
    <ele>2134</ele>
    <name>Spar</name>
    <desc>addr:city=Pas de la Casa; brand=Spar;
    brand:wikidata=Q610492; brand:wikipedia=en:Spar (retailer);
    name=Spar; shop=supermarket; id=node/690734633</desc>
  </wpt>
  <wpt lat="42.5465247" lon="1.513732">
    <ele>1247</ele>
    <name>Garralla</name>
    <desc>name=Garralla; shop=supermarket;
    id=node/1499266441</desc>
  </wpt>
  <wpt lat="42.579615" lon="1.6522387">
    <ele>1717</ele>
    <name>node/1568150507</name>
    <desc>shop=supermarket; id=node/1568150507</desc>
  </wpt>
  <wpt lat="42.5087003" lon="1.5347141">
    <ele>1024</ele>
    <name>Caprabo</name>
    <desc>addr:housenumber=70; addr:street=Avinguda Carlemany;
    brand=Caprabo; brand:wikidata=Q1980781;
    brand:wikipedia=en:Caprabo; email=clients@cca.ad; name=Caprabo;
    name:ca=Caprabo; name:es=Caprabo; opening_hours=Mo-Sa
    10:00-21:00, Su 10:00-19:00; phone=+376 870 310;
    shop=supermarket; website=https://www.caprabo.com/;
    id=node/1579330426</desc>
  </wpt>
  <wpt lat="42.547324" lon="1.5144977">
    <ele>1241</ele>
    <name>Caprabo</name>
    <desc>brand=Caprabo; brand:wikidata=Q1980781;
    brand:wikipedia=en:Caprabo; name=Caprabo; shop=supermarket;
    id=node/1803703337</desc>
  </wpt>
  <wpt lat="42.5079632" lon="1.5304282">
    <ele>1027</ele>
    <name>Super U</name>
    <desc>addr:city=Andorra la Vella; addr:housenumber=92;
    addr:street=Avinguda Meritxell; email=clients@cca.ad;
    name=Super U; opening_hours=Mo-Sa 09:30-21:00, Su 09:00-20:00;
    phone=+376 870 310; shop=supermarket; id=node/2411239913</desc>
  </wpt>
  <wpt lat="42.4655197" lon="1.4913109">
    <ele>906</ele>
    <name>Dia</name>
    <desc>addr:city=Sant Julià de Lòria; brand=Dia;
    brand:wikidata=Q925132; brand:wikipedia=es:Supermercados DIA;
    name=Dia; opening_hours=09:00-21:00; shop=supermarket;
    wheelchair=yes; id=node/3459407907</desc>
  </wpt>
  <wpt lat="42.5661311" lon="1.598642">
    <ele>1545</ele>
    <name>Caprabo</name>
    <desc>addr:city=Canillo; brand=Caprabo;
    brand:wikidata=Q1980781; brand:wikipedia=en:Caprabo;
    name=Caprabo; shop=supermarket; id=node/3928793749</desc>
  </wpt>
  <wpt lat="42.5424832" lon="1.5999844">
    <ele>1800</ele>
    <name>Avenida Doctor Mitjavila, 3-</name>
    <desc>addr:street=Andora LA valla; name=Avenida Doctor
    Mitjavila, 3-; shop=supermarket; tourism=hotel;
    id=node/4149383503</desc>
  </wpt>
  <wpt lat="42.546397" lon="1.5218296">
    <ele>1237</ele>
    <name>Andora</name>
    <desc>name=Andora; shop=supermarket; id=node/4359859793</desc>
  </wpt>
  <wpt lat="42.5062496" lon="1.5293281">
    <ele>1025</ele>
    <name>bonÀrea (Andorra)</name>
    <desc>addr:city=Andorra la Vella; addr:postcode=AD500;
    name=bonÀrea (Andorra); operator=Grup Alimentari Guissona;
    shop=supermarket; id=node/4511962338</desc>
  </wpt>
  <wpt lat="42.4960731" lon="1.4995659">
    <ele>984</ele>
    <name>Express</name>
    <desc>addr:city=Santa Coloma; name=Express; shop=supermarket;
    id=node/4874439753</desc>
  </wpt>
  <wpt lat="42.5050486" lon="1.5147417">
    <ele>1063</ele>
    <name>Eco Supermacats</name>
    <desc>name=Eco Supermacats; shop=supermarket;
    id=node/4874445625</desc>
  </wpt>
  <wpt lat="42.5057141" lon="1.5291971">
    <ele>1024</ele>
    <name>Andorra 2000</name>
    <desc>name=Andorra 2000; name:ca=Andorra 2000;
    shop=supermarket; id=node/4890701726</desc>
  </wpt>
  <wpt lat="42.5360646" lon="1.5821578">
    <ele>1271</ele>
    <name>node/4984739292</name>
    <desc>addr:street=Avinguda François Mitterrand;
    shop=supermarket; id=node/4984739292</desc>
  </wpt>
  <wpt lat="42.5434038" lon="1.5169972">
    <ele>1227</ele>
    <name>BonArea</name>
    <desc>addr:street=Avinguda Sant Antoni; name=BonArea;
    shop=supermarket; id=node/5288596525</desc>
  </wpt>
  <wpt lat="42.5424683" lon="1.7328958">
    <ele>2115</ele>
    <name>CENTRAL III</name>
    <desc>name=CENTRAL III; shop=supermarket;
    id=node/5325449420</desc>
  </wpt>
  <wpt lat="42.5430107" lon="1.733519">
    <ele>2098</ele>
    <name>PETIT PREU</name>
    <desc>name=PETIT PREU; shop=supermarket;
    id=node/5325452691</desc>
  </wpt>
  <wpt lat="42.542405" lon="1.7345185">
    <ele>2103</ele>
    <name>Caprabo</name>
    <desc>brand=Caprabo; brand:wikidata=Q1980781;
    brand:wikipedia=ca:Caprabo; name=Caprabo; opening_hours=Mo-Fr
    08:30-20:30, Su 08:30-14:00, Su 16:30-20:00; shop=supermarket;
    id=node/5325452700</desc>
  </wpt>
  <wpt lat="42.5424386" lon="1.7346848">
    <ele>2103</ele>
    <name>RECORD III</name>
    <desc>name=RECORD III; shop=supermarket;
    id=node/5325452708</desc>
  </wpt>
  <wpt lat="42.5018323" lon="1.5154038">
    <ele>1000</ele>
    <name>node/5845961487</name>
    <desc>shop=supermarket; id=node/5845961487</desc>
  </wpt>
  <wpt lat="42.5088743" lon="1.532163">
    <ele>1020</ele>
    <name>E. Leclerc</name>
    <desc>name=E. Leclerc; shop=supermarket;
    id=node/5899806609</desc>
  </wpt>
  <wpt lat="42.5376928" lon="1.5865377">
    <ele>1297</ele>
    <name>Comerç les Bons</name>
    <desc>name=Comerç les Bons; shop=supermarket;
    id=node/6306288007</desc>
  </wpt>
  <wpt lat="42.5360115" lon="1.5820846">
    <ele>1271</ele>
    <name>ECO</name>
    <desc>addr:housenumber=15; addr:street=Avinguda de François
    Mitterrand; name=ECO; shop=supermarket;
    id=node/6564773287</desc>
  </wpt>
  <wpt lat="42.5066868" lon="1.5234295">
    <ele>1035</ele>
    <name>node/6570415785</name>
    <desc>name:en=Caprabo Fresh; opening_hours=Mo-Sa 09:30-21:00,
    Su 09:00-20:00; shop=supermarket; id=node/6570415785</desc>
  </wpt>
  <wpt lat="42.5421984" lon="1.7324737">
    <ele>2129</ele>
    <name>Fran per</name>
    <desc>name=Fran per; shop=supermarket;
    id=node/7282465469</desc>
  </wpt>
  <wpt lat="42.5422262" lon="1.7326016">
    <ele>2115</ele>
    <name>Hiper pas</name>
    <desc>name=Hiper pas; shop=supermarket;
    id=node/7282470378</desc>
  </wpt>
  <wpt lat="42.5423243" lon="1.7321299">
    <ele>2129</ele>
    <name>Hiper pas</name>
    <desc>name=Hiper pas; shop=supermarket;
    id=node/7282474834</desc>
  </wpt>
  <wpt lat="42.5091958" lon="1.5408665">
    <ele>1054</ele>
    <name>13-th street</name>
    <desc>name=13-th street; opening_hours=Mo-Fr 08:30-21:00, Sa
    09:00-21:00, Su 09:30-19:00; shop=supermarket;
    id=node/7296539985</desc>
  </wpt>
  <wpt lat="42.5417783" lon="1.7325436">
    <ele>2115</ele>
    <name>node/7296670777</name>
    <desc>shop=supermarket; id=node/7296670777</desc>
  </wpt>
  <wpt lat="42.454234400000004" lon="1.486593738936166">
    <ele>884</ele>
    <name>River</name>
    <desc>building=yes; name=River; shop=supermarket;
    id=way/176484662</desc>
  </wpt>
  <wpt lat="42.533038000000005" lon="1.5775584335946808">
    <ele>1245</ele>
    <name>Monoprix</name>
    <desc>brand=Monoprix; brand:wikidata=Q3321241;
    brand:wikipedia=fr:Monoprix (France); name=Monoprix;
    operator=Groupe Casino; shop=supermarket;
    id=way/183087884</desc>
  </wpt>
  <wpt lat="42.447377599999996" lon="1.4815074113389126">
    <ele>872</ele>
    <name>E. Leclerc - Punt de Trobada</name>
    <desc>building=retail; name=E. Leclerc - Punt de Trobada;
    operator=E. Leclerc; shop=supermarket; id=way/194556039</desc>
  </wpt>
  <wpt lat="42.54626825" lon="1.5219786521980256">
    <ele>1237</ele>
    <name>Dia</name>
    <desc>brand=Dia; brand:wikidata=Q925132;
    brand:wikipedia=es:Supermercados DIA; building=yes; name=Dia;
    shop=supermarket; id=way/293180465</desc>
  </wpt>
  <wpt lat="42.57924665" lon="1.6419994682297765">
    <ele>1673</ele>
    <name>Caves Manacor</name>
    <desc>building=yes; name=Caves Manacor; shop=supermarket;
    id=way/365957881</desc>
  </wpt>
  <trk>
    <name>River</name>
    <trkseg>
      <trkpt lat="42.4549792" lon="1.4862708"></trkpt>
      <trkpt lat="42.4544672" lon="1.486234"></trkpt>
      <trkpt lat="42.4539303" lon="1.4865605"></trkpt>
      <trkpt lat="42.4540016" lon="1.4868341"></trkpt>
      <trkpt lat="42.4547338" lon="1.4867643"></trkpt>
      <trkpt lat="42.4549792" lon="1.4862708"></trkpt>
    </trkseg>
  </trk>
  <trk>
    <name>Monoprix</name>
    <trkseg>
      <trkpt lat="42.5331566" lon="1.5776593"></trkpt>
      <trkpt lat="42.5331428" lon="1.5774769"></trkpt>
      <trkpt lat="42.5331052" lon="1.5774071"></trkpt>
      <trkpt lat="42.5329313" lon="1.5774447"></trkpt>
      <trkpt lat="42.5329708" lon="1.5777156"></trkpt>
      <trkpt lat="42.5331566" lon="1.5776593"></trkpt>
    </trkseg>
  </trk>
  <trk>
    <name>E. Leclerc - Punt de Trobada</name>
    <trkseg>
      <trkpt lat="42.448003" lon="1.4815876"></trkpt>
      <trkpt lat="42.4477776" lon="1.4812175"></trkpt>
      <trkpt lat="42.4475451" lon="1.4811236"></trkpt>
      <trkpt lat="42.44743" lon="1.4811237"></trkpt>
      <trkpt lat="42.4473252" lon="1.4811561"></trkpt>
      <trkpt lat="42.4472432" lon="1.481196"></trkpt>
      <trkpt lat="42.4469107" lon="1.4814267"></trkpt>
      <trkpt lat="42.4468236" lon="1.4815447"></trkpt>
      <trkpt lat="42.4468125" lon="1.4817337"></trkpt>
      <trkpt lat="42.4468046" lon="1.4818813"></trkpt>
      <trkpt lat="42.4479996" lon="1.481868"></trkpt>
      <trkpt lat="42.4480001" lon="1.4817937"></trkpt>
      <trkpt lat="42.448003" lon="1.4815876"></trkpt>
    </trkseg>
  </trk>
  <trk>
    <name>Dia</name>
    <trkseg>
      <trkpt lat="42.5464097" lon="1.5220703"></trkpt>
      <trkpt lat="42.5463993" lon="1.5218621"></trkpt>
      <trkpt lat="42.5461269" lon="1.521887"></trkpt>
      <trkpt lat="42.5461372" lon="1.5220952"></trkpt>
      <trkpt lat="42.5464097" lon="1.5220703"></trkpt>
    </trkseg>
  </trk>
  <trk>
    <name>Caves Manacor</name>
    <trkseg>
      <trkpt lat="42.5791256" lon="1.6416858"></trkpt>
      <trkpt lat="42.5791285" lon="1.64197"></trkpt>
      <trkpt lat="42.5790703" lon="1.6420544"></trkpt>
      <trkpt lat="42.5791725" lon="1.6423119"></trkpt>
      <trkpt lat="42.5793216" lon="1.642319"></trkpt>
      <trkpt lat="42.5793208" lon="1.6416821"></trkpt>
      <trkpt lat="42.5791256" lon="1.6416858"></trkpt>
    </trkseg>
  </trk>
</gpx>
