<?xml version="1.0" encoding="utf-8"?>
<gpx xmlns="http://www.topografix.com/GPX/1/1"
xmlns:xsi="http://www.w3.org/2001/XMLSchema-instance"
xsi:schemaLocation="http://www.topografix.com/GPX/1/1 http://www.topografix.com/GPX/1/1/gpx.xsd"
version="1.1" creator="togpx">
  <metadata>
    <copyright>
      <license>"osm3s": { "timestamp_osm_base":
      "2021-06-26T15:48:43Z", "timestamp_areas_base":
      "2021-06-26T15:07:18Z", "copyright": "The data included in
      this document is from www.openstreetmap.org. The data is made
      available under ODbL." } // SRTM: { Elevation data missing in
      OSM was added by the NASA Shuttle Radar Topography Mission as
      public release version, if available there. } // { Check for
      latest version of this file on:
      https://github.com/GpxFeed/campgrounds }</license>
    </copyright>
  </metadata>
  <wpt lat="59.4260566" lon="27.5140794">
    <ele>31</ele>
    <name>Männisalu kämping</name>
    <desc>name=Männisalu kämping; tourism=caravan_site</desc>
  </wpt>
  <wpt lat="59.4751734" lon="25.5415894">
    <ele>36</ele>
    <name>Hiie talu puhkeküla</name>
    <desc>name=Hiie talu puhkeküla; name:lv=Lauku sēta un brīvdienu
    ciemats “Hiie”; tourism=caravan_site</desc>
  </wpt>
  <wpt lat="59.3914137" lon="28.105979">
    <ele>33</ele>
    <name>node/1305956945</name>
    <desc>tourism=caravan_site</desc>
  </wpt>
  <wpt lat="58.9720773" lon="25.7751826">
    <ele>83</ele>
    <name>Esna karavan</name>
    <desc>name=Esna karavan; power_supply=yes; tents=yes;
    tourism=caravan_site</desc>
  </wpt>
  <wpt lat="58.3378678" lon="25.5886798">
    <ele>47</ele>
    <name>Sammuli</name>
    <desc>addr:city=Viljandi; addr:country=EE; addr:postcode=70109;
    name=Sammuli; phone=+3725044298; tourism=caravan_site;
    website=http://www.sammuli.ee</desc>
  </wpt>
  <wpt lat="59.3368596" lon="24.5844211">
    <ele>33</ele>
    <name>Saunapunkt</name>
    <desc>name=Saunapunkt; source=http://www.saunapunkt.ee/;
    tourism=caravan_site</desc>
  </wpt>
  <wpt lat="59.6005334" lon="26.1001968">
    <ele>10</ele>
    <name>node/2155598228</name>
    <desc>tourism=caravan_site</desc>
  </wpt>
  <wpt lat="58.3857354" lon="26.1317638">
    <ele>36</ele>
    <name>node/3587530736</name>
    <desc>tourism=caravan_site</desc>
  </wpt>
  <wpt lat="58.3849984" lon="24.5260241">
    <ele>6</ele>
    <name>Konse karavankämping</name>
    <desc>addr:city=Pärnu; addr:housenumber=44a;
    addr:postcode=80021; addr:street=Suur-Jõe; capacity=100;
    internet_access=wlan; name=Konse karavankämping; name:en=Konse
    Caravan; power_supply=yes; sanitary_dump_station=yes;
    tourism=caravan_site;
    website=https://www.konse.ee/en/caravans-camping/</desc>
  </wpt>
  <wpt lat="58.4082991" lon="26.0508964">
    <ele>37</ele>
    <name>Vaibla Puhkeskeskus</name>
    <desc>addr:street=Vaibla tee; email=info@vaiblapukekeskus.ee;
    name=Vaibla Puhkeskeskus; tourism=caravan_site;
    website=http://www.vaiblapukekeskus.ee</desc>
  </wpt>
  <wpt lat="59.3936866" lon="27.7933364">
    <ele>23</ele>
    <name>Дом Ира Антонова, квартира 4.</name>
    <desc>name=Дом Ира Антонова, квартира 4.;
    tourism=caravan_site</desc>
  </wpt>
  <wpt lat="59.3302385" lon="24.5398861">
    <ele>32</ele>
    <name>Vanamõisa karavanipark</name>
    <desc>addr:city=Vanamõisa küla; addr:housenumber=18;
    addr:postcode=76407; addr:street=Vabaõhukeskuse tee;
    capacity=100; email=info@caravanpark.ee; fee=yes;
    internet_access=wlan; name=Vanamõisa karavanipark;
    name:en=Vanamõisa Caravan Park; name:et=Vanamõisa karavanipark;
    phone=+372 58666696; sanitary_dump_station=yes; shower=yes;
    tents=yes; toilets=yes; tourism=caravan_site; water_point=yes;
    website=https://caravanpark.ee/</desc>
  </wpt>
  <wpt lat="58.3689769" lon="26.7446657">
    <ele>36</ele>
    <name>node/4992208524</name>
    <desc>tourism=caravan_site</desc>
  </wpt>
  <wpt lat="58.3552251" lon="24.0025574">
    <ele>22</ele>
    <name>Ermistu Puhkeküla</name>
    <desc>addr:city=Ermistu küla; addr:postcode=88105; cabins=yes;
    capacity=20; caravans=yes; email=info@ermistu.ee; fee=yes;
    internet_access=wlan; name=Ermistu Puhkeküla; operator=Tekamer
    OÜ; payment:cash=yes; payment:credit_cards=yes;
    phone=+37256297627; sanitary_dump_station=yes; shower=yes;
    tents=yes; tourism=caravan_site;
    website=https://www.ermistu.ee</desc>
  </wpt>
  <wpt lat="59.2483072" lon="23.7460405">
    <ele>8</ele>
    <name>Keibu I</name>
    <desc>name=Keibu I; power_supply=no; sanitary_dump_station=no;
    tents=yes; tourism=caravan_site</desc>
  </wpt>
  <wpt lat="58.5962445" lon="23.0848224">
    <ele>15</ele>
    <name>node/6710940185</name>
    <desc>tourism=caravan_site</desc>
  </wpt>
  <wpt lat="58.9963381" lon="27.2740357">
    <ele>43</ele>
    <name>node/7726335286</name>
    <desc>tourism=caravan_site</desc>
  </wpt>
  <wpt lat="57.972552300000004" lon="26.41285793227307">
    <ele>107</ele>
    <name>way/684989066</name>
    <desc>tourism=caravan_site</desc>
  </wpt>
  <wpt lat="59.394650150000004" lon="27.96782341825698">
    <ele>45</ele>
    <name>way/712031047</name>
    <desc>tourism=caravan_site</desc>
  </wpt>
  <wpt lat="57.99087515" lon="24.416558893434065">
    <ele>0</ele>
    <name>way/724693831</name>
    <desc>caravans=yes; tourism=caravan_site</desc>
  </wpt>
  <trk>
    <name>way/684989066</name>
    <trkseg>
      <trkpt lat="57.9726674" lon="26.4129197"></trkpt>
      <trkpt lat="57.9723986" lon="26.412439"></trkpt>
      <trkpt lat="57.9722502" lon="26.4127056"></trkpt>
      <trkpt lat="57.9724372" lon="26.4130843"></trkpt>
      <trkpt lat="57.9726674" lon="26.4129197"></trkpt>
    </trkseg>
  </trk>
  <trk>
    <name>way/712031047</name>
    <trkseg>
      <trkpt lat="59.3945139" lon="27.9678404"></trkpt>
      <trkpt lat="59.3947246" lon="27.9680572"></trkpt>
      <trkpt lat="59.3947664" lon="27.9677703"></trkpt>
      <trkpt lat="59.3945757" lon="27.9675996"></trkpt>
      <trkpt lat="59.3945139" lon="27.9678404"></trkpt>
    </trkseg>
  </trk>
  <trk>
    <name>way/724693831</name>
    <trkseg>
      <trkpt lat="57.9907624" lon="24.41672"></trkpt>
      <trkpt lat="57.9908212" lon="24.4167546"></trkpt>
      <trkpt lat="57.9908388" lon="24.416681"></trkpt>
      <trkpt lat="57.9909115" lon="24.4166349"></trkpt>
      <trkpt lat="57.9909704" lon="24.4166853"></trkpt>
      <trkpt lat="57.9909833" lon="24.416632"></trkpt>
      <trkpt lat="57.9909986" lon="24.4165685"></trkpt>
      <trkpt lat="57.9908166" lon="24.4164083"></trkpt>
      <trkpt lat="57.9907624" lon="24.41672"></trkpt>
    </trkseg>
  </trk>
</gpx>
