<?xml version="1.0" encoding="utf-8"?>
<gpx xmlns="http://www.topografix.com/GPX/1/1"
xmlns:xsi="http://www.w3.org/2001/XMLSchema-instance"
xsi:schemaLocation="http://www.topografix.com/GPX/1/1 http://www.topografix.com/GPX/1/1/gpx.xsd"
version="1.1" creator="togpx">
  <metadata>
    <copyright>
      <license>"osm3s": { "timestamp_osm_base":
      "2020-10-26T12:13:03Z", "timestamp_areas_base":
      "2020-10-26T11:40:02Z", "copyright": "The data included in
      this document is from www.openstreetmap.org. The data is made
      available under ODbL." } // SRTM: { Elevation data missing in
      OSM was added by the NASA Shuttle Radar Topography Mission as
      public release version, if available there. }</license>
    </copyright>
  </metadata>
  <wpt lat="59.4260566" lon="27.5140794">
    <name>Männisalu kämping</name>
    <desc>ele=31m name=Männisalu kämping tourism=caravan_site
    id=node/735966892</desc>
  </wpt>
  <wpt lat="59.4751734" lon="25.5415894">
    <name>Hiie talu</name>
    <desc>ele=36m name=Hiie talu tourism=caravan_site
    id=node/1298341565</desc>
  </wpt>
  <wpt lat="59.3914137" lon="28.105979">
    <name>node/1305956945</name>
    <desc>ele=33m tourism=caravan_site id=node/1305956945</desc>
  </wpt>
  <wpt lat="58.9720773" lon="25.7751826">
    <name>Esna karavan</name>
    <desc>ele=83m name=Esna karavan power_supply=yes tents=yes
    tourism=caravan_site id=node/1644915471</desc>
  </wpt>
  <wpt lat="58.3378678" lon="25.5886798">
    <name>Sammuli</name>
    <desc>ele=47m addr:city=Viljandi addr:country=EE
    addr:postcode=70109 name=Sammuli phone=+3725044298
    tourism=caravan_site website=http://www.sammuli.ee
    id=node/1815886242</desc>
  </wpt>
  <wpt lat="59.3368596" lon="24.5844211">
    <name>Saunapunkt</name>
    <desc>ele=33m name=Saunapunkt source=http://www.saunapunkt.ee/
    tourism=caravan_site id=node/1835122794</desc>
  </wpt>
  <wpt lat="59.6005334" lon="26.1001968">
    <name>node/2155598228</name>
    <desc>ele=10m tourism=caravan_site id=node/2155598228</desc>
  </wpt>
  <wpt lat="58.3857354" lon="26.1317638">
    <name>node/3587530736</name>
    <desc>ele=36m tourism=caravan_site id=node/3587530736</desc>
  </wpt>
  <wpt lat="58.3849984" lon="24.5260241">
    <name>Konse karavankämping</name>
    <desc>ele=6m addr:city=Pärnu addr:housenumber=44a
    addr:postcode=80021 addr:street=Suur-Jõe capacity=100
    internet_access=wlan name=Konse karavankämping name:en=Konse
    Caravan power_supply=yes sanitary_dump_station=yes
    tourism=caravan_site
    website=https://www.konse.ee/en/caravans-camping/
    id=node/3606271993</desc>
  </wpt>
  <wpt lat="58.4082991" lon="26.0508964">
    <name>Vaibla Puhkeskeskus</name>
    <desc>ele=37m addr:street=Vaibla tee
    email=info@vaiblapukekeskus.ee name=Vaibla Puhkeskeskus
    tourism=caravan_site website=http://www.vaiblapukekeskus.ee
    id=node/4307008991</desc>
  </wpt>
  <wpt lat="59.3936866" lon="27.7933364">
    <name>Дом Ира Антонова, квартира 4.</name>
    <desc>ele=23m name=Дом Ира Антонова, квартира 4.
    tourism=caravan_site id=node/4430436792</desc>
  </wpt>
  <wpt lat="59.3302385" lon="24.5398861">
    <name>Vanamõisa karavanipark</name>
    <desc>ele=32m addr:city=Vanamõisa küla addr:housenumber=18
    addr:postcode=76407 addr:street=Vabaõhukeskuse tee capacity=100
    email=info@caravanpark.ee fee=yes internet_access=wlan
    name=Vanamõisa karavanipark name:en=Vanamõisa Caravan Park
    name:et=Vanamõisa karavanipark phone=+372 58666696
    sanitary_dump_station=yes shower=yes tents=yes toilets=yes
    tourism=caravan_site water_point=yes
    website=https://caravanpark.ee/ id=node/4952609622</desc>
  </wpt>
  <wpt lat="58.3689769" lon="26.7446657">
    <name>node/4992208524</name>
    <desc>ele=36m tourism=caravan_site id=node/4992208524</desc>
  </wpt>
  <wpt lat="59.2483072" lon="23.7460405">
    <name>Keibu I</name>
    <desc>ele=8m name=Keibu I power_supply=no
    sanitary_dump_station=no tents=yes tourism=caravan_site
    id=node/6646140495</desc>
  </wpt>
  <wpt lat="58.5962445" lon="23.0848224">
    <name>node/6710940185</name>
    <desc>ele=15m tourism=caravan_site id=node/6710940185</desc>
  </wpt>
  <wpt lat="58.9963381" lon="27.2740357">
    <name>node/7726335286</name>
    <desc>ele=43m tourism=caravan_site id=node/7726335286</desc>
  </wpt>
  <wpt lat="57.972552300000004" lon="26.41285793227307">
    <name>way/684989066</name>
    <desc>ele=107m tourism=caravan_site id=way/684989066</desc>
  </wpt>
  <wpt lat="59.394650150000004" lon="27.96782341825698">
    <name>way/712031047</name>
    <desc>ele=45m tourism=caravan_site id=way/712031047</desc>
  </wpt>
  <wpt lat="57.99087515" lon="24.416558893434065">
    <name>way/724693831</name>
    <desc>caravans=yes tourism=caravan_site id=way/724693831</desc>
  </wpt>
  <trk>
    <name>way/684989066</name>
    <trkseg>
      <trkpt lat="57.9726674" lon="26.4129197"></trkpt>
      <trkpt lat="57.9723986" lon="26.412439"></trkpt>
      <trkpt lat="57.9722502" lon="26.4127056"></trkpt>
      <trkpt lat="57.9724372" lon="26.4130843"></trkpt>
      <trkpt lat="57.9726674" lon="26.4129197"></trkpt>
    </trkseg>
  </trk>
  <trk>
    <name>way/712031047</name>
    <trkseg>
      <trkpt lat="59.3945139" lon="27.9678404"></trkpt>
      <trkpt lat="59.3947246" lon="27.9680572"></trkpt>
      <trkpt lat="59.3947664" lon="27.9677703"></trkpt>
      <trkpt lat="59.3945757" lon="27.9675996"></trkpt>
      <trkpt lat="59.3945139" lon="27.9678404"></trkpt>
    </trkseg>
  </trk>
  <trk>
    <name>way/724693831</name>
    <trkseg>
      <trkpt lat="57.9907624" lon="24.41672"></trkpt>
      <trkpt lat="57.9908212" lon="24.4167546"></trkpt>
      <trkpt lat="57.9908388" lon="24.416681"></trkpt>
      <trkpt lat="57.9909115" lon="24.4166349"></trkpt>
      <trkpt lat="57.9909704" lon="24.4166853"></trkpt>
      <trkpt lat="57.9909833" lon="24.416632"></trkpt>
      <trkpt lat="57.9909986" lon="24.4165685"></trkpt>
      <trkpt lat="57.9908166" lon="24.4164083"></trkpt>
      <trkpt lat="57.9907624" lon="24.41672"></trkpt>
    </trkseg>
  </trk>
</gpx>
