<?xml version="1.0" encoding="utf-8"?>
<gpx xmlns="http://www.topografix.com/GPX/1/1"
xmlns:xsi="http://www.w3.org/2001/XMLSchema-instance"
xsi:schemaLocation="http://www.topografix.com/GPX/1/1 http://www.topografix.com/GPX/1/1/gpx.xsd"
version="1.1" creator="togpx">
  <metadata>
    <copyright>
      <license>"osm3s": { "timestamp_osm_base":
      "2022-08-29T11:46:53Z", "timestamp_areas_base":
      "2022-07-20T10:48:09Z", "copyright": "The data included in
      this document is from www.openstreetmap.org. The data is made
      available under ODbL." } // SRTM: { Elevation data missing in
      OSM was added by the NASA Shuttle Radar Topography Mission as
      public release version, if available there. } // { Check for
      latest version of this file on:
      https://github.com/GpxFeed/campgrounds }</license>
    </copyright>
  </metadata>
  <wpt lat="35.8496539" lon="14.5270591">
    <ele>63</ele>
    <name>Lasco</name>
    <desc>name=Lasco; shop=supermarket; id=node/264317277</desc>
  </wpt>
  <wpt lat="35.9530724" lon="14.4193139">
    <ele>26</ele>
    <name>Trolees</name>
    <desc>addr:street=Triq il-Merluzz; name=Trolees;
    opening_hours=Mo-Sa 08:00-21:30, Su 08:00-18:30;
    shop=supermarket; id=node/297019799</desc>
  </wpt>
  <wpt lat="36.0246136" lon="14.2958081">
    <ele>38</ele>
    <name>Ta'Miema CLOSED</name>
    <desc>name=Ta'Miema CLOSED; shop=supermarket;
    id=node/306268480</desc>
  </wpt>
  <wpt lat="36.070917" lon="14.2563974">
    <ele>28</ele>
    <name>Ta Dirjanu</name>
    <desc>name=Ta Dirjanu; shop=supermarket; source=survey;
    id=node/322591643</desc>
  </wpt>
  <wpt lat="36.0712081" lon="14.2562069">
    <ele>28</ele>
    <name>Galeta Super Market</name>
    <desc>name=Galeta Super Market; shop=supermarket;
    source=survey; id=node/322591644</desc>
  </wpt>
  <wpt lat="36.0468793" lon="14.2440855">
    <ele>74</ele>
    <name>G &amp; R</name>
    <desc>name=G &amp; R; shop=supermarket; source=survey;
    id=node/324400933</desc>
  </wpt>
  <wpt lat="36.0457324" lon="14.2333995">
    <ele>106</ele>
    <name>Ta Dirjanu Food Store</name>
    <desc>name=Ta Dirjanu Food Store; note=was St. Mary
    Supermarket; shop=supermarket; source=survey;
    id=node/324400939</desc>
  </wpt>
  <wpt lat="36.0445059" lon="14.2341966">
    <ele>96</ele>
    <name>Ta Dirjanu Supermarket</name>
    <desc>addr:housename=TaDirjanu Supermarket;
    addr:housenumber=21565927; name=Ta Dirjanu Supermarket;
    shop=supermarket; source=survey;
    website=http://www.tadirjanu.com/; id=node/324400945</desc>
    <link href="http://www.tadirjanu.com/"></link>
  </wpt>
  <wpt lat="36.0593801" lon="14.2258464">
    <ele>102</ele>
    <name>Light House Discount Supermarket</name>
    <desc>name=Light House Discount Supermarket; shop=supermarket;
    source=survey; id=node/324401062</desc>
  </wpt>
  <wpt lat="36.0304236" lon="14.2350079">
    <ele>79</ele>
    <name>node/324402159</name>
    <desc>shop=supermarket; source=survey; id=node/324402159</desc>
  </wpt>
  <wpt lat="36.0316909" lon="14.2344569">
    <ele>69</ele>
    <name>node/324402161</name>
    <desc>shop=supermarket; source=survey; id=node/324402161</desc>
  </wpt>
  <wpt lat="36.0446136" lon="14.291701">
    <ele>133</ele>
    <name>Johny's Supermarket</name>
    <desc>name=Johny's Supermarket; shop=supermarket;
    source=survey; id=node/324669162</desc>
  </wpt>
  <wpt lat="36.0379417" lon="14.2929699">
    <ele>156</ele>
    <name>Josies Supermarket</name>
    <desc>name=Josies Supermarket; shop=supermarket; source=survey;
    id=node/324669682</desc>
  </wpt>
  <wpt lat="36.0386276" lon="14.2940214">
    <ele>154</ele>
    <name>Azzopardi</name>
    <desc>name=Azzopardi; shop=supermarket; source=survey;
    id=node/330012914</desc>
  </wpt>
  <wpt lat="36.0491348" lon="14.2743364">
    <ele>126</ele>
    <name>Ramla Store</name>
    <desc>name=Ramla Store; shop=supermarket; source=survey;
    id=node/330013149</desc>
  </wpt>
  <wpt lat="35.910809" lon="14.5060632">
    <ele>25</ele>
    <name>Tower Supermarket</name>
    <desc>name=Tower Supermarket; opening_hours=Mo-Su 08:00-20:00;
    shop=supermarket; id=node/385268620</desc>
  </wpt>
  <wpt lat="35.9123751" lon="14.5046933">
    <ele>37</ele>
    <name>Lidl</name>
    <desc>addr:city=Sliema; addr:country=MT; addr:street=Triq
    Amery; brand:wikipedia=en:Lidl; name=Lidl; opening_hours=Su-We
    07:00-19:00, Th-Sa 07:00-22:00; phone=+35680062777;
    shop=supermarket; website=https://www.lidl.com.mt;
    id=node/387213363</desc>
    <link href="https://www.lidl.com.mt"></link>
  </wpt>
  <wpt lat="35.9102709" lon="14.4268876">
    <ele>72</ele>
    <name>Save Wise Supermarket</name>
    <desc>addr:street=Triq Wied Is-Sir; name=Save Wise Supermarket;
    shop=supermarket; id=node/455230993</desc>
  </wpt>
  <wpt lat="35.9197145" lon="14.4800494">
    <ele>48</ele>
    <name>Corner Foodstore</name>
    <desc>name=Corner Foodstore; shop=supermarket;
    id=node/481281956</desc>
  </wpt>
  <wpt lat="36.0592955" lon="14.2096121">
    <ele>121</ele>
    <name>Tas Saif</name>
    <desc>name=Tas Saif; opening_hours=Mo-Sa 06:30-12:30,
    16:00-19:00; shop=supermarket; id=node/496330612</desc>
  </wpt>
  <wpt lat="35.9081855" lon="14.4821995">
    <ele>74</ele>
    <name>node/496330626</name>
    <desc>shop=supermarket; id=node/496330626</desc>
  </wpt>
  <wpt lat="36.0556432" lon="14.2121155">
    <ele>131</ele>
    <name>Lighthouse Supermarket</name>
    <desc>name=Lighthouse Supermarket; shop=supermarket;
    id=node/538836956</desc>
  </wpt>
  <wpt lat="36.0241714" lon="14.2437292">
    <ele>110</ele>
    <name>Muscat</name>
    <desc>name=Muscat; shop=supermarket; id=node/577033832</desc>
  </wpt>
  <wpt lat="36.0237608" lon="14.2462425">
    <ele>117</ele>
    <name>node/577033833</name>
    <desc>shop=supermarket; id=node/577033833</desc>
  </wpt>
  <wpt lat="35.8265448" lon="14.4708804">
    <ele>126</ele>
    <name>Nigret Self Service</name>
    <desc>addr:housenumber=2; addr:street=Triq Wied Babu;
    name=Nigret Self Service; shop=supermarket;
    id=node/585144029</desc>
  </wpt>
  <wpt lat="35.921904" lon="14.4918142">
    <ele>17</ele>
    <name>Arkadia Foodstore</name>
    <desc>name=Arkadia Foodstore; opening_hours=Mo-Su 08:00-21:00;
    shop=supermarket; id=node/656696610</desc>
  </wpt>
  <wpt lat="35.9127404" lon="14.4346104">
    <ele>104</ele>
    <name>Scotts</name>
    <desc>name=Scotts; shop=supermarket; id=node/767819666</desc>
  </wpt>
  <wpt lat="35.915773" lon="14.4483551">
    <ele>132</ele>
    <name>Valyou Superstore</name>
    <desc>addr:city=Naxxar; addr:street=Triq il-Parroċċa;
    email=naxxar@valyou.com.mt; name=Valyou Superstore;
    opening_hours=Mo-Th,Sa 07:30-20:00, Fr 07:30-21:00, Su
    09:00-17:00; phone=+356 2338 2338; shop=supermarket;
    id=node/767819773</desc>
  </wpt>
  <wpt lat="36.034182" lon="14.2544815">
    <ele>95</ele>
    <name>Best Saver</name>
    <desc>name=Best Saver; operator=sympatia crai;
    shop=supermarket; id=node/822880522</desc>
  </wpt>
  <wpt lat="36.0341039" lon="14.2548999">
    <ele>95</ele>
    <name>safeway</name>
    <desc>name=safeway; shop=supermarket; id=node/822880526</desc>
  </wpt>
  <wpt lat="36.0510333" lon="14.2677426">
    <ele>132</ele>
    <name>Galea Supermarket</name>
    <desc>name=Galea Supermarket; shop=supermarket;
    id=node/894516892</desc>
  </wpt>
  <wpt lat="35.8573256" lon="14.4370989">
    <ele>117</ele>
    <name>JJ Supermarket</name>
    <desc>name=JJ Supermarket; shop=supermarket;
    id=node/911608816</desc>
  </wpt>
  <wpt lat="35.8940878" lon="14.4417909">
    <ele>79</ele>
    <name>Scotts</name>
    <desc>name=Scotts; shop=supermarket; wheelchair=limited;
    id=node/988311577</desc>
  </wpt>
  <wpt lat="35.9058912" lon="14.4297804">
    <ele>80</ele>
    <name>brema</name>
    <desc>name=brema; shop=supermarket; id=node/1160028169</desc>
  </wpt>
  <wpt lat="35.8930342" lon="14.4772833">
    <ele>39</ele>
    <name>Park Towers</name>
    <desc>name=Park Towers; shop=supermarket;
    id=node/1312748144</desc>
  </wpt>
  <wpt lat="35.9567966" lon="14.3623494">
    <ele>119</ele>
    <name>node/1444963540</name>
    <desc>shop=supermarket; wheelchair=no;
    id=node/1444963540</desc>
  </wpt>
  <wpt lat="35.9673717" lon="14.3503639">
    <ele>19</ele>
    <name>node/1482149468</name>
    <desc>opening_hours=Mo-Fr 07:30-19:00, Sa 06:30-23:00;
    shop=supermarket; id=node/1482149468</desc>
  </wpt>
  <wpt lat="35.8998769" lon="14.4919046">
    <ele>23</ele>
    <name>Gala Centre</name>
    <desc>addr:city=Ta' Xbiex; addr:postcode=XBX 1407;
    addr:street=Triq Testaferrata; conveying=yes;
    description=Department store and supermarket; elevator=yes;
    level=1; name=Gala Centre; opening_hours=Mo-Fr 09:00-19:00, Sa
    09:00-14:00, 16:00-19:00; payment:cash=yes;
    payment:credit_cards=yes; phone=+35621331620; shop=supermarket;
    website=http://www.gala.com.mt/shop/; wheelchair=limited;
    id=node/1512993924</desc>
    <link href="http://www.gala.com.mt/shop/"></link>
  </wpt>
  <wpt lat="35.9079063" lon="14.5103571">
    <ele>19</ele>
    <name>Chain Supermarket</name>
    <desc>level=-2; name=Chain Supermarket; shop=supermarket;
    id=node/2078754741</desc>
  </wpt>
  <wpt lat="36.0387131" lon="14.2600177">
    <ele>84</ele>
    <name>Cini Tal-Mija</name>
    <desc>addr:housename=Cini Tal-Mija Ltd; addr:housenumber=NB;
    addr:street=St. Leonard Str; name=Cini Tal-Mija;
    shop=supermarket; website=www.cinitalmija.com;
    id=node/2180460174</desc>
    <link href="www.cinitalmija.com"></link>
  </wpt>
  <wpt lat="35.8943269" lon="14.4624846">
    <ele>48</ele>
    <name>JMB Supermarket</name>
    <desc>name=JMB Supermarket; shop=supermarket;
    id=node/2216616881</desc>
  </wpt>
  <wpt lat="35.9127316" lon="14.5014941">
    <ele>38</ele>
    <name>Miracle Foods</name>
    <desc>addr:street=Triq Sir Adrian Dingli; name=Miracle Foods;
    opening_hours=Mo-Sa 08:00-20:00, Su 09:00-19:00;
    phone=+35625582465; shop=supermarket;
    website=https://www.miraclefoods.com.mt/;
    id=node/2313037599</desc>
    <link href="https://www.miraclefoods.com.mt/"></link>
  </wpt>
  <wpt lat="35.916989" lon="14.4932364">
    <ele>17</ele>
    <name>Park Towers Supermarkets</name>
    <desc>name=Park Towers Supermarkets; shop=supermarket;
    id=node/2313037605</desc>
  </wpt>
  <wpt lat="35.9523058" lon="14.4110008">
    <ele>10</ele>
    <name>Ginger's</name>
    <desc>name=Ginger's; shop=supermarket;
    id=node/2329334305</desc>
  </wpt>
  <wpt lat="35.9006656" lon="14.490613">
    <ele>24</ele>
    <name>A.D. SuperMarket</name>
    <desc>addr:city=Msida; addr:street=Triq C. De Brocktorff;
    name=A.D. SuperMarket; opening_hours=Mo-Sa 07:00-19:30, Su
    08:30-12:30; payment:cash=yes; payment:credit_cards=yes;
    phone=+356 2731 1834; shop=supermarket;
    id=node/2448005038</desc>
  </wpt>
  <wpt lat="35.8969154" lon="14.5103237">
    <ele>57</ele>
    <name>Wembley Store</name>
    <desc>check_date:opening_hours=2022-08-13; name=Wembley Store;
    opening_hours=Mo-Fr 07:15-19:00, Sa 07:45-19:00, Su
    10:00-13:00; shop=supermarket; id=node/2471737885</desc>
  </wpt>
  <wpt lat="35.9661794" lon="14.3595576">
    <ele>9</ele>
    <name>Luna</name>
    <desc>name=Luna; shop=supermarket; id=node/2697773934</desc>
  </wpt>
  <wpt lat="35.9133582" lon="14.4798526">
    <ele>66</ele>
    <name>A.P.G. Discount Store</name>
    <desc>name=A.P.G. Discount Store; shop=supermarket;
    id=node/2803444944</desc>
  </wpt>
  <wpt lat="35.9022912" lon="14.4940502">
    <ele>8</ele>
    <name>Miracle Foods</name>
    <desc>addr:street=Triq L-Imsida; description=Frozen food
    supermarket; name=Miracle Foods; opening_hours=Mo-Su
    08:00-21:00; phone=+35625582435; shop=supermarket;
    website=http://www.miraclefoods.net/index.php?page_id=20;
    id=node/2804607441</desc>
    <link href="http://www.miraclefoods.net/index.php?page_id=20">
    </link>
  </wpt>
  <wpt lat="35.878398" lon="14.4830661">
    <ele>11</ele>
    <name>Lidl</name>
    <desc>addr:city=Qormi; addr:postcode=QRM 9061; addr:street=Triq
    l-Iljun; brand=Lidl; brand:wikidata=Q151954;
    brand:wikipedia=en:Lidl; name=Lidl; opening_hours=Mo-Sa
    07:00-20:00; shop=supermarket; id=node/2806037254</desc>
  </wpt>
  <wpt lat="35.8715651" lon="14.4418964">
    <ele>98</ele>
    <name>node/2810493353</name>
    <desc>shop=supermarket; id=node/2810493353</desc>
  </wpt>
  <wpt lat="35.8719868" lon="14.441667">
    <ele>103</ele>
    <name>node/2810493362</name>
    <desc>shop=supermarket; id=node/2810493362</desc>
  </wpt>
  <wpt lat="35.8722675" lon="14.4427371">
    <ele>100</ele>
    <name>node/2810493366</name>
    <desc>shop=supermarket; id=node/2810493366</desc>
  </wpt>
  <wpt lat="35.9132581" lon="14.4397005">
    <ele>123</ele>
    <name>Miracle Foods</name>
    <desc>name=Miracle Foods; shop=supermarket;
    id=node/2870020274</desc>
  </wpt>
  <wpt lat="35.9017156" lon="14.4895574">
    <ele>24</ele>
    <name>K-Marte. syrain food</name>
    <desc>name=K-Marte. syrain food; shop=supermarket;
    id=node/3084165719</desc>
  </wpt>
  <wpt lat="35.9008943" lon="14.4895212">
    <ele>23</ele>
    <name>node/3084178106</name>
    <desc>shop=supermarket; id=node/3084178106</desc>
  </wpt>
  <wpt lat="35.8432155" lon="14.5412616">
    <ele>37</ele>
    <name>Spar</name>
    <desc>addr:city=Marsaxlokk; addr:postcode=MXK9044;
    addr:street=Triq Iż-Żejtun; brand=Spar; brand:wikidata=Q610492;
    brand:wikipedia=en:SPAR (retailer); name=Spar;
    opening_hours=Mo-Su 07:00-21:00; payment:cash=yes;
    payment:credit_cards=yes; shop=supermarket;
    id=node/3263294786</desc>
  </wpt>
  <wpt lat="35.8570829" lon="14.5196106">
    <ele>43</ele>
    <name>J Micallef (Petrus)</name>
    <desc>name=J Micallef (Petrus); shop=supermarket;
    id=node/3504937220</desc>
  </wpt>
  <wpt lat="36.0398258" lon="14.292339">
    <ele>140</ele>
    <name>C-Town</name>
    <desc>name=C-Town; opening_hours=Mo-Sa 06:00-19:00, Su
    07:00-12:30; shop=supermarket; wheelchair=limited;
    id=node/3583903213</desc>
  </wpt>
  <wpt lat="36.0250919" lon="14.2868492">
    <ele>74</ele>
    <name>Ta Dirjanu</name>
    <desc>addr:housename=Ta dirjanu; name=Ta Dirjanu;
    shop=supermarket; source=36.0250954,14.2846271,17;
    id=node/3890798385</desc>
  </wpt>
  <wpt lat="36.0711648" lon="14.2563066">
    <ele>28</ele>
    <name>Light house</name>
    <desc>name=Light house; shop=supermarket;
    id=node/3890826076</desc>
  </wpt>
  <wpt lat="35.9170965" lon="14.4990983">
    <ele>12</ele>
    <name>V&amp;F Supermarket</name>
    <desc>name=V&amp;F Supermarket; shop=supermarket;
    id=node/4245017591</desc>
  </wpt>
  <wpt lat="35.8296853" lon="14.4722394">
    <ele>112</ele>
    <name>Willow Store</name>
    <desc>name=Willow Store; shop=supermarket;
    id=node/4331024345</desc>
  </wpt>
  <wpt lat="35.8998031" lon="14.485603">
    <ele>41</ele>
    <name>Turkish Mini Market</name>
    <desc>name=Turkish Mini Market; opening_hours=Mo-Fr
    08:30-21:00, Sa 10:00-21:00, Su 10:00-15:00; shop=supermarket;
    id=node/4340340591</desc>
  </wpt>
  <wpt lat="35.9045176" lon="14.4907444">
    <ele>20</ele>
    <name>Asia Food Store</name>
    <desc>name=Asia Food Store; shop=supermarket;
    id=node/4345628947</desc>
  </wpt>
  <wpt lat="35.8412095" lon="14.5457702">
    <ele>8</ele>
    <name>Sunday Fish Market</name>
    <desc>name=Sunday Fish Market; name:en=Sunday Fish Market;
    shop=supermarket; id=node/4375674493</desc>
  </wpt>
  <wpt lat="35.921004" lon="14.4735571">
    <ele>81</ele>
    <name>Bio Market</name>
    <desc>name=Bio Market; name:en=Bio Market; shop=supermarket;
    id=node/4393028705</desc>
  </wpt>
  <wpt lat="35.9078442" lon="14.4963622">
    <ele>23</ele>
    <name>The Convenience Shop</name>
    <desc>name=The Convenience Shop; name:de=The Convenience Shop;
    name:en=The Convenience Shop; opening_hours=Mo-Su 06:00-22:00;
    shop=supermarket; id=node/4471706708</desc>
  </wpt>
  <wpt lat="35.8959439" lon="14.4852524">
    <ele>17</ele>
    <name>All Malta Online</name>
    <desc>addr:housenumber=125; addr:postcode=MSD 9027;
    addr:street=Triq Il-Wied Ta' L-Imsida; name=All Malta Online;
    name:en=All Malta Online; opening_hours=Mo-Sa 10:00-14:00;
    phone=99977733; shop=supermarket;
    website=http://allmaltaonline.com; id=node/4502638492</desc>
    <link href="http://allmaltaonline.com"></link>
  </wpt>
  <wpt lat="35.8724064" lon="14.5196886">
    <ele>50</ele>
    <name>Holland and Barrett</name>
    <desc>name=Holland and Barrett; name:en=Holland and Barrett;
    shop=supermarket; id=node/4504604989</desc>
  </wpt>
  <wpt lat="35.8727707" lon="14.5216208">
    <ele>47</ele>
    <name>Chains Supermarket</name>
    <desc>name=Chains Supermarket; opening_hours=Mo-Th, Sa
    07:30-19:00, Fr 07:30-20:00; shop=supermarket;
    id=node/4506085696</desc>
  </wpt>
  <wpt lat="35.9161572" lon="14.4997979">
    <ele>28</ele>
    <name>Gerald's Fruit and Vegetables</name>
    <desc>name=Gerald's Fruit and Vegetables; shop=supermarket;
    id=node/4547708478</desc>
  </wpt>
  <wpt lat="35.9464035" lon="14.4159128">
    <ele>27</ele>
    <name>node/4639389854</name>
    <desc>shop=supermarket; id=node/4639389854</desc>
  </wpt>
  <wpt lat="35.9145154" lon="14.420671">
    <ele>80</ele>
    <name>Miracle Foods</name>
    <desc>addr:city=Il-Mosta; addr:street=Triq Nikol Muscat;
    contact:facebook=https://www.facebook.com/MiracleFoods/;
    contact:instagram=https://instagram.com/onlymiraclefoods/;
    email=info@miraclefoods.com.mt; name=Miracle Foods;
    name:en=Miracle Foods; opening_hours=Mo-Sa 08:00-20:00, Su
    09:00-19:00; operator=Miracle Foods; payment:cards=yes;
    payment:cash=yes; phone=+35625582493; shop=supermarket;
    website=https://www.miraclefoods.com.mt; wheelchair=yes;
    id=node/4763796722</desc>
    <link href="https://www.miraclefoods.com.mt"></link>
  </wpt>
  <wpt lat="35.8814549" lon="14.3980224">
    <ele>202</ele>
    <name>node/4868547421</name>
    <desc>shop=supermarket; id=node/4868547421</desc>
  </wpt>
  <wpt lat="36.0439046" lon="14.242743">
    <ele>86</ele>
    <name>The Duke Foodstore</name>
    <desc>name=The Duke Foodstore; name:en=The Duke Foodstore;
    shop=supermarket; id=node/4872630921</desc>
  </wpt>
  <wpt lat="36.043517" lon="14.2466041">
    <ele>74</ele>
    <name>Arcadia Foodstore</name>
    <desc>addr:city=Ir-Rabat; addr:street=Triq Fortunato Mizzi;
    name=Arcadia Foodstore; name:en=Arcadia Foodstore;
    opening_hours=Mo-Su 07:00-20:00; shop=supermarket;
    id=node/4874015123</desc>
  </wpt>
  <wpt lat="36.0485749" lon="14.2655433">
    <ele>142</ele>
    <name>node/4876322525</name>
    <desc>shop=supermarket; id=node/4876322525</desc>
  </wpt>
  <wpt lat="35.9160317" lon="14.4483347">
    <ele>131</ele>
    <name>node/5013888022</name>
    <desc>addr:street=San Pawl; internet_access=wlan;
    shop=supermarket; id=node/5013888022</desc>
  </wpt>
  <wpt lat="35.9159429" lon="14.4186648">
    <ele>85</ele>
    <name>Iceland Supermarket</name>
    <desc>addr:street=Triq Il-Kostituzzjoni; name=Iceland
    Supermarket; opening_hours=Mo-Sa 07:00-20:00, Su 09:00-18:00;
    phone=27075712; shop=supermarket;
    website=https://www.iceland.com.mt/; id=node/5139640122</desc>
    <link href="https://www.iceland.com.mt/"></link>
  </wpt>
  <wpt lat="35.8724555" lon="14.5283449">
    <ele>51</ele>
    <name>Scotts Supermarket</name>
    <desc>name=Scotts Supermarket; shop=supermarket;
    id=node/5276893616</desc>
  </wpt>
  <wpt lat="35.8913873" lon="14.4716264">
    <ele>62</ele>
    <name>Scotts</name>
    <desc>name=Scotts; shop=supermarket; id=node/5290219827</desc>
  </wpt>
  <wpt lat="35.9008961" lon="14.4552326">
    <ele>52</ele>
    <name>Smart</name>
    <desc>addr:city=Ħal Balzan; addr:street=Triq In-Naxxar;
    name=Smart; opening_hours=Mo-Th 07:00-20:00, Fr 07:00-21:00, Sa
    07:00-20:00, Su 09:00-18:00; shop=supermarket;
    website=http://www.smart.com.mt; id=node/5302299578</desc>
    <link href="http://www.smart.com.mt"></link>
  </wpt>
  <wpt lat="36.0364032" lon="14.2426677">
    <ele>100</ele>
    <name>Tac-Cawla</name>
    <desc>name=Tac-Cawla; shop=supermarket;
    id=node/5319686942</desc>
  </wpt>
  <wpt lat="35.9227824" lon="14.4747778">
    <ele>67</ele>
    <name>Greens</name>
    <desc>name=Greens; opening_hours=Mo-Sa 07:00-22:00, Su
    07:00-21:00; shop=supermarket; id=node/5325769308</desc>
  </wpt>
  <wpt lat="35.9549166" lon="14.3710336">
    <ele>122</ele>
    <name>Welbee supermarket</name>
    <desc>addr:street=Triq il-Kbira; email=mellieha@valyou.com.mt;
    internet_access=wlan; name=Welbee supermarket;
    opening_hours=Mo-Fr 07:30-20:00, Sa 07:00-20:00, Su
    08:00-18:00; phone=+35621523192; shop=supermarket;
    website=http://www.gsmalta.com; id=node/5363881822</desc>
    <link href="http://www.gsmalta.com"></link>
  </wpt>
  <wpt lat="35.9178329" lon="14.4894246">
    <ele>16</ele>
    <name>Park Towers Supermarket</name>
    <desc>name=Park Towers Supermarket; shop=supermarket;
    id=node/5624721113</desc>
  </wpt>
  <wpt lat="35.8712206" lon="14.5348626">
    <ele>55</ele>
    <name>daves</name>
    <desc>name=daves; opening_hours=Mo-Sa 07:00-21:00, Su
    07:00-20:00; shop=supermarket; id=node/5626280622</desc>
  </wpt>
  <wpt lat="35.8361189" lon="14.4612272">
    <ele>105</ele>
    <name>Paul &amp; Mark</name>
    <desc>name=Paul &amp; Mark; shop=supermarket;
    id=node/5638250721</desc>
  </wpt>
  <wpt lat="35.946891" lon="14.4077652">
    <ele>21</ele>
    <name>Gormino Bakery</name>
    <desc>name=Gormino Bakery; name:en=Gormina Bakery &amp;
    Confectionary; shop=supermarket; website=www.gormina.com;
    id=node/5654878121</desc>
    <link href="www.gormina.com"></link>
  </wpt>
  <wpt lat="35.9539619" lon="14.4196623">
    <ele>21</ele>
    <name>Tipsy</name>
    <desc>name=Tipsy; shop=supermarket; id=node/5799463654</desc>
  </wpt>
  <wpt lat="35.9273646" lon="14.4783551">
    <ele>46</ele>
    <name>Maypole</name>
    <desc>addr:street=Triq Madre Debrincat; name=Maypole;
    opening_hours=24/7; shop=supermarket; id=node/5849174385</desc>
  </wpt>
  <wpt lat="35.909552" lon="14.5073897">
    <ele>22</ele>
    <name>Spar</name>
    <desc>addr:street=Triq Tigné; brand=Spar;
    brand:wikidata=Q610492; brand:wikipedia=en:SPAR (retailer);
    name=Spar; opening_hours=Mo-Su 07:00-22:00; payment:cash=yes;
    payment:credit_cards=yes; shop=supermarket;
    id=node/5896564791</desc>
  </wpt>
  <wpt lat="35.9050799" lon="14.4933612">
    <ele>16</ele>
    <name>J&amp;M Self service</name>
    <desc>addr:street=Triq Manoel de Vilhena; description=Carries
    Russian food; name=J&amp;M Self service; shop=supermarket;
    id=node/5896612781</desc>
  </wpt>
  <wpt lat="36.0430766" lon="14.2482552">
    <ele>79</ele>
    <name>Light House Food Shop</name>
    <desc>name=Light House Food Shop; shop=supermarket;
    id=node/5986636085</desc>
  </wpt>
  <wpt lat="35.9221634" lon="14.4877893">
    <ele>26</ele>
    <name>Welbee's Supermarket</name>
    <desc>addr:city=Pendergardens; addr:street=Triq Gort Paceville;
    email=pendergardens@valyou.com.mt; name=Welbee's Supermarket;
    name:en=Valyou; opening_hours=Mo-Sa 08:30-20:30, Su
    09:00-19:00; phone=+356 2713 4833; shop=supermarket;
    id=node/6275999885</desc>
  </wpt>
  <wpt lat="35.8777494" lon="14.3989178">
    <ele>213</ele>
    <name>Simon's Supermarket</name>
    <desc>name=Simon's Supermarket; shop=supermarket;
    id=node/6324754233</desc>
  </wpt>
  <wpt lat="35.876801" lon="14.3962936">
    <ele>204</ele>
    <name>Garry's Supermarket</name>
    <desc>name=Garry's Supermarket; shop=supermarket;
    id=node/6324754234</desc>
  </wpt>
  <wpt lat="35.8823539" lon="14.3984405">
    <ele>203</ele>
    <name>Grocery Outlet</name>
    <desc>brand=Grocery Outlet; brand:wikidata=Q5609934;
    brand:wikipedia=en:Grocery Outlet; name=Grocery Outlet;
    operator=Flavours; shop=supermarket; id=node/6324903001</desc>
  </wpt>
  <wpt lat="35.8584995" lon="14.4902809">
    <ele>77</ele>
    <name>Corner Discount Store</name>
    <desc>name=Corner Discount Store; shop=supermarket;
    id=node/6394631027</desc>
  </wpt>
  <wpt lat="36.048636" lon="14.2653611">
    <ele>142</ele>
    <name>Lighthouse</name>
    <desc>name=Lighthouse; shop=supermarket;
    id=node/6444862086</desc>
  </wpt>
  <wpt lat="35.9448499" lon="14.4112462">
    <ele>18</ele>
    <name>Piscopo's Cash &amp; Carry</name>
    <desc>name=Piscopo's Cash &amp; Carry; opening_hours=Mo-Sa
    08:00-19:00, Su 08:00-12:30; phone=+35621570375;
    shop=supermarket; website=https://www.piscopo.com.mt/;
    id=node/6458640585</desc>
    <link href="https://www.piscopo.com.mt/"></link>
  </wpt>
  <wpt lat="35.8887997" lon="14.4875015">
    <ele>39</ele>
    <name>Alfsons Enterprises Limited</name>
    <desc>addr:city=Il-Ħamrun; addr:housenumber=5; addr:street=Triq
    Ġuże' Pace; name=Alfsons Enterprises Limited; shop=supermarket;
    id=node/6518752289</desc>
  </wpt>
  <wpt lat="36.0489151" lon="14.2613493">
    <ele>128</ele>
    <name>Robert's</name>
    <desc>name=Robert's; shop=supermarket;
    id=node/6541880397</desc>
  </wpt>
  <wpt lat="35.8752816" lon="14.4378236">
    <ele>103</ele>
    <name>St. Mary</name>
    <desc>addr:city=Ħaż-Żebbuġ; addr:housenumber=St Mary Self
    Service; addr:postcode=ZBG1609; addr:street=Santa Marija;
    name=St. Mary; payment:cash=yes; payment:coins=yes;
    payment:credit_cards=yes; payment:mastercard=yes;
    payment:notes=yes; payment:visa=yes; shop=supermarket;
    id=node/6969110221</desc>
  </wpt>
  <wpt lat="35.9223701" lon="14.4511051">
    <ele>129</ele>
    <name>thegoldenchick</name>
    <desc>addr:city=Ħal Għargħur; addr:postcode=GHR1305;
    addr:street=st john street; name=thegoldenchick;
    opening_hours=Mo-Fr 05:00-20:00; payment:none=yes;
    shop=supermarket; id=node/6987159645</desc>
  </wpt>
  <wpt lat="35.9544641" lon="14.370858">
    <ele>122</ele>
    <name>Green Valley Supermarket</name>
    <desc>addr:street=Triq Il-Fortizza; name=Green Valley
    Supermarket; opening_hours=Mo-Fr 06:30-20:00, Sa 06:30-19:30,
    Su 08:00-13:00; phone=+35621520080; shop=supermarket;
    id=node/7043195286</desc>
  </wpt>
  <wpt lat="35.9245313" lon="14.4877161">
    <ele>18</ele>
    <name>Marks &amp; Spencers</name>
    <desc>name=Marks &amp; Spencers; payment:cash=yes;
    payment:credit_cards=yes; shop=supermarket;
    id=node/7188926473</desc>
  </wpt>
  <wpt lat="35.8682785" lon="14.5449483">
    <ele>39</ele>
    <name>Chef's Choice</name>
    <desc>name=Chef's Choice; opening_hours=Mo-Fr 09:00-19:00, Sa
    08:00-19:00, Su 08:30-13:00, PH Mo-Fr 09:00-13:00, PH Sa
    08:00-13:00; shop=supermarket; id=node/7190224592</desc>
  </wpt>
  <wpt lat="35.8978583" lon="14.5153858">
    <ele>56</ele>
    <name>node/7800560386</name>
    <desc>name:fr=uptown mini market; shop=supermarket;
    id=node/7800560386</desc>
  </wpt>
  <wpt lat="35.8930441" lon="14.4383391">
    <ele>83</ele>
    <name>M4 Foodstores</name>
    <desc>addr:street=Triq Il-Linja; name=M4 Foodstores;
    shop=supermarket; id=node/7843709414</desc>
  </wpt>
  <wpt lat="35.8898121" lon="14.4438378">
    <ele>67</ele>
    <name>Miracle Foods</name>
    <desc>addr:city=Ħ'Attard; addr:street=Triq In-Nutar Zarb;
    contact:facebook=https://www.facebook.com/MiracleFoods/;
    contact:instagram=https://instagram.com/onlymiraclefoods/;
    email=info@miraclefoods.com.mt; name=Miracle Foods;
    opening_hours=Mo-Sa 09:00-19:00, Su 09:00-13:00;
    operator=Miracle Foods; phone=+35625582460; shop=supermarket;
    website=https://www.miraclefoods.com.mt/;
    id=node/8001111691</desc>
    <link href="https://www.miraclefoods.com.mt/"></link>
  </wpt>
  <wpt lat="36.0500094" lon="14.2636114">
    <ele>136</ele>
    <name>node/8177393386</name>
    <desc>payment:card=yes; payment:cash=yes; shop=supermarket;
    id=node/8177393386</desc>
  </wpt>
  <wpt lat="35.85264785" lon="14.522133855579401">
    <ele>52</ele>
    <name>Lidl</name>
    <desc>addr:city=Ghaxaq; addr:street=Tal-Barrani Road;
    brand=Lidl; brand:wikidata=Q151954; brand:wikipedia=en:Lidl;
    building=yes; name=Lidl; opening_hours=Su-We 07:00-19:00, Th-Sa
    07:00-22:00; shop=supermarket;
    website=https://www.lidl.com.mt/; id=way/42448606</desc>
    <link href="https://www.lidl.com.mt/"></link>
  </wpt>
  <wpt lat="35.87808085" lon="14.481490346330876">
    <ele>12</ele>
    <name>Pavi Supermarket</name>
    <desc>building=yes; layer=-1; name=Pavi Supermarket;
    opening_hours=Mo-Th 08:00-20:00, Fr 08:00-21:00, Sa
    07:00-20:00; shop=supermarket; wheelchair=yes;
    id=way/137714430</desc>
  </wpt>
  <wpt lat="35.86074085" lon="14.484971175773524">
    <ele>76</ele>
    <name>Lidl</name>
    <desc>addr:city=Luqa; addr:postcode=LQA 1311; addr:street=Triq
    il-Karmnu; brand=Lidl; brand:wikidata=Q151954;
    brand:wikipedia=en:Lidl; building=supermarket; name=Lidl;
    opening_hours=Su-We 07:00-19:00, Th-Sa 07:00-22:00;
    shop=supermarket; website=https://www.lidl.com.mt/;
    id=way/137719000</desc>
    <link href="https://www.lidl.com.mt/"></link>
  </wpt>
  <wpt lat="35.837011849999996" lon="14.483395233471253">
    <ele>89</ele>
    <name>Lidl</name>
    <desc>addr:city=Zurrieq; addr:street=Triq San Gwann;
    branch=Kirkop; brand=Lidl; brand:wikidata=Q151954;
    brand:wikipedia=en:Lidl; building=yes; name=Lidl;
    opening_hours=Su-We 07:00-19:00, Th-Sa 07:00-22:00;
    shop=supermarket; website=https://www.lidl.com.mt/;
    id=way/138257951</desc>
    <link href="https://www.lidl.com.mt/"></link>
  </wpt>
  <wpt lat="35.874944400000004" lon="14.464707849822407">
    <ele>62</ele>
    <name>Shopwise</name>
    <desc>name=Shopwise; shop=supermarket; id=way/139885540</desc>
  </wpt>
  <wpt lat="35.9378285" lon="14.411232640930901">
    <ele>11</ele>
    <name>Scotts</name>
    <desc>building=yes; name=Scotts; shop=supermarket;
    id=way/144012019</desc>
  </wpt>
  <wpt lat="35.86745755" lon="14.506601359565162">
    <ele>56</ele>
    <name>Carters</name>
    <desc>building=yes; name=Carters; shop=supermarket;
    id=way/152049356</desc>
  </wpt>
  <wpt lat="35.91815235" lon="14.489075692689163">
    <ele>25</ele>
    <name>Scotts Supermarket</name>
    <desc>building=yes; name=Scotts Supermarket; shop=supermarket;
    source=Bing; id=way/224009734</desc>
  </wpt>
  <wpt lat="35.90904395" lon="14.477446455587446">
    <ele>81</ele>
    <name>Lidl</name>
    <desc>addr:city=San Ġwann; addr:country=MT; addr:postcode=SGN
    1331; addr:street=Triq ic-Cikklamini; brand=Lidl;
    brand:wikidata=Q151954; brand:wikipedia=en:Lidl; building=yes;
    name=Lidl; opening_hours=Mo-Sa 07:00-22:00, Su 07:00-19:00;
    shop=supermarket; website=https://www.lidl.com.mt/;
    id=way/275638785</desc>
    <link href="https://www.lidl.com.mt/"></link>
  </wpt>
  <wpt lat="35.891706400000004" lon="14.485025734862285">
    <ele>36</ele>
    <name>Lidl</name>
    <desc>addr:city=Santa Venera; addr:postcode=SVR 1759;
    addr:street=Triq Misrah Il-Barrieri; brand=Lidl;
    brand:wikidata=Q151954; brand:wikipedia=en:Lidl;
    building=retail; name=Lidl; opening_hours=Mo-We 07:00-19:00,
    Th-Sa 07:00-22:00, Su 07:00-19:00; operator=Lidl;
    shop=supermarket; wheelchair=yes; id=way/283344060</desc>
  </wpt>
  <wpt lat="35.910962049999995" lon="14.469410399999997">
    <ele>90</ele>
    <name>savemart</name>
    <desc>addr:city=San Gwann; addr:postcode=SGN 9020;
    addr:street=Tal-Balal; building=yes; name=savemart;
    shop=supermarket; id=way/351458105</desc>
  </wpt>
  <wpt lat="35.904529249999996" lon="14.436320355400223">
    <ele>77</ele>
    <name>PAMA Supermarket</name>
    <desc>addr:city=Mosta; addr:postcode=MST 9017;
    addr:street=Valletta Road; building=yes; building:levels=2;
    name=PAMA Supermarket; opening_hours=Mo-Th 08:00-20:00, Fr
    08:00-21:00, Sa 07:00-20:00, Su 09:00-19:00; shop=supermarket;
    id=way/364342779</desc>
  </wpt>
  <wpt lat="35.8604143" lon="14.513223863857718">
    <ele>51</ele>
    <name>Scotts</name>
    <desc>name=Scotts; shop=supermarket; id=way/367772813</desc>
  </wpt>
  <wpt lat="35.917833599999994" lon="14.421361164410605">
    <ele>83</ele>
    <name>Lidl</name>
    <desc>addr:city=Mosta; addr:postcode=MST 1743; addr:street=Triq
    Id-Difiza Civili; brand=Lidl; brand:wikidata=Q151954;
    brand:wikipedia=en:Lidl; building=yes; name=Lidl;
    opening_hours=Su-We 07:00-19:00, Th-Sa 07:00-22:00;
    shop=supermarket; id=way/469643129</desc>
  </wpt>
  <wpt lat="36.0410684" lon="14.251874521389366">
    <ele>65</ele>
    <name>Lidl</name>
    <desc>amenity=parking; brand=Lidl; brand:wikidata=Q151954;
    brand:wikipedia=en:Lidl; building=yes; name=Lidl;
    opening_hours=Sa-Fr 07:00-20:00, Fr 07:00-22:00;
    parking=rooftop; shop=supermarket; id=way/577948702</desc>
  </wpt>
  <wpt lat="35.87693005" lon="14.54477862187284">
    <ele>38</ele>
    <name>Chain Supermarket</name>
    <desc>addr:city=Zabbar; addr:postcode=ZBR2853; addr:street=Triq
    L-Inhasa; building=yes; name=Chain Supermarket;
    shop=supermarket; id=way/788972693</desc>
  </wpt>
  <trk>
    <name>Lidl</name>
    <trkseg>
      <trkpt lat="35.8527952" lon="14.5217863"></trkpt>
      <trkpt lat="35.8527745" lon="14.5217995"></trkpt>
      <trkpt lat="35.8523784" lon="14.5220513"></trkpt>
      <trkpt lat="35.852546" lon="14.5224526"></trkpt>
      <trkpt lat="35.8527497" lon="14.5223228"></trkpt>
      <trkpt lat="35.8529628" lon="14.5221876"></trkpt>
      <trkpt lat="35.8527952" lon="14.5217863"></trkpt>
    </trkseg>
  </trk>
  <trk>
    <name>Pavi Supermarket</name>
    <trkseg>
      <trkpt lat="35.8777874" lon="14.4806652"></trkpt>
      <trkpt lat="35.8777493" lon="14.4806677"></trkpt>
      <trkpt lat="35.877506" lon="14.4809454"></trkpt>
      <trkpt lat="35.8774476" lon="14.4810119"></trkpt>
      <trkpt lat="35.877817" lon="14.4815444"></trkpt>
      <trkpt lat="35.8783178" lon="14.4822553"></trkpt>
      <trkpt lat="35.8787133" lon="14.4818309"></trkpt>
      <trkpt lat="35.8786894" lon="14.481797"></trkpt>
      <trkpt lat="35.8786058" lon="14.4816783"></trkpt>
      <trkpt lat="35.878534" lon="14.4815764"></trkpt>
      <trkpt lat="35.8782604" lon="14.4811881"></trkpt>
      <trkpt lat="35.8781386" lon="14.4810153"></trkpt>
      <trkpt lat="35.8781255" lon="14.4810294"></trkpt>
      <trkpt lat="35.8780871" lon="14.4810706"></trkpt>
      <trkpt lat="35.8780746" lon="14.4810529"></trkpt>
      <trkpt lat="35.8779321" lon="14.4808506"></trkpt>
      <trkpt lat="35.8777874" lon="14.4806652"></trkpt>
    </trkseg>
  </trk>
  <trk>
    <name>Lidl</name>
    <trkseg>
      <trkpt lat="35.8609998" lon="14.4849033"></trkpt>
      <trkpt lat="35.8605263" lon="14.4847716"></trkpt>
      <trkpt lat="35.8604761" lon="14.4850338"></trkpt>
      <trkpt lat="35.8609554" lon="14.4851737"></trkpt>
      <trkpt lat="35.8609998" lon="14.4849033"></trkpt>
    </trkseg>
  </trk>
  <trk>
    <name>Lidl</name>
    <trkseg>
      <trkpt lat="35.8372777" lon="14.4836034"></trkpt>
      <trkpt lat="35.8369465" lon="14.4829305"></trkpt>
      <trkpt lat="35.8369027" lon="14.4829633"></trkpt>
      <trkpt lat="35.8369278" lon="14.4830145"></trkpt>
      <trkpt lat="35.8367797" lon="14.4831254"></trkpt>
      <trkpt lat="35.8369847" lon="14.4835417"></trkpt>
      <trkpt lat="35.8369378" lon="14.4835769"></trkpt>
      <trkpt lat="35.837039" lon="14.4837823"></trkpt>
      <trkpt lat="35.8372777" lon="14.4836034"></trkpt>
    </trkseg>
  </trk>
  <trk>
    <name>Shopwise</name>
    <trkseg>
      <trkpt lat="35.875072" lon="14.4643458"></trkpt>
      <trkpt lat="35.8750161" lon="14.464306"></trkpt>
      <trkpt lat="35.874809" lon="14.4648769"></trkpt>
      <trkpt lat="35.8748727" lon="14.4649148"></trkpt>
      <trkpt lat="35.8750916" lon="14.4649064"></trkpt>
      <trkpt lat="35.875072" lon="14.4643458"></trkpt>
    </trkseg>
  </trk>
  <trk>
    <name>Scotts</name>
    <trkseg>
      <trkpt lat="35.9380066" lon="14.4112255"></trkpt>
      <trkpt lat="35.9379626" lon="14.4110592"></trkpt>
      <trkpt lat="35.9379255" lon="14.4110478"></trkpt>
      <trkpt lat="35.937665" lon="14.4111494"></trkpt>
      <trkpt lat="35.9377318" lon="14.4114147"></trkpt>
      <trkpt lat="35.9379252" lon="14.4113446"></trkpt>
      <trkpt lat="35.9380066" lon="14.4112255"></trkpt>
    </trkseg>
  </trk>
  <trk>
    <name>Carters</name>
    <trkseg>
      <trkpt lat="35.867575" lon="14.5064666"></trkpt>
      <trkpt lat="35.8673501" lon="14.5064704"></trkpt>
      <trkpt lat="35.8673432" lon="14.5067247"></trkpt>
      <trkpt lat="35.867565" lon="14.506743"></trkpt>
      <trkpt lat="35.867575" lon="14.5064666"></trkpt>
    </trkseg>
  </trk>
  <trk>
    <name>Scotts Supermarket</name>
    <trkseg>
      <trkpt lat="35.9182608" lon="14.4889659"></trkpt>
      <trkpt lat="35.9182025" lon="14.4888778"></trkpt>
      <trkpt lat="35.9181047" lon="14.4891192"></trkpt>
      <trkpt lat="35.9182" lon="14.4891804"></trkpt>
      <trkpt lat="35.9182543" lon="14.4890276"></trkpt>
      <trkpt lat="35.9182329" lon="14.4890226"></trkpt>
      <trkpt lat="35.9182608" lon="14.4889659"></trkpt>
    </trkseg>
  </trk>
  <trk>
    <name>Lidl</name>
    <trkseg>
      <trkpt lat="35.9092394" lon="14.4772994"></trkpt>
      <trkpt lat="35.9088485" lon="14.4772808"></trkpt>
      <trkpt lat="35.9088401" lon="14.4775935"></trkpt>
      <trkpt lat="35.9092495" lon="14.4776122"></trkpt>
      <trkpt lat="35.9092478" lon="14.477577"></trkpt>
      <trkpt lat="35.9092981" lon="14.477579"></trkpt>
      <trkpt lat="35.909278" lon="14.4773657"></trkpt>
      <trkpt lat="35.9092444" lon="14.4773595"></trkpt>
      <trkpt lat="35.9092394" lon="14.4772994"></trkpt>
    </trkseg>
  </trk>
  <trk>
    <name>Lidl</name>
    <trkseg>
      <trkpt lat="35.891994" lon="14.4848969"></trkpt>
      <trkpt lat="35.8918451" lon="14.484826"></trkpt>
      <trkpt lat="35.891578" lon="14.4847859"></trkpt>
      <trkpt lat="35.8915306" lon="14.4851896"></trkpt>
      <trkpt lat="35.8918348" lon="14.4852877"></trkpt>
      <trkpt lat="35.8918849" lon="14.4852599"></trkpt>
      <trkpt lat="35.891994" lon="14.4848969"></trkpt>
    </trkseg>
  </trk>
  <trk>
    <name>savemart</name>
    <trkseg>
      <trkpt lat="35.9110769" lon="14.4694075"></trkpt>
      <trkpt lat="35.9109018" lon="14.4692896"></trkpt>
      <trkpt lat="35.9108472" lon="14.4694133"></trkpt>
      <trkpt lat="35.9110223" lon="14.4695312"></trkpt>
      <trkpt lat="35.9110769" lon="14.4694075"></trkpt>
    </trkseg>
  </trk>
  <trk>
    <name>PAMA Supermarket</name>
    <trkseg>
      <trkpt lat="35.9051152" lon="14.4366035"></trkpt>
      <trkpt lat="35.9043458" lon="14.4359351"></trkpt>
      <trkpt lat="35.9041736" lon="14.4362373"></trkpt>
      <trkpt lat="35.9047127" lon="14.4367056"></trkpt>
      <trkpt lat="35.9047574" lon="14.4366271"></trkpt>
      <trkpt lat="35.9050253" lon="14.4368598"></trkpt>
      <trkpt lat="35.9050891" lon="14.4367478"></trkpt>
      <trkpt lat="35.9050516" lon="14.4367151"></trkpt>
      <trkpt lat="35.9051152" lon="14.4366035"></trkpt>
    </trkseg>
  </trk>
  <trk>
    <name>Scotts</name>
    <trkseg>
      <trkpt lat="35.8606354" lon="14.513276"></trkpt>
      <trkpt lat="35.8603468" lon="14.5129991"></trkpt>
      <trkpt lat="35.8602005" lon="14.5130952"></trkpt>
      <trkpt lat="35.8604818" lon="14.513475"></trkpt>
      <trkpt lat="35.8605139" lon="14.513477"></trkpt>
      <trkpt lat="35.8606354" lon="14.513276"></trkpt>
    </trkseg>
  </trk>
  <trk>
    <name>Lidl</name>
    <trkseg>
      <trkpt lat="35.9177943" lon="14.4209592"></trkpt>
      <trkpt lat="35.9175185" lon="14.4212348"></trkpt>
      <trkpt lat="35.9178729" lon="14.4217626"></trkpt>
      <trkpt lat="35.918021" lon="14.4216132"></trkpt>
      <trkpt lat="35.9180539" lon="14.4216639"></trkpt>
      <trkpt lat="35.9181784" lon="14.4215364"></trkpt>
      <trkpt lat="35.9177943" lon="14.4209592"></trkpt>
    </trkseg>
  </trk>
  <trk>
    <name>Lidl</name>
    <trkseg>
      <trkpt lat="36.041298" lon="14.2518045"></trkpt>
      <trkpt lat="36.0412484" lon="14.2517918"></trkpt>
      <trkpt lat="36.0412611" lon="14.2517158"></trkpt>
      <trkpt lat="36.0409369" lon="14.2516328"></trkpt>
      <trkpt lat="36.0409258" lon="14.2516994"></trkpt>
      <trkpt lat="36.040868" lon="14.2516846"></trkpt>
      <trkpt lat="36.0408123" lon="14.2520169"></trkpt>
      <trkpt lat="36.0411999" lon="14.2521163"></trkpt>
      <trkpt lat="36.0412553" lon="14.2520597"></trkpt>
      <trkpt lat="36.041298" lon="14.2518045"></trkpt>
    </trkseg>
  </trk>
  <trk>
    <name>Chain Supermarket</name>
    <trkseg>
      <trkpt lat="35.8769925" lon="14.5445835"></trkpt>
      <trkpt lat="35.8767649" lon="14.544776"></trkpt>
      <trkpt lat="35.8768676" lon="14.5449711"></trkpt>
      <trkpt lat="35.8770996" lon="14.5447847"></trkpt>
      <trkpt lat="35.8769925" lon="14.5445835"></trkpt>
    </trkseg>
  </trk>
</gpx>
