<?xml version="1.0" encoding="utf-8"?>
<gpx xmlns="http://www.topografix.com/GPX/1/1"
xmlns:xsi="http://www.w3.org/2001/XMLSchema-instance"
xsi:schemaLocation="http://www.topografix.com/GPX/1/1 http://www.topografix.com/GPX/1/1/gpx.xsd"
version="1.1" creator="togpx">
  <wpt lat="43.9620001" lon="12.4712187">
    <name>Tamoil</name>
    <desc>amenity=fuel brand=Tamoil name=Tamoil operator=Tamoil
    wheelchair=yes id=node/365152244</desc>
  </wpt>
  <wpt lat="43.9735621" lon="12.4849078">
    <name>Tamoil</name>
    <desc>amenity=fuel brand=Tamoil name=Tamoil operator=Tamoil
    wheelchair=yes id=node/365152247</desc>
  </wpt>
  <wpt lat="43.9234187" lon="12.5000007">
    <name>node/468214632</name>
    <desc>amenity=fuel id=node/468214632</desc>
  </wpt>
  <wpt lat="43.9444522" lon="12.4482246">
    <name>Esso</name>
    <desc>amenity=fuel brand=Esso brand:wikidata=Q867662
    brand:wikipedia=en:Esso name=Esso operator=Esso
    id=node/2093369587</desc>
  </wpt>
  <wpt lat="43.959008" lon="12.4752237">
    <name>Distributore bianco</name>
    <desc>amenity=fuel brand=IP name=Distributore bianco
    operator=IP id=node/2093369588</desc>
  </wpt>
  <wpt lat="43.9433514" lon="12.4467118">
    <name>Eni</name>
    <desc>amenity=fuel brand=Eni brand:wikidata=Q565594
    brand:wikipedia=en:Eni name=Eni operator=ENI
    id=node/2093369590</desc>
  </wpt>
  <wpt lat="43.9526284" lon="12.4689795">
    <name>Tentoni Carburanti</name>
    <desc>amenity=fuel brand=No-Brand name=Tentoni Carburanti
    id=node/2093369596</desc>
  </wpt>
  <wpt lat="43.9828808" lon="12.4909825">
    <name>node/2369479069</name>
    <desc>amenity=fuel building=yes id=node/2369479069</desc>
  </wpt>
  <wpt lat="43.9400224" lon="12.4462524">
    <name>IP</name>
    <desc>amenity=fuel brand=IP brand:wikidata=Q646807
    brand:wikipedia=en:Anonima Petroli Italiana name=IP
    id=node/3720314538</desc>
  </wpt>
  <wpt lat="43.9865563" lon="12.5013766">
    <name>Repsol</name>
    <desc>amenity=fuel brand=Repsol name=Repsol name:it=Repsol
    id=node/4594543593</desc>
  </wpt>
  <wpt lat="43.9897176" lon="12.512973">
    <name>node/4594556989</name>
    <desc>amenity=fuel id=node/4594556989</desc>
  </wpt>
  <wpt lat="43.9560264" lon="12.4697302">
    <name>Commercio Petroli</name>
    <desc>amenity=fuel name=Commercio Petroli name:it=Commercio
    Petroli id=node/4595293990</desc>
  </wpt>
  <wpt lat="43.9208858" lon="12.4525161">
    <name>TotalErg</name>
    <desc>amenity=fuel name=TotalErg id=node/5787069954</desc>
  </wpt>
  <wpt lat="43.9081363" lon="12.4621967">
    <name>node/7170498087</name>
    <desc>amenity=fuel id=node/7170498087</desc>
  </wpt>
  <wpt lat="43.9472705" lon="12.415748827835476">
    <name>way/365837302</name>
    <desc>amenity=fuel id=way/365837302</desc>
    <link href="1x2y3z"></link>
  </wpt>
  <trk>
    <name>way/365837302</name>
    <trkseg>
      <trkpt lat="43.9475158" lon="12.4151542"></trkpt>
      <trkpt lat="43.9470969" lon="12.4155238"></trkpt>
      <trkpt lat="43.9470992" lon="12.4156556"></trkpt>
      <trkpt lat="43.9472265" lon="12.4156685"></trkpt>
      <trkpt lat="43.9472126" lon="12.4160156"></trkpt>
      <trkpt lat="43.9473145" lon="12.4162117"></trkpt>
      <trkpt lat="43.9474232" lon="12.4162085"></trkpt>
      <trkpt lat="43.9475158" lon="12.4151542"></trkpt>
    </trkseg>
  </trk>
</gpx>
