<?xml version="1.0" encoding="utf-8"?>
<gpx xmlns="http://www.topografix.com/GPX/1/1"
xmlns:xsi="http://www.w3.org/2001/XMLSchema-instance"
xsi:schemaLocation="http://www.topografix.com/GPX/1/1 http://www.topografix.com/GPX/1/1/gpx.xsd"
version="1.1" creator="togpx">
  <metadata>
    <copyright>
      <license>"osm3s": { "timestamp_osm_base":
      "2025-07-07T17:55:00Z", "timestamp_areas_base":
      "2025-07-07T15:06:26Z", "copyright": "The data included in
      this document is from www.openstreetmap.org. The data is made
      available under ODbL." } // SRTM: { Elevation data missing in
      OSM was added by the NASA Shuttle Radar Topography Mission as
      public release version, if available there. } // { Check for
      latest version of this file on:
      https://github.com/GpxFeed/campgrounds }</license>
    </copyright>
  </metadata>
  <wpt lat="43.9620001" lon="12.4712187">
    <ele>172</ele>
    <name>Tamoil</name>
    <desc>amenity=fuel; brand=Tamoil; name=Tamoil; operator=Tamoil;
    wheelchair=yes; id=node/365152244</desc>
  </wpt>
  <wpt lat="43.9734472" lon="12.4847723">
    <ele>81</ele>
    <name>Tamoil</name>
    <desc>amenity=fuel; brand=Tamoil; compressed_air=yes;
    name=Tamoil; opening_hours=24/7; operator=Tamoil;
    wheelchair=yes; id=node/365152247</desc>
  </wpt>
  <wpt lat="43.9444522" lon="12.4482246">
    <ele>429</ele>
    <name>ACTON</name>
    <desc>amenity=fuel; name=ACTON; opening_hours=24/7;
    id=node/2093369587</desc>
  </wpt>
  <wpt lat="43.9588452" lon="12.4753304">
    <ele>211</ele>
    <name>Distributore bianco</name>
    <desc>amenity=fuel; brand=IP; compressed_air=yes;
    name=Distributore bianco; opening_hours=24/7; operator=IP;
    id=node/2093369588</desc>
  </wpt>
  <wpt lat="43.9433514" lon="12.4467118">
    <ele>435</ele>
    <name>Eni</name>
    <desc>amenity=fuel; brand=Eni; brand:wikidata=Q565594;
    brand:wikipedia=en:Eni; name=Eni; opening_hours=24/7;
    operator=ENI; id=node/2093369590</desc>
  </wpt>
  <wpt lat="43.9526284" lon="12.4689795">
    <ele>305</ele>
    <name>Tentoni Carburanti</name>
    <desc>amenity=fuel; brand=IP; name=Tentoni Carburanti;
    id=node/2093369596</desc>
  </wpt>
  <wpt lat="43.9828808" lon="12.4909825">
    <ele>83</ele>
    <name>IP</name>
    <desc>amenity=fuel; brand=IP; brand:wikidata=Q3788748;
    building=yes; compressed_air=yes; name=IP; wheelchair=yes;
    id=node/2369479069</desc>
  </wpt>
  <wpt lat="43.9400224" lon="12.4462524">
    <ele>502</ele>
    <name>IP</name>
    <desc>amenity=fuel; brand=IP; brand:wikidata=Q3788748;
    brand:wikipedia=en:Anonima Petroli Italiana; name=IP;
    id=node/3720314538</desc>
  </wpt>
  <wpt lat="43.9865563" lon="12.5013766">
    <ele>59</ele>
    <name>Repsol</name>
    <desc>amenity=fuel; brand=Repsol; compressed_air=yes;
    name=Repsol; name:it=Repsol; wheelchair=yes;
    id=node/4594543593</desc>
  </wpt>
  <wpt lat="43.9898335" lon="12.5130261">
    <ele>58</ele>
    <name>Amici</name>
    <desc>amenity=fuel; name=Amici; opening_hours=24/7;
    self_service=yes; id=node/4594556989</desc>
  </wpt>
  <wpt lat="43.9560264" lon="12.4697302">
    <ele>254</ele>
    <name>Commercio Petroli</name>
    <desc>amenity=fuel; changing_table=no; compressed_air=yes;
    name=Commercio Petroli; name:it=Commercio Petroli;
    opening_hours=Mo-Su,PH 12:00-12:00; wheelchair=yes;
    id=node/4595293990</desc>
  </wpt>
  <wpt lat="43.9208858" lon="12.4525161">
    <ele>554</ele>
    <name>TotalErg</name>
    <desc>amenity=fuel; brand=IP; brand:wikidata=Q3788748;
    name=TotalErg; id=node/5787069954</desc>
  </wpt>
  <wpt lat="43.9081363" lon="12.4621967">
    <ele>490</ele>
    <name>node/7170498087</name>
    <desc>amenity=fuel; id=node/7170498087</desc>
  </wpt>
  <wpt lat="43.9691038" lon="12.4750391">
    <ele>102</ele>
    <name>node/7635851434</name>
    <desc>amenity=fuel; id=node/7635851434</desc>
  </wpt>
  <wpt lat="43.9232636" lon="12.4990977">
    <ele>156</ele>
    <name>node/7636300259</name>
    <desc>amenity=fuel; id=node/7636300259</desc>
  </wpt>
  <wpt lat="43.9473618" lon="12.4157829">
    <ele>252</ele>
    <name>Q8</name>
    <desc>amenity=fuel; name=Q8; opening_hours=24/7;
    id=node/7693224765</desc>
  </wpt>
</gpx>
