<?xml version="1.0" encoding="utf-8"?>
<gpx xmlns="http://www.topografix.com/GPX/1/1"
xmlns:xsi="http://www.w3.org/2001/XMLSchema-instance"
xsi:schemaLocation="http://www.topografix.com/GPX/1/1 http://www.topografix.com/GPX/1/1/gpx.xsd"
version="1.1" creator="togpx">
  <metadata>
    <copyright>
      <license>"osm3s": { "timestamp_osm_base":
      "2020-10-26T13:40:02Z", "timestamp_areas_base":
      "2020-10-26T12:49:03Z", "copyright": "The data included in
      this document is from www.openstreetmap.org. The data is made
      available under ODbL." } // SRTM: { Elevation data missing in
      OSM was added by the NASA Shuttle Radar Topography Mission as
      public release version, if available there. }</license>
    </copyright>
  </metadata>
  <wpt lat="43.9620001" lon="12.4712187">
    <name>Tamoil</name>
    <desc>ele=172m amenity=fuel brand=Tamoil name=Tamoil
    operator=Tamoil wheelchair=yes id=node/365152244</desc>
  </wpt>
  <wpt lat="43.9734472" lon="12.4847723">
    <name>Tamoil</name>
    <desc>ele=81m amenity=fuel brand=Tamoil name=Tamoil
    operator=Tamoil wheelchair=yes id=node/365152247</desc>
  </wpt>
  <wpt lat="43.9444522" lon="12.4482246">
    <name>Esso</name>
    <desc>ele=429m amenity=fuel brand=Esso brand:wikidata=Q867662
    brand:wikipedia=en:Esso name=Esso operator=Esso
    id=node/2093369587</desc>
  </wpt>
  <wpt lat="43.9588452" lon="12.4753304">
    <name>Distributore bianco</name>
    <desc>ele=211m amenity=fuel brand=IP name=Distributore bianco
    operator=IP id=node/2093369588</desc>
  </wpt>
  <wpt lat="43.9433514" lon="12.4467118">
    <name>Eni</name>
    <desc>ele=435m amenity=fuel brand=Eni brand:wikidata=Q565594
    brand:wikipedia=en:Eni name=Eni operator=ENI
    id=node/2093369590</desc>
  </wpt>
  <wpt lat="43.9526284" lon="12.4689795">
    <name>Tentoni Carburanti</name>
    <desc>ele=305m amenity=fuel brand=No-Brand name=Tentoni
    Carburanti id=node/2093369596</desc>
  </wpt>
  <wpt lat="43.9828808" lon="12.4909825">
    <name>node/2369479069</name>
    <desc>ele=83m amenity=fuel building=yes
    id=node/2369479069</desc>
  </wpt>
  <wpt lat="43.9400224" lon="12.4462524">
    <name>IP</name>
    <desc>ele=502m amenity=fuel brand=IP brand:wikidata=Q646807
    brand:wikipedia=en:Anonima Petroli Italiana name=IP
    id=node/3720314538</desc>
  </wpt>
  <wpt lat="43.9865563" lon="12.5013766">
    <name>Repsol</name>
    <desc>ele=59m amenity=fuel brand=Repsol name=Repsol
    name:it=Repsol id=node/4594543593</desc>
  </wpt>
  <wpt lat="43.9897176" lon="12.512973">
    <name>node/4594556989</name>
    <desc>ele=58m amenity=fuel id=node/4594556989</desc>
  </wpt>
  <wpt lat="43.9560264" lon="12.4697302">
    <name>Commercio Petroli</name>
    <desc>ele=254m amenity=fuel name=Commercio Petroli
    name:it=Commercio Petroli id=node/4595293990</desc>
  </wpt>
  <wpt lat="43.9208858" lon="12.4525161">
    <name>TotalErg</name>
    <desc>ele=554m amenity=fuel brand=TotalErg name=TotalErg
    id=node/5787069954</desc>
  </wpt>
  <wpt lat="43.9081363" lon="12.4621967">
    <name>node/7170498087</name>
    <desc>ele=490m amenity=fuel id=node/7170498087</desc>
  </wpt>
  <wpt lat="43.9691038" lon="12.4750391">
    <name>node/7635851434</name>
    <desc>ele=102m amenity=fuel id=node/7635851434</desc>
  </wpt>
  <wpt lat="43.9232636" lon="12.4990977">
    <name>node/7636300259</name>
    <desc>ele=156m amenity=fuel id=node/7636300259</desc>
  </wpt>
  <wpt lat="43.9473618" lon="12.4157829">
    <name>node/7693224765</name>
    <desc>ele=252m amenity=fuel id=node/7693224765</desc>
  </wpt>
</gpx>
