<?xml version="1.0" encoding="utf-8"?>
<gpx xmlns="http://www.topografix.com/GPX/1/1"
xmlns:xsi="http://www.w3.org/2001/XMLSchema-instance"
xsi:schemaLocation="http://www.topografix.com/GPX/1/1 http://www.topografix.com/GPX/1/1/gpx.xsd"
version="1.1" creator="togpx">
  <metadata>
    <copyright>
      <license>"osm3s": { "timestamp_osm_base":
      "2022-02-01T01:32:23Z", "timestamp_areas_base":
      "2022-02-01T00:42:38Z", "copyright": "The data included in
      this document is from www.openstreetmap.org. The data is made
      available under ODbL." } // SRTM: { Elevation data missing in
      OSM was added by the NASA Shuttle Radar Topography Mission as
      public release version, if available there. } // { Check for
      latest version of this file on:
      https://github.com/GpxFeed/campgrounds }</license>
    </copyright>
  </metadata>
  <wpt lat="43.9620001" lon="12.4712187">
    <ele>172</ele>
    <name>Tamoil</name>
    <desc>amenity=fuel; brand=Tamoil; name=Tamoil; operator=Tamoil;
    wheelchair=yes</desc>
  </wpt>
  <wpt lat="43.9734472" lon="12.4847723">
    <ele>81</ele>
    <name>Tamoil</name>
    <desc>amenity=fuel; brand=Tamoil; name=Tamoil; operator=Tamoil;
    wheelchair=yes</desc>
  </wpt>
  <wpt lat="43.9444522" lon="12.4482246">
    <ele>429</ele>
    <name>Esso</name>
    <desc>amenity=fuel; brand=Esso; brand:wikidata=Q867662;
    brand:wikipedia=en:Esso; name=Esso; operator=Esso</desc>
  </wpt>
  <wpt lat="43.9588452" lon="12.4753304">
    <ele>211</ele>
    <name>Distributore bianco</name>
    <desc>amenity=fuel; brand=IP; name=Distributore bianco;
    operator=IP</desc>
  </wpt>
  <wpt lat="43.9433514" lon="12.4467118">
    <ele>435</ele>
    <name>Eni</name>
    <desc>amenity=fuel; brand=Eni; brand:wikidata=Q565594;
    brand:wikipedia=en:Eni; name=Eni; operator=ENI</desc>
  </wpt>
  <wpt lat="43.9526284" lon="12.4689795">
    <ele>305</ele>
    <name>Tentoni Carburanti</name>
    <desc>amenity=fuel; brand=No-Brand; name=Tentoni
    Carburanti</desc>
  </wpt>
  <wpt lat="43.9828808" lon="12.4909825">
    <ele>83</ele>
    <name>node/2369479069</name>
    <desc>amenity=fuel; building=yes</desc>
  </wpt>
  <wpt lat="43.9400224" lon="12.4462524">
    <ele>502</ele>
    <name>IP</name>
    <desc>amenity=fuel; brand=IP; brand:wikidata=Q646807;
    brand:wikipedia=en:Anonima Petroli Italiana; name=IP</desc>
  </wpt>
  <wpt lat="43.9865563" lon="12.5013766">
    <ele>59</ele>
    <name>Repsol</name>
    <desc>amenity=fuel; brand=Repsol; name=Repsol;
    name:it=Repsol</desc>
  </wpt>
  <wpt lat="43.9898335" lon="12.5130261">
    <ele>58</ele>
    <name>node/4594556989</name>
    <desc>amenity=fuel</desc>
  </wpt>
  <wpt lat="43.9560264" lon="12.4697302">
    <ele>254</ele>
    <name>Commercio Petroli</name>
    <desc>amenity=fuel; name=Commercio Petroli; name:it=Commercio
    Petroli</desc>
  </wpt>
  <wpt lat="43.9208858" lon="12.4525161">
    <ele>554</ele>
    <name>TotalErg</name>
    <desc>amenity=fuel; brand=TotalErg; name=TotalErg</desc>
  </wpt>
  <wpt lat="43.9081363" lon="12.4621967">
    <ele>490</ele>
    <name>node/7170498087</name>
    <desc>amenity=fuel</desc>
  </wpt>
  <wpt lat="43.9691038" lon="12.4750391">
    <ele>102</ele>
    <name>node/7635851434</name>
    <desc>amenity=fuel</desc>
  </wpt>
  <wpt lat="43.9232636" lon="12.4990977">
    <ele>156</ele>
    <name>node/7636300259</name>
    <desc>amenity=fuel</desc>
  </wpt>
  <wpt lat="43.9473618" lon="12.4157829">
    <ele>252</ele>
    <name>node/7693224765</name>
    <desc>amenity=fuel</desc>
  </wpt>
</gpx>
